speed,steering angle,gps quality,lat,lon,altitude,roll,pitch,yaw,image name,timestamp
0.0000000000,0.0000000000,4,50.8680108333,-0.0981673333,69.4000000000,1.1250000000,1.5000000000,359.9375000000,image0.jpg,93.6597390000
0.0549019612,0.0000000000,nan,nan,nan,nan,1.1250000000,1.5000000000,359.9375000000,image1.jpg,161.7547910000
0.0627451017,0.0000000000,4,50.8680108333,-0.0981671667,69.4000000000,1.1250000000,1.5000000000,359.9375000000,image2.jpg,227.2139060000
0.0078431377,1.0000000000,4,50.8680108333,-0.0981671667,69.4000000000,1.1250000000,1.5000000000,359.9375000000,image3.jpg,360.1651040000
0.0549019612,0.0000000000,4,50.8680108333,-0.0981671667,69.4000000000,1.1250000000,1.5000000000,359.9375000000,image4.jpg,426.3368750000
0.0549019612,0.0000000000,4,50.8680108333,-0.0981673333,69.4000000000,1.1250000000,1.5000000000,359.9375000000,image5.jpg,558.9102080000
0.0549019612,1.0000000000,4,50.8680108333,-0.0981671667,69.4000000000,1.1250000000,1.5000000000,359.9375000000,image6.jpg,626.6338540000
0.0549019612,0.0000000000,4,50.8680108333,-0.0981673333,69.4000000000,1.1250000000,1.5000000000,359.9375000000,image7.jpg,758.7807810000
0.0313725509,1.0000000000,4,50.8680108333,-0.0981673333,69.4000000000,1.1250000000,1.5000000000,359.9375000000,image8.jpg,826.3188010000
0.0627451017,0.0000000000,4,50.8680108333,-0.0981671667,69.4000000000,1.1250000000,1.5000000000,359.9375000000,image9.jpg,964.5924990000
0.0549019612,0.0000000000,4,50.8680108333,-0.0981673333,69.4000000000,1.1250000000,1.5000000000,359.9375000000,image10.jpg,1026.6523430000
0.0627451017,0.0000000000,4,50.8680108333,-0.0981671667,69.4000000000,1.1250000000,1.5000000000,359.9375000000,image11.jpg,1161.1481240000
0.1490196139,0.0000000000,4,50.8680108333,-0.0981671667,69.4000000000,1.1250000000,1.5000000000,359.9375000000,image12.jpg,1227.8084370000
0.1960784346,0.0000000000,4,50.8680108333,-0.0981671667,69.4000000000,1.1250000000,1.5000000000,359.9375000000,image13.jpg,1359.1902080000
0.2039215714,0.0000000000,4,50.8680108333,-0.0981671667,69.4000000000,1.1250000000,1.5000000000,359.9375000000,image14.jpg,1427.3931760000
0.1647058874,1.0000000000,4,50.8680108333,-0.0981671667,69.4000000000,1.1250000000,1.5000000000,359.9375000000,image15.jpg,1559.1054680000
0.1725490242,0.0000000000,4,50.8680108333,-0.0981673333,69.4000000000,1.1250000000,1.5000000000,359.9375000000,image16.jpg,1627.7629160000
0.1803921610,0.0000000000,4,50.8680108333,-0.0981673333,69.4000000000,1.1250000000,1.5000000000,359.9375000000,image17.jpg,1762.4501030000
0.2039215714,1.0000000000,4,50.8680108333,-0.0981673333,69.4000000000,1.1250000000,1.5000000000,359.9375000000,image18.jpg,1827.2690090000
0.2509804070,0.0000000000,4,50.8680108333,-0.0981673333,69.4000000000,1.1250000000,1.5000000000,0.0000000000,image19.jpg,1962.2145300000
0.2431372553,2.0000000000,4,50.8680108333,-0.0981673333,69.4000000000,1.1250000000,1.5000000000,0.0625000000,image20.jpg,2026.8872910000
0.2980392277,0.0000000000,4,50.8680108333,-0.0981673333,69.4000000000,1.3125000000,1.5000000000,0.1875000000,image21.jpg,2162.7759880000
0.3294117749,0.0000000000,4,50.8680108333,-0.0981673333,69.4000000000,1.3750000000,1.4375000000,0.2500000000,image22.jpg,2226.3158840000
0.3215686381,0.0000000000,4,50.8680106667,-0.0981673333,69.4000000000,2.0000000000,1.2500000000,0.2500000000,image23.jpg,2362.3932280000
0.3607843220,0.0000000000,4,50.8680106667,-0.0981675000,69.4000000000,2.3125000000,1.0625000000,0.3125000000,image24.jpg,2426.5958320000
0.3686274588,0.0000000000,4,50.8680105000,-0.0981675000,69.4000000000,3.3750000000,0.3750000000,0.3125000000,image25.jpg,2563.3620300000
0.3372549117,0.0000000000,4,50.8680105000,-0.0981676667,69.4000000000,4.0625000000,-0.2500000000,0.4375000000,image26.jpg,2626.2323950000
0.3294117749,1.0000000000,4,50.8680103333,-0.0981678333,69.4000000000,5.5625000000,-1.2500000000,0.6250000000,image27.jpg,2763.6320820000
0.3607843220,0.0000000000,4,50.8680101667,-0.0981676667,69.4000000000,6.1875000000,-1.6875000000,0.6250000000,image28.jpg,2826.7688530000
0.4470588267,0.0000000000,4,50.8680101667,-0.0981678333,69.4000000000,7.4375000000,-2.3125000000,0.6875000000,image29.jpg,2965.1707800000
0.4549019635,2.0000000000,4,50.8680100000,-0.0981678333,69.4000000000,7.9375000000,-2.6250000000,0.7500000000,image30.jpg,3028.1478110000
0.4627451003,0.0000000000,4,50.8680100000,-0.0981680000,69.4000000000,8.6875000000,-3.0000000000,1.0625000000,image31.jpg,3162.8493730000
0.4627451003,1.0000000000,4,50.8680098333,-0.0981680000,69.4000000000,9.3125000000,-3.1250000000,1.2500000000,image32.jpg,3230.2298420000
0.4470588267,0.0000000000,4,50.8680096667,-0.0981681667,69.4000000000,12.6250000000,-3.2500000000,1.1250000000,image33.jpg,3362.5838530000
0.4392156899,0.0000000000,4,50.8680093333,-0.0981685000,69.5000000000,13.9375000000,-3.6875000000,0.8125000000,image34.jpg,3430.6912480000
0.4078431427,0.0000000000,4,50.8680091667,-0.0981688333,69.5000000000,12.5625000000,-4.7500000000,0.3125000000,image35.jpg,3562.4638000000
0.4392156899,0.0000000000,4,50.8680091667,-0.0981695000,69.5000000000,12.6875000000,-4.5000000000,0.0625000000,image36.jpg,3631.1782270000
0.4549019635,0.0000000000,4,50.8680090000,-0.0981696667,69.4000000000,12.0000000000,-3.9375000000,359.4375000000,image37.jpg,3763.0606750000
0.4392156899,0.0000000000,4,50.8680088333,-0.0981700000,69.4000000000,10.8750000000,-4.0625000000,359.3750000000,image38.jpg,3831.4546860000
0.4392156899,1.0000000000,4,50.8680088333,-0.0981705000,69.4000000000,8.1250000000,-4.2500000000,358.8125000000,image39.jpg,3962.9964570000
0.4078431427,0.0000000000,4,50.8680085000,-0.0981708333,69.4000000000,5.8125000000,-4.0000000000,358.0000000000,image40.jpg,4031.1958310000
0.4392156899,0.0000000000,4,50.8680085000,-0.0981713333,69.4000000000,0.5625000000,-5.5625000000,359.6875000000,image41.jpg,4162.4475500000
0.4392156899,2.0000000000,4,50.8680085000,-0.0981720000,69.4000000000,2.1875000000,-5.1875000000,0.7500000000,image42.jpg,4231.3477060000
0.4392156899,0.0000000000,4,50.8680081667,-0.0981723333,69.4000000000,6.7500000000,-6.1875000000,1.3750000000,image43.jpg,4363.4446330000
0.4392156899,1.0000000000,4,50.8680078333,-0.0981723333,69.4000000000,7.1250000000,-5.9375000000,1.0625000000,image44.jpg,4431.2420810000
0.4392156899,0.0000000000,4,50.8680078333,-0.0981725000,69.4000000000,7.1875000000,-4.7500000000,1.5625000000,image45.jpg,4562.6402580000
0.4392156899,0.0000000000,4,50.8680078333,-0.0981725000,69.4000000000,6.8750000000,-4.6875000000,1.2500000000,image46.jpg,4630.2922380000
0.3921568692,0.0000000000,4,50.8680076667,-0.0981726667,69.4000000000,5.9375000000,-5.0625000000,1.6250000000,image47.jpg,4761.9021330000
0.4549019635,0.0000000000,4,50.8680075000,-0.0981731667,69.4000000000,5.3125000000,-6.0000000000,1.6875000000,image48.jpg,4831.5356750000
0.4392156899,0.0000000000,4,50.8680073333,-0.0981738333,69.4000000000,2.7500000000,-7.8750000000,1.7500000000,image49.jpg,4962.2878100000
0.3921568692,-1.0000000000,4,50.8680071667,-0.0981740000,69.4000000000,1.1250000000,-9.6250000000,1.8750000000,image50.jpg,5030.6229670000
0.4470588267,-1.0000000000,4,50.8680070000,-0.0981746667,69.4000000000,0.0000000000,-10.7500000000,0.7500000000,image51.jpg,5162.4901020000
0.3921568692,-2.0000000000,4,50.8680070000,-0.0981753333,69.4000000000,-1.3750000000,-10.6250000000,0.2500000000,image52.jpg,5231.3131230000
0.4392156899,-2.0000000000,4,50.8680070000,-0.0981760000,69.4000000000,-1.3750000000,-12.8750000000,1.0625000000,image53.jpg,5362.3605180000
0.4627451003,0.0000000000,4,50.8680066667,-0.0981765000,69.4000000000,0.0000000000,-14.0625000000,1.0625000000,image54.jpg,5432.0708310000
0.4470588267,-2.0000000000,4,50.8680061667,-0.0981770000,69.4000000000,0.0000000000,-14.4375000000,0.0000000000,image55.jpg,5562.3124450000
0.4392156899,0.0000000000,4,50.8680058333,-0.0981775000,69.4000000000,-0.6875000000,-14.3750000000,0.3750000000,image56.jpg,5631.1828100000
0.4392156899,0.0000000000,4,50.8680058333,-0.0981780000,69.4000000000,2.0000000000,-14.7500000000,359.3750000000,image57.jpg,5766.5081220000
0.4470588267,0.0000000000,4,50.8680056667,-0.0981781667,69.4000000000,2.3750000000,-15.4375000000,358.4375000000,image58.jpg,5831.5179140000
0.4078431427,1.0000000000,4,50.8680053333,-0.0981788333,69.4000000000,-0.2500000000,-13.5625000000,357.8125000000,image59.jpg,5973.1270810000
0.4549019635,0.0000000000,nan,nan,nan,nan,0.0625000000,-13.3750000000,357.9375000000,image60.jpg,6031.6912470000
0.4392156899,0.0000000000,4,50.8680050000,-0.0981793333,69.4000000000,0.2500000000,-13.0000000000,357.0625000000,image61.jpg,6099.0482790000
0.4392156899,1.0000000000,4,50.8680048333,-0.0981800000,69.4000000000,-2.6250000000,-12.0000000000,357.8750000000,image62.jpg,6237.7655700000
0.4470588267,0.0000000000,4,50.8680046667,-0.0981805000,69.4000000000,-5.5625000000,-12.6250000000,357.7500000000,image63.jpg,6298.8211430000
0.3607843220,0.0000000000,4,50.8680043333,-0.0981813333,69.3000000000,-4.0000000000,-12.5625000000,359.7500000000,image64.jpg,6431.3458310000
0.4549019635,0.0000000000,4,50.8680040000,-0.0981821667,69.3000000000,-1.2500000000,-10.9375000000,359.5000000000,image65.jpg,6498.7423930000
0.4470588267,0.0000000000,4,50.8680036667,-0.0981828333,69.3000000000,2.6250000000,-11.0625000000,358.3125000000,image66.jpg,6631.0893200000
0.3607843220,1.0000000000,4,50.8680033333,-0.0981833333,69.3000000000,2.6875000000,-11.0000000000,358.1875000000,image67.jpg,6699.2787470000
0.4470588267,0.0000000000,4,50.8680031667,-0.0981836667,69.3000000000,1.3750000000,-11.1250000000,357.1875000000,image68.jpg,6831.6470280000
0.4392156899,0.0000000000,4,50.8680028333,-0.0981841667,69.3000000000,-1.5625000000,-11.6875000000,356.6875000000,image69.jpg,6898.8846320000
0.4392156899,0.0000000000,4,50.8680026667,-0.0981850000,69.3000000000,-3.7500000000,-10.7500000000,356.5000000000,image70.jpg,7031.4047370000
0.4627451003,0.0000000000,4,50.8680025000,-0.0981858333,69.3000000000,-3.5000000000,-10.5625000000,356.0625000000,image71.jpg,7098.9328090000
0.4470588267,0.0000000000,4,50.8680025000,-0.0981863333,69.3000000000,-4.7500000000,-10.8125000000,356.0625000000,image72.jpg,7235.2829660000
0.4392156899,0.0000000000,4,50.8680023333,-0.0981866667,69.3000000000,-4.8125000000,-9.8750000000,356.7500000000,image73.jpg,7298.8591110000
0.4470588267,2.0000000000,4,50.8680021667,-0.0981871667,69.2000000000,-2.7500000000,-7.5625000000,356.8125000000,image74.jpg,7435.5466110000
0.4470588267,1.0000000000,4,50.8680018333,-0.0981871667,69.2000000000,-2.5000000000,-7.0000000000,356.5000000000,image75.jpg,7499.4667160000
0.4392156899,1.0000000000,4,50.8680018333,-0.0981873333,69.2000000000,-1.8125000000,-5.5625000000,356.1875000000,image76.jpg,7635.7195800000
0.4862745106,0.0000000000,4,50.8680016667,-0.0981878333,69.2000000000,-1.6250000000,-4.1250000000,356.3125000000,image77.jpg,7698.1357260000
0.4784313738,0.0000000000,4,50.8680013333,-0.0981881667,69.2000000000,-3.0625000000,-1.2500000000,355.6250000000,image78.jpg,7835.4481220000
0.4392156899,1.0000000000,4,50.8680011667,-0.0981886667,69.2000000000,-2.3125000000,-1.4375000000,356.8125000000,image79.jpg,7899.5517680000
0.4784313738,1.0000000000,4,50.8680010000,-0.0981891667,69.2000000000,0.6875000000,-0.1875000000,356.8750000000,image80.jpg,8035.7595800000
0.4784313738,1.0000000000,4,50.8680008333,-0.0981891667,69.2000000000,1.5000000000,0.3750000000,356.7500000000,image81.jpg,8098.6795280000
0.5098039508,1.0000000000,4,50.8680006667,-0.0981891667,69.2000000000,0.8750000000,2.3125000000,356.8125000000,image82.jpg,8235.3615590000
0.5568627715,1.0000000000,4,50.8680006667,-0.0981893333,69.2000000000,-0.7500000000,2.7500000000,356.4375000000,image83.jpg,8299.2070800000
0.5411764979,7.0000000000,4,50.8680005000,-0.0981898333,69.2000000000,-8.3750000000,2.1875000000,356.8750000000,image84.jpg,8436.2354130000
0.5411764979,8.0000000000,4,50.8680005000,-0.0981906667,69.2000000000,-8.6250000000,3.0625000000,357.6875000000,image85.jpg,8501.8348400000
0.5019608140,15.0000000000,4,50.8680003333,-0.0981906667,69.2000000000,-7.8750000000,3.0000000000,358.5625000000,image86.jpg,8635.0578090000
0.5019608140,15.0000000000,5,50.8680001667,-0.0981908333,69.1000000000,-6.0625000000,2.9375000000,359.1875000000,image87.jpg,8703.5553610000
0.5411764979,16.0000000000,5,50.8679998333,-0.0981910000,69.2000000000,-1.7500000000,1.9375000000,358.5000000000,image88.jpg,8835.6579130000
0.5333333611,14.0000000000,5,50.8679993333,-0.0981910000,69.2000000000,-1.5000000000,1.3750000000,359.1250000000,image89.jpg,8903.5618710000
0.5411764979,12.0000000000,4,50.8679995000,-0.0981915000,69.2000000000,1.2500000000,1.6250000000,0.1250000000,image90.jpg,9035.7456730000
0.5490196347,9.0000000000,4,50.8679993333,-0.0981921667,69.2000000000,1.3125000000,2.8125000000,0.4375000000,image91.jpg,9103.9914550000
0.5490196347,6.0000000000,4,50.8679991667,-0.0981923333,69.2000000000,0.8125000000,3.1875000000,1.5625000000,image92.jpg,9236.4188500000
0.5490196347,6.0000000000,4,50.8679991667,-0.0981926667,69.2000000000,1.5000000000,2.6875000000,1.6875000000,image93.jpg,9304.1623920000
0.5176470876,5.0000000000,4,50.8679990000,-0.0981938333,69.1000000000,0.9375000000,3.7500000000,1.7500000000,image94.jpg,9435.8221320000
0.5568627715,5.0000000000,5,50.8679988333,-0.0981941667,69.2000000000,-0.0625000000,4.1250000000,1.5000000000,image95.jpg,9505.0946840000
0.5882353187,7.0000000000,5,50.8679988333,-0.0981948333,69.2000000000,-4.1250000000,3.6250000000,1.0000000000,image96.jpg,9635.5445790000
0.5803921819,8.0000000000,5,50.8679988333,-0.0981956667,69.2000000000,-4.5000000000,3.0625000000,1.6250000000,image97.jpg,9708.8979130000
0.5803921819,14.0000000000,5,50.8679986667,-0.0981961667,69.2000000000,-1.3750000000,4.3125000000,3.0625000000,image98.jpg,9834.6432250000
0.5647059083,13.0000000000,5,50.8679983333,-0.0981963333,69.2000000000,0.1875000000,5.0625000000,2.8750000000,image99.jpg,9904.8173920000
0.5803921819,14.0000000000,5,50.8679981667,-0.0981965000,69.2000000000,0.0625000000,5.9375000000,3.5000000000,image100.jpg,10036.9248920000
0.5803921819,14.0000000000,5,50.8679981667,-0.0981970000,69.2000000000,-0.7500000000,6.2500000000,3.6250000000,image101.jpg,10103.0297880000
0.6274510026,12.0000000000,5,50.8679981667,-0.0981975000,69.2000000000,-2.3750000000,6.5625000000,3.9375000000,image102.jpg,10234.4192670000
0.6274510026,10.0000000000,5,50.8679980000,-0.0981978333,69.2000000000,-2.3125000000,6.9375000000,4.2500000000,image103.jpg,10302.5627040000
0.6352941394,3.0000000000,4,50.8679976667,-0.0981978333,69.2000000000,-1.1875000000,5.0625000000,4.8750000000,image104.jpg,10435.9906730000
0.6666666865,2.0000000000,4,50.8679975000,-0.0981981667,69.2000000000,-0.8125000000,3.8750000000,5.0625000000,image105.jpg,10503.4860370000
0.6196078658,0.0000000000,4,50.8679973333,-0.0981986667,69.2000000000,-1.9375000000,4.2500000000,5.0625000000,image106.jpg,10635.7089020000
0.6666666865,1.0000000000,4,50.8679971667,-0.0981995000,69.2000000000,-4.0000000000,4.6250000000,5.4375000000,image107.jpg,10702.9959330000
0.6666666865,2.0000000000,4,50.8679970000,-0.0982003333,69.2000000000,-1.8750000000,3.2500000000,5.3125000000,image108.jpg,10835.6056210000
0.6666666865,2.0000000000,4,50.8679966667,-0.0982008333,69.2000000000,-1.1250000000,2.3750000000,5.1250000000,image109.jpg,10903.0996310000
0.6666666865,9.0000000000,4,50.8679965000,-0.0982015000,69.2000000000,-2.4375000000,0.5625000000,4.5000000000,image110.jpg,11043.2677560000
0.6039215922,10.0000000000,4,50.8679963333,-0.0982021667,69.2000000000,-2.1250000000,0.3125000000,5.0625000000,image111.jpg,11102.7201000000
0.6509804130,16.0000000000,4,50.8679961667,-0.0982028333,69.2000000000,-0.6250000000,2.5000000000,5.3125000000,image112.jpg,11239.9279120000
0.6509804130,21.0000000000,4,50.8679960000,-0.0982033333,69.2000000000,-1.7500000000,2.4375000000,5.3750000000,image113.jpg,11306.7298910000
0.6509804130,25.0000000000,4,50.8679960000,-0.0982040000,69.3000000000,-4.0000000000,0.0625000000,7.4375000000,image114.jpg,11439.9327040000
0.6509804130,27.0000000000,4,50.8679956667,-0.0982048333,69.2000000000,-2.0000000000,0.2500000000,8.8125000000,image115.jpg,11502.7582770000
0.6588235497,25.0000000000,4,50.8679955000,-0.0982053333,69.3000000000,-0.4375000000,1.2500000000,9.8750000000,image116.jpg,11640.7228080000
0.6431372762,25.0000000000,4,50.8679951667,-0.0982060000,69.3000000000,-2.1875000000,2.0625000000,10.1875000000,image117.jpg,11702.2025990000
0.5568627715,25.0000000000,4,50.8679948333,-0.0982068333,69.3000000000,-1.1875000000,-2.0625000000,12.3750000000,image118.jpg,11840.2520260000
0.6431372762,23.0000000000,4,50.8679948333,-0.0982076667,69.2000000000,-1.0625000000,-2.0000000000,13.5000000000,image119.jpg,11902.1376510000
0.6431372762,22.0000000000,4,50.8679945000,-0.0982083333,69.2000000000,-2.4375000000,-3.6875000000,15.3750000000,image120.jpg,12040.2858280000
0.6509804130,23.0000000000,4,50.8679945000,-0.0982091667,69.2000000000,-0.9375000000,-4.2500000000,15.3125000000,image121.jpg,12102.0916620000
0.6666666865,16.0000000000,4,50.8679943333,-0.0982096667,69.2000000000,-2.4375000000,-3.0625000000,16.8125000000,image122.jpg,12241.1011410000
0.5960784554,12.0000000000,4,50.8679943333,-0.0982101667,69.2000000000,-3.7500000000,-2.5000000000,17.6875000000,image123.jpg,12308.2532240000
0.6745098233,7.0000000000,4,50.8679943333,-0.0982106667,69.2000000000,-0.1250000000,0.4375000000,20.0625000000,image124.jpg,12440.9897870000
0.6823529601,6.0000000000,4,50.8679941667,-0.0982108333,69.2000000000,1.2500000000,1.4375000000,20.0625000000,image125.jpg,12506.9190050000
0.7450980544,6.0000000000,4,50.8679940000,-0.0982113333,69.2000000000,0.5625000000,1.7500000000,19.4375000000,image126.jpg,12640.5873390000
0.7450980544,4.0000000000,4,50.8679941667,-0.0982120000,69.2000000000,-0.4375000000,2.6250000000,19.3750000000,image127.jpg,12708.3755160000
0.7450980544,3.0000000000,4,50.8679945000,-0.0982131667,69.2000000000,0.8125000000,6.3125000000,20.2500000000,image128.jpg,12840.1456720000
0.7450980544,3.0000000000,4,50.8679943333,-0.0982138333,69.2000000000,0.1250000000,6.4375000000,20.2500000000,image129.jpg,12907.0646820000
0.6901960969,4.0000000000,4,50.8679941667,-0.0982145000,69.2000000000,0.0000000000,2.8750000000,19.9375000000,image130.jpg,13039.7309840000
0.7450980544,2.0000000000,4,50.8679938333,-0.0982153333,69.3000000000,1.1250000000,3.3125000000,20.0625000000,image131.jpg,13106.9768700000
0.7450980544,2.0000000000,4,50.8679936667,-0.0982160000,69.2000000000,2.0625000000,3.8125000000,20.5000000000,image132.jpg,13240.6816090000
0.7137255073,0.0000000000,4,50.8679935000,-0.0982168333,69.2000000000,-1.2500000000,-0.5000000000,19.9375000000,image133.jpg,13370.5407760000
0.7450980544,-2.0000000000,4,50.8679935000,-0.0982178333,69.2000000000,-2.0000000000,-1.6250000000,19.8125000000,image134.jpg,13443.5733280000
0.7372549176,-8.0000000000,4,50.8679935000,-0.0982190000,69.2000000000,-1.5000000000,2.4375000000,20.2500000000,image135.jpg,13570.4986400000
0.7372549176,-10.0000000000,4,50.8679935000,-0.0982195000,69.2000000000,-1.1875000000,3.0000000000,19.9375000000,image136.jpg,13646.6216090000
0.7058823705,-13.0000000000,4,50.8679933333,-0.0982210000,69.2000000000,-0.3750000000,0.5000000000,18.7500000000,image137.jpg,13774.6075990000
0.7215686440,-16.0000000000,nan,nan,nan,nan,0.4375000000,0.2500000000,17.8125000000,image138.jpg,13839.1732240000
0.7450980544,-18.0000000000,4,50.8679931667,-0.0982215000,69.2000000000,0.7500000000,1.0625000000,15.8750000000,image139.jpg,13906.3294210000
0.7450980544,-18.0000000000,4,50.8679930000,-0.0982220000,69.2000000000,1.2500000000,4.2500000000,15.1875000000,image140.jpg,14043.6407760000
0.7137255073,-18.0000000000,4,50.8679928333,-0.0982223333,69.2000000000,-0.6250000000,1.5625000000,13.1250000000,image141.jpg,14106.6598380000
0.7215686440,-16.0000000000,4,50.8679926667,-0.0982231667,69.2000000000,1.1875000000,0.6875000000,10.7500000000,image142.jpg,14239.1740050000
0.7215686440,-17.0000000000,4,50.8679923333,-0.0982241667,69.2000000000,4.6250000000,0.8125000000,9.8125000000,image143.jpg,14308.2416090000
0.7686274648,-14.0000000000,4,50.8679920000,-0.0982241667,69.2000000000,2.7500000000,1.4375000000,7.6875000000,image144.jpg,14443.7814530000
0.7686274648,-10.0000000000,4,50.8679920000,-0.0982246667,69.2000000000,1.8750000000,0.6250000000,7.0625000000,image145.jpg,14507.7349420000
0.7686274648,-8.0000000000,4,50.8679918333,-0.0982255000,69.2000000000,0.3750000000,-0.7500000000,5.6250000000,image146.jpg,14640.7283270000
0.7372549176,-3.0000000000,4,50.8679915000,-0.0982260000,69.2000000000,1.6875000000,-0.1875000000,4.3125000000,image147.jpg,14710.3341610000
0.7764706016,-4.0000000000,4,50.8679911667,-0.0982261667,69.3000000000,0.9375000000,2.2500000000,3.3125000000,image148.jpg,14840.5791090000
0.7843137383,-3.0000000000,4,50.8679913333,-0.0982263333,69.3000000000,-0.6875000000,3.8750000000,2.5625000000,image149.jpg,14907.2288480000
0.7607843280,-3.0000000000,4,50.8679911667,-0.0982268333,69.3000000000,-1.6250000000,3.6875000000,2.1250000000,image150.jpg,15040.4581710000
0.7921568751,-3.0000000000,4,50.8679911667,-0.0982275000,69.3000000000,0.3750000000,3.6250000000,1.8125000000,image151.jpg,15110.6992650000
0.7921568751,-2.0000000000,4,50.8679906667,-0.0982281667,69.2000000000,0.2500000000,1.4375000000,0.8125000000,image152.jpg,15243.8237440000
0.7529411912,-2.0000000000,4,50.8679903333,-0.0982288333,69.3000000000,-0.5000000000,2.5625000000,0.6250000000,image153.jpg,15306.1093170000
0.7921568751,2.0000000000,4,50.8679900000,-0.0982298333,69.3000000000,2.7500000000,0.0625000000,359.2500000000,image154.jpg,15443.2436920000
0.7921568751,0.0000000000,4,50.8679896667,-0.0982305000,69.3000000000,2.3125000000,0.2500000000,358.1250000000,image155.jpg,15506.1577540000
0.7921568751,0.0000000000,4,50.8679893333,-0.0982315000,69.2000000000,0.4375000000,-1.6250000000,359.0625000000,image156.jpg,15647.1321810000
0.7921568751,2.0000000000,4,50.8679890000,-0.0982325000,69.2000000000,1.8750000000,-0.6875000000,358.1250000000,image157.jpg,15706.3870770000
0.7921568751,0.0000000000,4,50.8679886667,-0.0982330000,69.2000000000,2.1875000000,-0.3750000000,358.0625000000,image158.jpg,15845.6517120000
0.7921568751,3.0000000000,4,50.8679881667,-0.0982338333,69.2000000000,0.4375000000,-0.8125000000,358.0000000000,image159.jpg,15912.5769730000
0.7921568751,1.0000000000,4,50.8679880000,-0.0982350000,69.2000000000,1.6250000000,-2.4375000000,357.4375000000,image160.jpg,16045.6988480000
0.8078431487,3.0000000000,4,50.8679873333,-0.0982356667,69.2000000000,0.8125000000,0.0000000000,357.7500000000,image161.jpg,16107.2480660000
0.7058823705,7.0000000000,4,50.8679871667,-0.0982361667,69.2000000000,6.6250000000,-2.7500000000,357.7500000000,image162.jpg,16249.6901500000
0.7921568751,8.0000000000,4,50.8679866667,-0.0982368333,69.2000000000,6.3750000000,-2.6250000000,356.7500000000,image163.jpg,16310.6478060000
0.7921568751,13.0000000000,4,50.8679861667,-0.0982378333,69.2000000000,-0.5000000000,-0.8750000000,357.4375000000,image164.jpg,16445.2753060000
0.7372549176,15.0000000000,4,50.8679860000,-0.0982390000,69.2000000000,2.3750000000,-0.5625000000,357.0000000000,image165.jpg,16510.4824410000
0.7921568751,15.0000000000,4,50.8679858333,-0.0982393333,69.2000000000,3.2500000000,-3.4375000000,356.6250000000,image166.jpg,16644.0160350000
0.7372549176,13.0000000000,4,50.8679853333,-0.0982400000,69.2000000000,5.6875000000,0.0000000000,358.1875000000,image167.jpg,16712.3365560000
0.7921568751,9.0000000000,4,50.8679850000,-0.0982408333,69.2000000000,6.5000000000,-1.3125000000,358.4375000000,image168.jpg,16842.8585350000
0.7921568751,10.0000000000,4,50.8679845000,-0.0982418333,69.3000000000,3.3750000000,0.0000000000,358.5625000000,image169.jpg,16910.5047850000
0.7921568751,8.0000000000,4,50.8679843333,-0.0982428333,69.3000000000,2.6250000000,1.6875000000,0.3125000000,image170.jpg,17047.4616080000
0.7921568751,9.0000000000,4,50.8679841667,-0.0982433333,69.3000000000,4.4375000000,2.1875000000,0.8125000000,image171.jpg,17111.3945240000
0.7921568751,14.0000000000,4,50.8679836667,-0.0982438333,69.3000000000,8.5000000000,2.2500000000,1.3125000000,image172.jpg,17245.1163990000
0.7921568751,21.0000000000,4,50.8679833333,-0.0982441667,69.3000000000,7.0625000000,2.4375000000,1.3125000000,image173.jpg,17312.7792120000
0.7372549176,24.0000000000,4,50.8679831667,-0.0982453333,69.3000000000,7.9375000000,1.1250000000,2.6875000000,image174.jpg,17441.5518160000
0.7921568751,26.0000000000,4,50.8679828333,-0.0982461667,69.3000000000,6.1875000000,1.2500000000,3.8750000000,image175.jpg,17514.7407740000
0.7921568751,27.0000000000,4,50.8679825000,-0.0982475000,69.3000000000,4.5000000000,0.6250000000,7.5625000000,image176.jpg,17646.8015550000
0.7058823705,28.0000000000,4,50.8679821667,-0.0982483333,69.2000000000,4.8125000000,0.9375000000,10.0000000000,image177.jpg,17712.7150450000
0.7921568751,26.0000000000,4,50.8679818333,-0.0982491667,69.2000000000,1.6875000000,2.4375000000,10.8125000000,image178.jpg,17846.4675970000
0.7058823705,26.0000000000,4,50.8679818333,-0.0982500000,69.2000000000,-0.5000000000,3.5000000000,12.0625000000,image179.jpg,17915.9361910000
0.7921568751,29.0000000000,4,50.8679818333,-0.0982505000,69.2000000000,0.4375000000,2.5625000000,17.6875000000,image180.jpg,18045.9908260000
0.7921568751,30.0000000000,4,50.8679818333,-0.0982513333,69.3000000000,1.9375000000,0.0000000000,19.1875000000,image181.jpg,18112.7315030000
0.7921568751,28.0000000000,4,50.8679816667,-0.0982526667,69.2000000000,0.1875000000,-0.2500000000,21.7500000000,image182.jpg,18245.3094200000
0.7921568751,25.0000000000,4,50.8679816667,-0.0982536667,69.2000000000,-0.2500000000,-1.0625000000,22.7500000000,image183.jpg,18313.4266590000
0.7921568751,23.0000000000,4,50.8679816667,-0.0982545000,69.3000000000,-1.6875000000,-0.7500000000,25.1250000000,image184.jpg,18462.6125970000
0.7921568751,22.0000000000,4,50.8679816667,-0.0982550000,69.3000000000,0.3125000000,1.1875000000,27.4375000000,image185.jpg,18513.5184820000
0.7058823705,21.0000000000,4,50.8679816667,-0.0982556667,69.3000000000,3.0625000000,-0.3750000000,30.0625000000,image186.jpg,18644.1559820000
0.7921568751,21.0000000000,4,50.8679815000,-0.0982570000,69.2000000000,2.5625000000,0.5000000000,31.5000000000,image187.jpg,18711.7770760000
0.7921568751,17.0000000000,4,50.8679816667,-0.0982580000,69.3000000000,2.8750000000,1.5000000000,34.1875000000,image188.jpg,18846.2035340000
0.7215686440,16.0000000000,4,50.8679816667,-0.0982590000,69.3000000000,3.0625000000,0.3125000000,34.8750000000,image189.jpg,18911.1423880000
0.7921568751,8.0000000000,4,50.8679816667,-0.0982600000,69.2000000000,1.3750000000,1.4375000000,37.5625000000,image190.jpg,19047.3454610000
0.7921568751,8.0000000000,4,50.8679820000,-0.0982608333,69.2000000000,3.4375000000,2.5625000000,37.6875000000,image191.jpg,19110.3943150000
0.7921568751,7.0000000000,5,50.8679820000,-0.0982618333,69.2000000000,3.9375000000,2.8750000000,38.0000000000,image192.jpg,19246.4435340000
0.7921568751,8.0000000000,5,50.8679818333,-0.0982628333,69.3000000000,4.0000000000,3.3125000000,37.2500000000,image193.jpg,19316.4124920000
0.7921568751,7.0000000000,4,50.8679820000,-0.0982633333,69.3000000000,3.7500000000,3.6250000000,38.6875000000,image194.jpg,19446.6450440000
0.7921568751,7.0000000000,4,50.8679818333,-0.0982640000,69.3000000000,4.1875000000,4.4375000000,39.0000000000,image195.jpg,19516.1668670000
0.7921568751,7.0000000000,4,50.8679818333,-0.0982651667,69.3000000000,3.0625000000,5.2500000000,39.6250000000,image196.jpg,19647.1859300000
0.7686274648,6.0000000000,4,50.8679820000,-0.0982656667,69.3000000000,2.0000000000,3.8125000000,39.8750000000,image197.jpg,19715.1689510000
0.7607843280,6.0000000000,4,50.8679820000,-0.0982663333,69.3000000000,3.5000000000,-0.3125000000,40.4375000000,image198.jpg,19845.5730650000
0.8000000119,6.0000000000,4,50.8679820000,-0.0982675000,69.3000000000,3.1250000000,0.3750000000,41.0000000000,image199.jpg,19921.5255650000
0.7921568751,6.0000000000,4,50.8679823333,-0.0982688333,69.3000000000,3.5000000000,-1.0625000000,41.6875000000,image200.jpg,20046.1410340000
0.7686274648,8.0000000000,5,50.8679826667,-0.0982706667,69.3000000000,6.0000000000,-1.7500000000,41.5000000000,image201.jpg,20114.6259300000
0.8000000119,6.0000000000,5,50.8679823333,-0.0982711667,69.3000000000,2.4375000000,1.0625000000,42.1875000000,image202.jpg,20246.6106170000
0.7607843280,6.0000000000,5,50.8679826667,-0.0982721667,69.3000000000,3.0625000000,1.7500000000,43.2500000000,image203.jpg,20315.4115020000
0.7686274648,7.0000000000,4,50.8679826667,-0.0982730000,69.2000000000,2.1875000000,3.3125000000,43.3750000000,image204.jpg,20447.2366590000
0.8000000119,7.0000000000,4,50.8679828333,-0.0982741667,69.2000000000,2.1250000000,3.0625000000,44.1250000000,image205.jpg,20514.3144710000
0.8000000119,6.0000000000,4,50.8679831667,-0.0982751667,69.2000000000,3.6875000000,4.8125000000,43.9375000000,image206.jpg,20647.2529610000
0.8000000119,6.0000000000,4,50.8679831667,-0.0982760000,69.3000000000,2.3125000000,4.6875000000,43.8750000000,image207.jpg,20715.6169190000
0.8000000119,8.0000000000,4,50.8679831667,-0.0982768333,69.3000000000,2.8125000000,3.8750000000,44.7500000000,image208.jpg,20847.8173880000
0.7686274648,6.0000000000,4,50.8679833333,-0.0982778333,69.3000000000,4.6875000000,3.1250000000,44.6875000000,image209.jpg,20915.7636380000
0.8000000119,6.0000000000,4,50.8679833333,-0.0982785000,69.2000000000,2.0000000000,3.0625000000,45.1875000000,image210.jpg,21050.1236370000
0.7921568751,6.0000000000,4,50.8679836667,-0.0982795000,69.3000000000,0.7500000000,0.9375000000,45.8125000000,image211.jpg,21116.1655120000
0.7921568751,7.0000000000,4,50.8679840000,-0.0982805000,69.3000000000,0.7500000000,1.0000000000,46.4375000000,image212.jpg,21252.7203040000
0.7921568751,9.0000000000,4,50.8679841667,-0.0982815000,69.3000000000,1.7500000000,1.2500000000,47.0000000000,image213.jpg,21313.5649390000
0.7921568751,10.0000000000,4,50.8679841667,-0.0982826667,69.3000000000,3.6250000000,2.5000000000,47.7500000000,image214.jpg,21448.4038980000
0.8000000119,11.0000000000,4,50.8679843333,-0.0982835000,69.3000000000,2.6250000000,3.3125000000,47.8125000000,image215.jpg,21515.8496790000
0.7686274648,15.0000000000,4,50.8679848333,-0.0982845000,69.3000000000,3.0000000000,2.9375000000,49.1875000000,image216.jpg,21647.7480640000
0.7921568751,15.0000000000,4,50.8679850000,-0.0982856667,69.3000000000,2.3750000000,3.0000000000,49.9375000000,image217.jpg,21713.6148350000
0.7921568751,15.0000000000,4,50.8679851667,-0.0982863333,69.3000000000,5.8750000000,0.9375000000,51.5625000000,image218.jpg,21849.1205120000
0.8000000119,15.0000000000,4,50.8679853333,-0.0982876667,69.3000000000,4.6250000000,-0.3750000000,51.5000000000,image219.jpg,21915.9623350000
0.7921568751,16.0000000000,4,50.8679855000,-0.0982881667,69.3000000000,4.6250000000,-0.5000000000,53.7500000000,image220.jpg,22047.5338980000
0.7137255073,15.0000000000,4,50.8679856667,-0.0982890000,69.3000000000,5.8750000000,-0.5625000000,53.5625000000,image221.jpg,22115.7084290000
0.8156862855,15.0000000000,4,50.8679858333,-0.0982901667,69.3000000000,4.8125000000,0.6875000000,56.1250000000,image222.jpg,22252.6751470000
0.7921568751,14.0000000000,4,50.8679861667,-0.0982906667,69.3000000000,4.8750000000,2.6250000000,56.8125000000,image223.jpg,22319.9259290000
0.7921568751,14.0000000000,4,50.8679863333,-0.0982915000,69.3000000000,6.4375000000,3.6250000000,58.5625000000,image224.jpg,22450.9877520000
0.7921568751,15.0000000000,4,50.8679866667,-0.0982925000,69.3000000000,5.8125000000,3.6875000000,59.6875000000,image225.jpg,22514.7604080000
0.7921568751,11.0000000000,4,50.8679868333,-0.0982933333,69.2000000000,4.8750000000,1.1250000000,61.1875000000,image226.jpg,22651.7200430000
0.8000000119,10.0000000000,4,50.8679871667,-0.0982941667,69.2000000000,4.8125000000,-0.1875000000,62.6875000000,image227.jpg,22714.8210850000
nan,0.0000000000,4,50.8679875000,-0.0982953333,69.3000000000,8.4375000000,1.5625000000,63.1875000000,image228.jpg,22857.4458240000
nan,0.0000000000,4,50.8679876667,-0.0982963333,69.3000000000,7.9375000000,0.8125000000,64.2500000000,image229.jpg,22921.0793660000
nan,0.0000000000,4,50.8679878333,-0.0982971667,69.3000000000,5.5625000000,-0.7500000000,64.3750000000,image230.jpg,23058.1122300000
nan,0.0000000000,2,50.8679881667,-0.0982981667,69.3000000000,3.0000000000,0.1875000000,64.9375000000,image231.jpg,23121.0684280000
nan,0.0000000000,2,50.8679888333,-0.0982986667,69.3000000000,0.3750000000,2.5000000000,67.5000000000,image232.jpg,23258.6027510000
nan,0.0000000000,2,50.8679888333,-0.0982988333,69.3000000000,2.9375000000,2.8750000000,68.2500000000,image233.jpg,23320.9498870000
0.8078431487,-8.0000000000,5,50.8679890000,-0.0982986667,69.3000000000,3.4375000000,2.6250000000,67.9375000000,image234.jpg,23452.8089490000
0.9019607902,-8.0000000000,5,50.8679891667,-0.0982985000,69.3000000000,3.4375000000,3.3750000000,67.2500000000,image235.jpg,23520.4504590000
0.8862745166,-6.0000000000,5,50.8679891667,-0.0982981667,69.3000000000,5.5625000000,2.6250000000,67.3750000000,image236.jpg,23650.8770740000
0.8392156959,-5.0000000000,5,50.8679891667,-0.0982988333,69.3000000000,4.9375000000,0.6875000000,67.0000000000,image237.jpg,23718.7773340000
0.8235294223,1.0000000000,5,50.8679895000,-0.0982995000,69.3000000000,5.1250000000,0.5000000000,66.0000000000,image238.jpg,23851.2415530000
0.8313725591,0.0000000000,5,50.8679900000,-0.0983005000,69.3000000000,6.7500000000,3.4375000000,64.4375000000,image239.jpg,23921.2426470000
0.8627451062,-3.0000000000,5,50.8679903333,-0.0983011667,69.4000000000,1.1250000000,-0.1250000000,64.5625000000,image240.jpg,24052.2297820000
0.8549019694,-3.0000000000,5,50.8679908333,-0.0983023333,69.4000000000,1.6250000000,3.2500000000,64.6250000000,image241.jpg,24119.6871780000
0.8549019694,-10.0000000000,5,50.8679913333,-0.0983035000,69.3000000000,2.6250000000,4.3125000000,63.6250000000,image242.jpg,24252.2455110000
0.8156862855,-8.0000000000,5,50.8679916667,-0.0983045000,69.3000000000,2.2500000000,3.3750000000,62.8125000000,image243.jpg,24320.3216050000
0.8549019694,-8.0000000000,5,50.8679920000,-0.0983053333,69.3000000000,0.9375000000,2.9375000000,60.1875000000,image244.jpg,24451.5618650000
0.8549019694,-6.0000000000,5,50.8679921667,-0.0983061667,69.3000000000,-1.4375000000,1.4375000000,58.8125000000,image245.jpg,24520.8288970000
0.8235294223,-5.0000000000,5,50.8679925000,-0.0983071667,69.3000000000,-2.8125000000,2.1250000000,58.5625000000,image246.jpg,24653.4483760000
0.8549019694,-4.0000000000,5,50.8679930000,-0.0983080000,69.3000000000,-0.3750000000,1.9375000000,57.6875000000,image247.jpg,24722.2945220000
0.8549019694,0.0000000000,5,50.8679931667,-0.0983093333,69.3000000000,-1.8750000000,3.2500000000,55.7500000000,image248.jpg,24852.1327510000
0.8235294223,0.0000000000,5,50.8679935000,-0.0983105000,69.3000000000,-4.1875000000,3.3750000000,55.8750000000,image249.jpg,24919.6208760000
0.8549019694,6.0000000000,5,50.8679940000,-0.0983111667,69.3000000000,-4.3125000000,0.7500000000,54.6875000000,image250.jpg,25051.2895210000
0.8235294223,7.0000000000,5,50.8679941667,-0.0983125000,69.3000000000,-4.0625000000,0.6875000000,55.1250000000,image251.jpg,25119.8463960000
0.8549019694,13.0000000000,5,50.8679945000,-0.0983140000,69.3000000000,4.0625000000,0.6875000000,55.0000000000,image252.jpg,25260.2168650000
0.8549019694,17.0000000000,5,50.8679945000,-0.0983148333,69.3000000000,2.8125000000,1.8125000000,55.0000000000,image253.jpg,25318.5193130000
0.8549019694,19.0000000000,5,50.8679948333,-0.0983156667,69.3000000000,0.1875000000,2.3750000000,57.3125000000,image254.jpg,25451.6598860000
0.8549019694,23.0000000000,5,50.8679953333,-0.0983166667,69.3000000000,1.4375000000,4.9375000000,59.5625000000,image255.jpg,25519.2569170000
0.8549019694,24.0000000000,5,50.8679956667,-0.0983175000,69.3000000000,2.9375000000,2.5625000000,61.4375000000,image256.jpg,25651.1690000000
0.8549019694,27.0000000000,5,50.8679960000,-0.0983186667,69.3000000000,5.4375000000,0.5625000000,64.4375000000,image257.jpg,25719.1038960000
0.8000000119,27.0000000000,5,50.8679961667,-0.0983195000,69.3000000000,1.0625000000,0.4375000000,64.7500000000,image258.jpg,25850.4196250000
0.8549019694,28.0000000000,5,50.8679966667,-0.0983205000,69.3000000000,-0.5625000000,-1.3750000000,66.7500000000,image259.jpg,25926.3284790000
0.8549019694,28.0000000000,5,50.8679973333,-0.0983210000,69.2000000000,3.7500000000,3.0000000000,71.6250000000,image260.jpg,26055.0730110000
0.8078431487,29.0000000000,5,50.8679975000,-0.0983218333,69.2000000000,2.6875000000,1.5625000000,70.6875000000,image261.jpg,26119.6683230000
0.8549019694,29.0000000000,5,50.8679980000,-0.0983228333,69.3000000000,2.1875000000,4.6875000000,75.5625000000,image262.jpg,26257.2256670000
0.8000000119,27.0000000000,5,50.8679983333,-0.0983231667,69.3000000000,4.1875000000,3.2500000000,77.1875000000,image263.jpg,26319.9200940000
0.8549019694,25.0000000000,4,50.8679985000,-0.0983240000,69.4000000000,2.1250000000,2.8125000000,79.8750000000,image264.jpg,26454.8171250000
0.8549019694,26.0000000000,4,50.8679990000,-0.0983245000,69.4000000000,0.6250000000,2.5000000000,81.1875000000,image265.jpg,26521.8711350000
0.8549019694,24.0000000000,4,50.8679996667,-0.0983251667,69.3000000000,1.5000000000,2.2500000000,85.2500000000,image266.jpg,26657.1185830000
0.8549019694,25.0000000000,4,50.8680001667,-0.0983256667,69.3000000000,0.6875000000,2.1875000000,87.1250000000,image267.jpg,26720.8290520000
0.8549019694,22.0000000000,4,50.8680006667,-0.0983263333,69.4000000000,-2.1875000000,1.6875000000,90.6250000000,image268.jpg,26854.6724370000
0.8549019694,21.0000000000,4,50.8680015000,-0.0983261667,69.4000000000,-3.6250000000,4.4375000000,92.1250000000,image269.jpg,26918.7653540000
0.8078431487,21.0000000000,4,50.8680018333,-0.0983265000,69.4000000000,-1.1875000000,2.3750000000,95.8750000000,image270.jpg,27054.8396250000
0.8549019694,21.0000000000,4,50.8680025000,-0.0983271667,69.4000000000,0.0625000000,3.5625000000,96.9375000000,image271.jpg,27121.9601980000
0.8549019694,19.0000000000,4,50.8680031667,-0.0983278333,69.4000000000,-2.7500000000,1.8125000000,98.6250000000,image272.jpg,27254.7755100000
0.7686274648,18.0000000000,4,50.8680038333,-0.0983283333,69.4000000000,-0.9375000000,1.5000000000,100.9375000000,image273.jpg,27323.7135310000
0.8549019694,6.0000000000,4,50.8680046667,-0.0983281667,69.4000000000,0.4375000000,3.5625000000,103.1250000000,image274.jpg,27455.3028540000
0.7686274648,1.0000000000,4,50.8680051667,-0.0983283333,69.4000000000,-0.8750000000,2.0625000000,103.5625000000,image275.jpg,27524.0768120000
0.8549019694,0.0000000000,4,50.8680060000,-0.0983280000,69.4000000000,0.0625000000,3.0625000000,103.6250000000,image276.jpg,27658.7969680000
0.8549019694,0.0000000000,4,50.8680065000,-0.0983283333,69.4000000000,-1.0000000000,3.8125000000,103.5000000000,image277.jpg,27722.6993640000
0.8549019694,-1.0000000000,4,50.8680068333,-0.0983290000,69.4000000000,1.2500000000,1.8750000000,103.1875000000,image278.jpg,27860.5367080000
0.8549019694,-1.0000000000,4,50.8680076667,-0.0983300000,69.4000000000,1.8125000000,2.9375000000,102.7500000000,image279.jpg,27922.2903540000
0.8549019694,0.0000000000,4,50.8680083333,-0.0983301667,69.4000000000,-0.6875000000,2.6250000000,102.6250000000,image280.jpg,28053.6310830000
0.8549019694,-1.0000000000,4,50.8680091667,-0.0983301667,69.4000000000,-0.0625000000,2.4375000000,102.6250000000,image281.jpg,28123.0733740000
0.7686274648,0.0000000000,4,50.8680096667,-0.0983310000,69.4000000000,-2.2500000000,4.3750000000,102.1875000000,image282.jpg,28255.6455620000
0.8549019694,0.0000000000,4,50.8680106667,-0.0983311667,69.4000000000,0.6250000000,0.1250000000,102.1250000000,image283.jpg,28326.4773850000
0.8549019694,0.0000000000,4,50.8680111667,-0.0983318333,69.4000000000,0.3750000000,1.0625000000,99.6250000000,image284.jpg,28456.8854580000
0.8235294223,1.0000000000,4,50.8680118333,-0.0983321667,69.4000000000,-2.8750000000,1.1875000000,99.2500000000,image285.jpg,28523.7184780000
0.8549019694,0.0000000000,4,50.8680125000,-0.0983323333,69.4000000000,-2.7500000000,0.3125000000,99.8125000000,image286.jpg,28656.1945200000
0.8235294223,0.0000000000,4,50.8680133333,-0.0983328333,69.4000000000,-1.9375000000,-0.4375000000,98.3750000000,image287.jpg,28723.4969680000
0.8235294223,0.0000000000,4,50.8680138333,-0.0983336667,69.4000000000,1.1875000000,1.2500000000,99.1250000000,image288.jpg,28858.3214470000
0.8549019694,0.0000000000,4,50.8680146667,-0.0983341667,69.4000000000,2.9375000000,1.6250000000,98.2500000000,image289.jpg,28923.5394680000
0.8235294223,0.0000000000,4,50.8680151667,-0.0983348333,69.4000000000,-0.6250000000,1.8125000000,97.6875000000,image290.jpg,29059.0689470000
0.8549019694,0.0000000000,4,50.8680158333,-0.0983348333,69.4000000000,-0.8125000000,1.7500000000,98.1250000000,image291.jpg,29123.0443120000
0.8549019694,2.0000000000,4,50.8680165000,-0.0983355000,69.3000000000,1.0625000000,1.5625000000,97.5625000000,image292.jpg,29254.8386340000
0.8235294223,0.0000000000,4,50.8680171667,-0.0983361667,69.3000000000,1.3125000000,1.7500000000,98.3125000000,image293.jpg,29322.5168110000
0.8235294223,-2.0000000000,4,50.8680176667,-0.0983361667,69.4000000000,3.1875000000,0.9375000000,97.8125000000,image294.jpg,29454.6364470000
0.8549019694,-11.0000000000,4,50.8680183333,-0.0983366667,69.4000000000,1.1875000000,-0.3125000000,97.5000000000,image295.jpg,29522.7551970000
0.8627451062,-15.0000000000,4,50.8680190000,-0.0983370000,69.4000000000,2.1875000000,-1.8750000000,98.2500000000,image296.jpg,29654.8975930000
0.8156862855,-14.0000000000,4,50.8680196667,-0.0983376667,69.4000000000,2.8125000000,-1.8750000000,96.5625000000,image297.jpg,29725.1601450000
0.8549019694,-19.0000000000,4,50.8680203333,-0.0983383333,69.4000000000,2.3125000000,-0.5625000000,92.5000000000,image298.jpg,29854.5300920000
0.8549019694,-20.0000000000,4,50.8680211667,-0.0983388333,69.4000000000,1.8750000000,0.3125000000,91.0000000000,image299.jpg,29922.8808740000
0.8235294223,-20.0000000000,4,50.8680215000,-0.0983395000,69.4000000000,4.6875000000,-0.9375000000,88.3125000000,image300.jpg,30058.8787900000
0.8549019694,-20.0000000000,4,50.8680221667,-0.0983405000,69.4000000000,5.3125000000,1.1250000000,86.3125000000,image301.jpg,30125.2204050000
0.8549019694,-20.0000000000,4,50.8680226667,-0.0983410000,69.4000000000,9.5625000000,-0.6875000000,85.6875000000,image302.jpg,30258.8158740000
nan,0.0000000000,4,50.8680230000,-0.0983420000,69.4000000000,4.8125000000,3.1875000000,82.7500000000,image303.jpg,30328.8357690000
nan,0.0000000000,5,50.8680233333,-0.0983421667,69.4000000000,-1.1875000000,5.2500000000,77.8750000000,image304.jpg,30460.3905090000
nan,0.0000000000,5,50.8680236667,-0.0983420000,69.4000000000,-2.8750000000,5.6875000000,76.3125000000,image305.jpg,30541.1525920000
nan,0.0000000000,5,50.8680241667,-0.0983420000,69.4000000000,-1.8125000000,4.8750000000,74.1875000000,image306.jpg,30665.2209780000
nan,0.0000000000,5,50.8680243333,-0.0983423333,69.4000000000,0.3125000000,3.3750000000,71.8750000000,image307.jpg,30729.6980610000
0.8549019694,-6.0000000000,5,50.8680246667,-0.0983425000,69.4000000000,1.8750000000,2.0625000000,70.6875000000,image308.jpg,30860.0241030000
0.8627451062,-6.0000000000,5,50.8680246667,-0.0983426667,69.4000000000,1.4375000000,2.1875000000,70.1875000000,image309.jpg,30921.4083730000
0.9098039269,-6.0000000000,5,50.8680248333,-0.0983426667,69.5000000000,0.5000000000,3.1250000000,69.0000000000,image310.jpg,31070.3699880000
0.9098039269,-5.0000000000,5,50.8680251667,-0.0983428333,69.5000000000,0.5625000000,2.0625000000,67.4375000000,image311.jpg,31123.3878520000
0.8627451062,-5.0000000000,5,50.8680255000,-0.0983440000,69.5000000000,-2.2500000000,1.1875000000,65.6250000000,image312.jpg,31262.6306650000
0.8941176534,-4.0000000000,5,50.8680260000,-0.0983451667,69.5000000000,-3.6250000000,1.0000000000,64.5000000000,image313.jpg,31323.4614460000
0.8941176534,3.0000000000,5,50.8680265000,-0.0983465000,69.5000000000,-0.4375000000,2.4375000000,64.1875000000,image314.jpg,31461.6128520000
0.8941176534,6.0000000000,5,50.8680268333,-0.0983476667,69.5000000000,0.3125000000,1.2500000000,63.3750000000,image315.jpg,31527.4847270000
0.8941176534,13.0000000000,5,50.8680270000,-0.0983486667,69.5000000000,0.7500000000,2.6250000000,62.5625000000,image316.jpg,31662.4530080000
0.8549019694,16.0000000000,5,50.8680275000,-0.0983493333,69.5000000000,-2.5625000000,2.8125000000,63.0000000000,image317.jpg,31726.9612900000
0.8862745166,20.0000000000,5,50.8680280000,-0.0983501667,69.5000000000,-1.6250000000,2.6250000000,66.1875000000,image318.jpg,31864.1207690000
0.8941176534,20.0000000000,5,50.8680283333,-0.0983511667,69.4000000000,2.0000000000,4.4375000000,67.1250000000,image319.jpg,31927.6303520000
0.8549019694,21.0000000000,5,50.8680285000,-0.0983521667,69.4000000000,-1.1875000000,2.3125000000,69.2500000000,image320.jpg,32063.3924870000
0.8862745166,20.0000000000,2,50.8680290000,-0.0983530000,69.5000000000,-1.2500000000,1.4375000000,70.2500000000,image321.jpg,32124.9541020000
0.8862745166,20.0000000000,2,50.8680295000,-0.0983535000,69.5000000000,-2.3125000000,0.8750000000,73.1250000000,image322.jpg,32261.5669670000
0.8549019694,20.0000000000,2,50.8680300000,-0.0983543333,69.4000000000,-3.9375000000,-0.4375000000,75.5000000000,image323.jpg,32326.8146750000
0.8549019694,21.0000000000,5,50.8680306667,-0.0983556667,69.4000000000,-3.1250000000,0.3750000000,78.8750000000,image324.jpg,32461.0838940000
0.8941176534,18.0000000000,5,50.8680310000,-0.0983566667,69.4000000000,-5.1250000000,2.1250000000,80.3125000000,image325.jpg,32526.4597790000
0.8941176534,7.0000000000,5,50.8680318333,-0.0983575000,69.3000000000,-0.3125000000,2.3750000000,84.7500000000,image326.jpg,32661.2063410000
0.8862745166,5.0000000000,5,50.8680321667,-0.0983583333,69.3000000000,-2.5000000000,1.0625000000,85.6875000000,image327.jpg,32732.8609770000
0.8862745166,-2.0000000000,5,50.8680330000,-0.0983585000,69.3000000000,-3.5000000000,-0.3125000000,86.1875000000,image328.jpg,32863.9273310000
0.8549019694,-4.0000000000,5,50.8680336667,-0.0983591667,69.3000000000,-5.0000000000,-1.1250000000,85.3125000000,image329.jpg,32925.4367580000
0.8941176534,-5.0000000000,5,50.8680341667,-0.0983603333,69.3000000000,-3.3750000000,-0.3125000000,85.3750000000,image330.jpg,33063.8662370000
0.8941176534,-5.0000000000,5,50.8680346667,-0.0983610000,69.3000000000,-3.2500000000,0.9375000000,85.0625000000,image331.jpg,33128.7999350000
0.8549019694,-5.0000000000,5,50.8680353333,-0.0983613333,69.3000000000,-3.1875000000,0.7500000000,230.3125000000,image332.jpg,33263.0887890000
0.8941176534,-5.0000000000,5,50.8680361667,-0.0983618333,69.3000000000,-3.5625000000,1.3750000000,230.0625000000,image333.jpg,33327.3574350000
0.8941176534,-3.0000000000,5,50.8680366667,-0.0983625000,69.3000000000,-0.9375000000,3.1875000000,228.1875000000,image334.jpg,33460.6695180000
0.8549019694,-5.0000000000,5,50.8680368333,-0.0983640000,69.3000000000,-3.8750000000,2.4375000000,229.0000000000,image335.jpg,33527.3175390000
0.8862745166,-3.0000000000,5,50.8680375000,-0.0983646667,69.3000000000,-0.8750000000,5.3750000000,229.5625000000,image336.jpg,33658.4036330000
0.8862745166,-4.0000000000,2,50.8680380000,-0.0983651667,69.3000000000,0.0625000000,2.8750000000,229.3750000000,image337.jpg,33727.9210280000
0.8941176534,-4.0000000000,2,50.8680383333,-0.0983665000,69.3000000000,0.5000000000,2.6250000000,228.8750000000,image338.jpg,33859.2610280000
0.8862745166,-1.0000000000,2,50.8680390000,-0.0983671667,69.3000000000,-2.1875000000,2.8750000000,227.8125000000,image339.jpg,33928.4243100000
0.8941176534,-4.0000000000,2,50.8680393333,-0.0983676667,69.2000000000,-4.1250000000,2.4375000000,227.3125000000,image340.jpg,34059.7424350000
0.8862745166,-4.0000000000,2,50.8680401667,-0.0983678333,69.3000000000,-0.1875000000,1.3125000000,229.0000000000,image341.jpg,34129.1004550000
0.8862745166,-3.0000000000,2,50.8680405000,-0.0983688333,69.2000000000,-1.3750000000,0.1250000000,228.8125000000,image342.jpg,34266.4119660000
0.8862745166,-3.0000000000,2,50.8680410000,-0.0983695000,69.2000000000,-1.3750000000,1.1875000000,228.2500000000,image343.jpg,34328.0763410000
0.8392156959,-1.0000000000,5,50.8680416667,-0.0983701667,69.2000000000,-0.8750000000,0.3125000000,228.1875000000,image344.jpg,34463.1187890000
0.8862745166,-1.0000000000,5,50.8680421667,-0.0983703333,69.2000000000,-0.5625000000,2.8125000000,227.6875000000,image345.jpg,34525.9814450000
0.8862745166,1.0000000000,5,50.8680425000,-0.0983710000,69.2000000000,-4.5625000000,4.8125000000,226.6250000000,image346.jpg,34663.7250390000
0.8392156959,0.0000000000,5,50.8680430000,-0.0983715000,69.2000000000,-4.1250000000,6.3125000000,227.5000000000,image347.jpg,34729.6238930000
0.8862745166,2.0000000000,5,50.8680436667,-0.0983720000,69.2000000000,2.9375000000,4.0625000000,226.5625000000,image348.jpg,34864.1826430000
0.8862745166,2.0000000000,5,50.8680436667,-0.0983731667,69.3000000000,1.4375000000,4.6875000000,225.3750000000,image349.jpg,34926.6761320000
0.8862745166,2.0000000000,5,50.8680441667,-0.0983735000,69.2000000000,-2.5625000000,4.6875000000,225.4375000000,image350.jpg,35063.7581630000
0.8862745166,3.0000000000,5,50.8680450000,-0.0983743333,69.3000000000,-5.8125000000,4.3125000000,224.6875000000,image351.jpg,35127.6073300000
0.8862745166,0.0000000000,5,50.8680460000,-0.0983758333,69.3000000000,-0.5625000000,4.6250000000,227.3125000000,image352.jpg,35269.2005590000
0.8862745166,-1.0000000000,nan,nan,nan,nan,3.8750000000,4.5625000000,225.7500000000,image353.jpg,35330.9675900000
0.8862745166,-13.0000000000,5,50.8680456667,-0.0983768333,69.3000000000,2.5625000000,6.5000000000,225.0625000000,image354.jpg,35395.3867570000
0.8862745166,-22.0000000000,5,50.8680463333,-0.0983763333,69.3000000000,-1.8125000000,7.1875000000,224.8125000000,image355.jpg,35531.3987880000
0.8862745166,-22.0000000000,5,50.8680468333,-0.0983765000,69.4000000000,-1.0000000000,4.9375000000,223.3750000000,image356.jpg,35595.5781110000
0.8862745166,-22.0000000000,5,50.8680471667,-0.0983770000,69.4000000000,-3.5625000000,5.0000000000,220.0000000000,image357.jpg,35731.2123820000
0.8862745166,-21.0000000000,2,50.8680475000,-0.0983773333,69.4000000000,-0.1250000000,5.5000000000,219.4375000000,image358.jpg,35796.2251420000
0.8392156959,-15.0000000000,2,50.8680475000,-0.0983781667,69.4000000000,0.3750000000,4.1875000000,215.2500000000,image359.jpg,35932.1881110000
0.8862745166,-14.0000000000,2,50.8680480000,-0.0983793333,69.4000000000,0.3750000000,5.5625000000,214.1250000000,image360.jpg,35994.4101420000
0.8862745166,17.0000000000,5,50.8680490000,-0.0983828333,69.4000000000,2.1875000000,6.1875000000,209.6875000000,image361.jpg,36447.7213920000
0.8862745166,18.0000000000,5,50.8680493333,-0.0983838333,69.4000000000,0.9375000000,2.7500000000,210.1875000000,image362.jpg,36532.2423820000
0.8862745166,17.0000000000,2,50.8680496667,-0.0983846667,69.5000000000,0.1250000000,0.3750000000,211.5625000000,image363.jpg,36595.9100900000
0.8862745166,16.0000000000,2,50.8680501667,-0.0983855000,69.5000000000,1.7500000000,2.6875000000,213.5625000000,image364.jpg,36733.9902460000
0.8862745166,15.0000000000,2,50.8680501667,-0.0983865000,69.5000000000,1.2500000000,2.5000000000,215.5000000000,image365.jpg,36799.9184230000
0.8862745166,15.0000000000,2,50.8680508333,-0.0983871667,69.5000000000,-2.8750000000,3.9375000000,217.5000000000,image366.jpg,36934.5012360000
0.8862745166,15.0000000000,2,50.8680513333,-0.0983876667,69.5000000000,-2.8125000000,3.6875000000,219.1250000000,image367.jpg,36998.9099330000
0.8000000119,20.0000000000,2,50.8680518333,-0.0983881667,69.5000000000,0.0625000000,-0.1875000000,221.2500000000,image368.jpg,37132.4970170000
0.8862745166,20.0000000000,2,50.8680525000,-0.0983890000,69.5000000000,-1.3125000000,1.3125000000,222.3125000000,image369.jpg,37198.8669650000
0.8862745166,26.0000000000,2,50.8680526667,-0.0983896667,69.5000000000,-0.0625000000,-0.4375000000,225.8750000000,image370.jpg,37331.6189440000
0.8862745166,28.0000000000,5,50.8680536667,-0.0983913333,69.5000000000,0.8750000000,0.0625000000,226.8750000000,image371.jpg,37399.4246730000
0.8862745166,30.0000000000,5,50.8680543333,-0.0983925000,69.5000000000,-4.0625000000,1.0000000000,224.1250000000,image372.jpg,37532.4147770000
0.8470588326,30.0000000000,5,50.8680548333,-0.0983925000,69.5000000000,-5.1875000000,2.6250000000,224.8750000000,image373.jpg,37599.6754020000
nan,0.0000000000,5,50.8680551667,-0.0983925000,69.5000000000,-7.9375000000,1.8125000000,229.6250000000,image374.jpg,37738.8080060000
nan,0.0000000000,5,50.8680555000,-0.0983930000,69.5000000000,-6.0000000000,3.3750000000,233.0625000000,image375.jpg,37805.2589440000
nan,0.0000000000,5,50.8680561667,-0.0983940000,69.5000000000,1.5000000000,4.2500000000,237.4375000000,image376.jpg,37937.4009230000
nan,0.0000000000,5,50.8680566667,-0.0983946667,69.5000000000,3.2500000000,3.6250000000,237.7500000000,image377.jpg,38004.0475890000
nan,0.0000000000,5,50.8680570000,-0.0983951667,69.5000000000,-6.2500000000,1.3125000000,240.5625000000,image378.jpg,38137.8017040000
nan,0.0000000000,5,50.8680578333,-0.0983951667,69.5000000000,-7.6875000000,2.3125000000,241.7500000000,image379.jpg,38204.1101410000
0.8862745166,25.0000000000,5,50.8680581667,-0.0983951667,69.5000000000,-5.3125000000,3.3125000000,242.2500000000,image380.jpg,38330.2341000000
0.8862745166,23.0000000000,5,50.8680580000,-0.0983953333,69.5000000000,-1.5625000000,5.4375000000,241.9375000000,image381.jpg,38398.2593080000
0.9568627477,21.0000000000,5,50.8680580000,-0.0983956667,69.5000000000,-0.3125000000,4.6250000000,244.3125000000,image382.jpg,38530.2193600000
0.9725490212,22.0000000000,5,50.8680585000,-0.0983958333,69.5000000000,1.0625000000,1.9375000000,245.5000000000,image383.jpg,38598.7278500000
0.9411764741,20.0000000000,5,50.8680591667,-0.0983966667,69.5000000000,-1.9375000000,1.6875000000,250.3750000000,image384.jpg,38730.7247770000
0.9333333373,20.0000000000,5,50.8680600000,-0.0983973333,69.5000000000,-1.3125000000,0.1250000000,251.3125000000,image385.jpg,38799.0069120000
0.8627451062,20.0000000000,5,50.8680606667,-0.0983970000,69.5000000000,-2.7500000000,-1.4375000000,253.3125000000,image386.jpg,38931.1264430000
0.9176470637,19.0000000000,5,50.8680613333,-0.0983971667,69.5000000000,0.0000000000,1.6875000000,256.3125000000,image387.jpg,38999.2663390000
0.9176470637,15.0000000000,5,50.8680618333,-0.0983980000,69.5000000000,0.8125000000,3.3750000000,257.0625000000,image388.jpg,39131.6034740000
0.9098039269,14.0000000000,2,50.8680626667,-0.0983983333,69.5000000000,0.0000000000,2.4375000000,259.3750000000,image389.jpg,39199.2676410000
0.9176470637,5.0000000000,2,50.8680633333,-0.0983983333,69.5000000000,-1.0625000000,2.6250000000,262.2500000000,image390.jpg,39338.5822760000
0.8627451062,2.0000000000,5,50.8680645000,-0.0983983333,69.5000000000,-2.0625000000,2.6250000000,263.1250000000,image391.jpg,39399.1711830000
0.9098039269,0.0000000000,5,50.8680650000,-0.0983980000,69.5000000000,-1.0000000000,0.9375000000,262.6250000000,image392.jpg,39535.3585780000
0.9176470637,0.0000000000,5,50.8680660000,-0.0983980000,69.5000000000,-0.1875000000,1.8125000000,262.7500000000,image393.jpg,39597.8472760000
0.9098039269,-1.0000000000,5,50.8680666667,-0.0983983333,69.5000000000,-1.0000000000,1.8750000000,260.0625000000,image394.jpg,39739.0198280000
0.9098039269,0.0000000000,2,50.8680673333,-0.0983983333,69.5000000000,-3.1875000000,2.6875000000,261.0000000000,image395.jpg,39801.7685780000
0.9176470637,-1.0000000000,2,50.8680681667,-0.0983985000,69.5000000000,-0.3750000000,4.9375000000,260.8750000000,image396.jpg,39935.7189950000
0.9176470637,-1.0000000000,2,50.8680688333,-0.0983990000,69.5000000000,-2.5625000000,3.5625000000,260.0625000000,image397.jpg,39998.8095680000
0.8627451062,0.0000000000,2,50.8680698333,-0.0983991667,69.5000000000,0.1250000000,4.5000000000,259.5000000000,image398.jpg,40136.7377970000
0.9098039269,-1.0000000000,2,50.8680705000,-0.0983993333,69.5000000000,1.9375000000,4.3125000000,259.4375000000,image399.jpg,40200.8906610000
0.9176470637,-2.0000000000,2,50.8680713333,-0.0984000000,69.5000000000,1.5000000000,1.6875000000,258.6250000000,image400.jpg,40337.0465470000
0.9098039269,-2.0000000000,5,50.8680725000,-0.0983996667,69.5000000000,-2.0625000000,4.8750000000,256.9375000000,image401.jpg,40401.3337340000
0.9098039269,-5.0000000000,5,50.8680731667,-0.0983995000,69.5000000000,-0.8125000000,4.0625000000,257.6875000000,image402.jpg,40536.1293590000
0.8549019694,-7.0000000000,5,50.8680738333,-0.0983998333,69.5000000000,0.5625000000,2.0000000000,257.5000000000,image403.jpg,40606.2193070000
0.9098039269,-10.0000000000,5,50.8680746667,-0.0984000000,69.5000000000,-0.4375000000,3.2500000000,254.5625000000,image404.jpg,40737.2620150000
0.9098039269,-12.0000000000,5,50.8680755000,-0.0984006667,69.5000000000,-3.0625000000,2.6875000000,253.0000000000,image405.jpg,40803.0948280000
0.9098039269,-14.0000000000,5,50.8680763333,-0.0984005000,69.5000000000,-2.6250000000,2.7500000000,252.1250000000,image406.jpg,40936.8823280000
0.9098039269,-15.0000000000,5,50.8680768333,-0.0984011667,69.5000000000,-0.8125000000,4.1250000000,250.0625000000,image407.jpg,41005.1621190000
0.8784313798,-5.0000000000,5,50.8680788333,-0.0984026667,69.5000000000,-1.4375000000,0.8750000000,239.4375000000,image408.jpg,41593.2682130000
0.8784313798,-4.0000000000,2,50.8680811667,-0.0984043333,69.5000000000,-2.5625000000,-0.3750000000,237.6875000000,image409.jpg,41669.4964420000
0.9098039269,-3.0000000000,nan,nan,nan,nan,-1.8750000000,1.5625000000,237.1875000000,image410.jpg,41735.3577440000
0.8705882430,-2.0000000000,2,50.8680816667,-0.0984050000,69.5000000000,-0.8750000000,3.3125000000,235.1250000000,image411.jpg,41802.0038900000
0.8784313798,1.0000000000,2,50.8680820000,-0.0984055000,69.5000000000,-1.3750000000,3.1250000000,233.3750000000,image412.jpg,41934.0900360000
0.9098039269,1.0000000000,2,50.8680828333,-0.0984063333,69.5000000000,-0.2500000000,2.4375000000,233.0625000000,image413.jpg,42001.8348270000
0.8705882430,4.0000000000,2,50.8680831667,-0.0984070000,69.5000000000,-0.6875000000,2.1875000000,231.7500000000,image414.jpg,42136.3196190000
0.9098039269,9.0000000000,2,50.8680838333,-0.0984078333,69.5000000000,-1.1875000000,-0.4375000000,232.0625000000,image415.jpg,42203.2806610000
0.9098039269,12.0000000000,2,50.8680846667,-0.0984080000,69.5000000000,-1.7500000000,-0.5625000000,232.1875000000,image416.jpg,42335.5205560000
0.8784313798,10.0000000000,5,50.8680850000,-0.0984091667,69.5000000000,-3.4375000000,0.3125000000,232.8750000000,image417.jpg,42402.9646710000
0.8705882430,9.0000000000,5,50.8680858333,-0.0984096667,69.5000000000,-0.9375000000,1.3125000000,233.8750000000,image418.jpg,42536.2440460000
0.9098039269,7.0000000000,5,50.8680865000,-0.0984105000,69.5000000000,-0.9375000000,3.3125000000,235.1875000000,image419.jpg,42603.8701400000
0.9098039269,9.0000000000,5,50.8680868333,-0.0984111667,69.5000000000,2.3125000000,2.6250000000,234.9375000000,image420.jpg,42736.4752440000
0.9098039269,11.0000000000,5,50.8680873333,-0.0984120000,69.5000000000,-1.5000000000,3.6250000000,234.8125000000,image421.jpg,42803.7397750000
0.9098039269,13.0000000000,5,50.8680881667,-0.0984120000,69.5000000000,2.3125000000,3.0625000000,237.0000000000,image422.jpg,42936.2902440000
0.8627451062,15.0000000000,5,50.8680886667,-0.0984128333,69.5000000000,5.3750000000,2.6250000000,236.4375000000,image423.jpg,43004.5324830000
0.8627451062,21.0000000000,5,50.8680895000,-0.0984136667,69.5000000000,4.4375000000,0.6250000000,239.8750000000,image424.jpg,43135.8532120000
0.9019607902,25.0000000000,5,50.8680903333,-0.0984141667,69.5000000000,3.4375000000,0.4375000000,239.0000000000,image425.jpg,43203.3686290000
