gps quality,lat,lon,altitude,roll,pitch,yaw,image name,timestamp
4,50.8634175000,-0.0939380000,56.6000000000,7.0000000000,-1.6250000000,359.9375000000,image0.jpg,2.1295120000
4,50.8634175000,-0.0939381667,56.6000000000,7.0000000000,-1.6250000000,359.9375000000,image1.jpg,202.2465290000
4,50.8634175000,-0.0939380000,56.6000000000,7.0000000000,-1.6250000000,359.9375000000,image2.jpg,402.8332370000
4,50.8634175000,-0.0939380000,56.6000000000,7.0000000000,-1.6250000000,359.9375000000,image3.jpg,602.6938350000
4,50.8634175000,-0.0939380000,56.6000000000,7.0000000000,-1.6250000000,359.9375000000,image4.jpg,802.6472390000
4,50.8634175000,-0.0939380000,56.6000000000,7.0000000000,-1.6250000000,359.9375000000,image5.jpg,1001.9063450000
4,50.8634175000,-0.0939380000,56.6000000000,7.1875000000,-1.5000000000,0.0625000000,image6.jpg,1201.9160320000
4,50.8634176667,-0.0939383333,56.6000000000,7.9375000000,-1.0625000000,0.1875000000,image7.jpg,1402.2347040000
4,50.8634185000,-0.0939391667,56.6000000000,8.8125000000,-1.6875000000,0.7500000000,image8.jpg,1602.3403080000
4,50.8634188333,-0.0939398333,56.7000000000,9.1250000000,-1.5000000000,0.9375000000,image9.jpg,1802.2816200000
4,50.8634190000,-0.0939400000,56.6000000000,9.1250000000,-0.5000000000,1.1875000000,image10.jpg,2002.3796790000
4,50.8634196667,-0.0939406667,56.6000000000,9.5000000000,-0.6250000000,2.1875000000,image11.jpg,2202.4558270000
4,50.8634205000,-0.0939416667,56.6000000000,8.0625000000,-1.1875000000,3.8125000000,image12.jpg,2402.4820640000
4,50.8634211667,-0.0939426667,56.6000000000,9.8125000000,-1.8125000000,5.1875000000,image13.jpg,2602.4653120000
4,50.8634221667,-0.0939431667,56.6000000000,7.6250000000,-1.3750000000,6.5625000000,image14.jpg,2802.5584710000
4,50.8634226667,-0.0939438333,56.6000000000,7.8125000000,-1.2500000000,7.1250000000,image15.jpg,3002.6402600000
4,50.8634231667,-0.0939443333,56.6000000000,8.0625000000,0.1250000000,7.5000000000,image16.jpg,3202.7081540000
4,50.8634240000,-0.0939450000,56.7000000000,9.0000000000,-0.3125000000,8.0000000000,image17.jpg,3402.7350870000
4,50.8634248333,-0.0939458333,56.7000000000,8.0625000000,0.1875000000,8.3750000000,image18.jpg,3602.8486770000
4,50.8634256667,-0.0939466667,56.7000000000,8.3750000000,-0.0625000000,9.2500000000,image19.jpg,3802.8979190000
4,50.8634266667,-0.0939473333,56.7000000000,7.9375000000,-1.1250000000,10.0625000000,image20.jpg,4003.4507690000
4,50.8634275000,-0.0939481667,56.7000000000,7.5000000000,-0.7500000000,9.5000000000,image21.jpg,4204.2264280000
4,50.8634281667,-0.0939488333,56.7000000000,8.3125000000,-1.2500000000,8.0625000000,image22.jpg,4404.2691740000
4,50.8634290000,-0.0939495000,56.7000000000,7.1250000000,-0.7500000000,6.8750000000,image23.jpg,4604.3671400000
4,50.8634298333,-0.0939503333,56.7000000000,6.8750000000,-1.3125000000,7.5000000000,image24.jpg,4803.5446240000
4,50.8634305000,-0.0939510000,56.7000000000,7.6250000000,-1.0625000000,8.3125000000,image25.jpg,5003.3467200000
4,50.8634311667,-0.0939518333,56.7000000000,9.0000000000,-1.5000000000,8.4375000000,image26.jpg,5203.4039490000
4,50.8634323333,-0.0939526667,56.7000000000,8.6875000000,-0.6250000000,8.6875000000,image27.jpg,5404.2355310000
4,50.8634335000,-0.0939538333,56.7000000000,8.8125000000,-1.5625000000,9.3750000000,image28.jpg,5604.6842570000
4,50.8634345000,-0.0939545000,56.7000000000,9.4375000000,-0.3125000000,8.6250000000,image29.jpg,5804.7787630000
4,50.8634355000,-0.0939556667,56.7000000000,8.4375000000,-0.5625000000,8.5625000000,image30.jpg,6004.7585880000
4,50.8634365000,-0.0939565000,56.7000000000,9.1250000000,-0.6875000000,7.8125000000,image31.jpg,6203.7568510000
4,50.8634375000,-0.0939575000,56.7000000000,9.2500000000,-1.8125000000,7.4375000000,image32.jpg,6403.8253120000
4,50.8634383333,-0.0939581667,56.7000000000,7.6875000000,-1.2500000000,6.7500000000,image33.jpg,6604.4057130000
4,50.8634391667,-0.0939593333,56.7000000000,9.3125000000,-2.2500000000,6.2500000000,image34.jpg,6804.9369250000
4,50.8634401667,-0.0939600000,56.7000000000,8.3750000000,-1.5625000000,5.2500000000,image35.jpg,7005.1501520000
4,50.8634410000,-0.0939610000,56.7000000000,8.3125000000,-1.1250000000,4.6875000000,image36.jpg,7205.2669340000
4,50.8634418333,-0.0939620000,56.7000000000,8.7500000000,-1.5625000000,4.5000000000,image37.jpg,7404.3918890000
4,50.8634426667,-0.0939630000,56.7000000000,7.4375000000,-1.7500000000,4.3125000000,image38.jpg,7604.3850570000
4,50.8634438333,-0.0939640000,56.7000000000,7.0000000000,-1.3125000000,4.9375000000,image39.jpg,7804.6444580000
4,50.8634448333,-0.0939648333,56.7000000000,7.8750000000,-1.1875000000,6.1250000000,image40.jpg,8004.4325530000
4,50.8634456667,-0.0939658333,56.7000000000,7.9375000000,0.1250000000,8.0625000000,image41.jpg,8204.5389250000
4,50.8634468333,-0.0939666667,56.7000000000,7.5000000000,0.1250000000,10.9375000000,image42.jpg,8405.8378880000
4,50.8634478333,-0.0939673333,56.7000000000,7.7500000000,-0.0625000000,14.0625000000,image43.jpg,8604.6103580000
4,50.8634488333,-0.0939680000,56.7000000000,7.8750000000,0.3750000000,17.9375000000,image44.jpg,8805.2661660000
4,50.8634500000,-0.0939686667,56.7000000000,7.6875000000,0.2500000000,20.8750000000,image45.jpg,9004.8077870000
4,50.8634510000,-0.0939688333,56.7000000000,7.0000000000,0.6875000000,22.5625000000,image46.jpg,9205.7097130000
4,50.8634521667,-0.0939691667,56.7000000000,7.3125000000,1.6250000000,25.4375000000,image47.jpg,9404.9041140000
4,50.8634531667,-0.0939696667,56.7000000000,7.6875000000,1.5625000000,27.3125000000,image48.jpg,9605.0328490000
4,50.8634543333,-0.0939698333,56.7000000000,7.6875000000,1.8125000000,29.1875000000,image49.jpg,9805.0987380000
4,50.8634553333,-0.0939700000,56.7000000000,8.3125000000,1.3125000000,29.6875000000,image50.jpg,10005.2492490000
4,50.8634565000,-0.0939703333,56.7000000000,9.1250000000,1.5000000000,30.1250000000,image51.jpg,10205.1889580000
4,50.8634575000,-0.0939706667,56.7000000000,8.1875000000,0.5000000000,30.1250000000,image52.jpg,10405.7238040000
4,50.8634588333,-0.0939708333,56.7000000000,8.0625000000,0.1875000000,30.0000000000,image53.jpg,10606.2869130000
4,50.8634598333,-0.0939713333,56.7000000000,10.4375000000,0.8125000000,30.1250000000,image54.jpg,10806.5950640000
4,50.8634608333,-0.0939711667,56.7000000000,8.8750000000,0.5000000000,30.6875000000,image55.jpg,11006.7791000000
4,50.8634620000,-0.0939715000,56.8000000000,9.0625000000,0.1875000000,31.5000000000,image56.jpg,11205.9347280000
4,50.8634631667,-0.0939718333,56.8000000000,9.8750000000,-0.3750000000,30.5625000000,image57.jpg,11405.7586810000
4,50.8634641667,-0.0939720000,56.8000000000,8.6250000000,-0.6875000000,29.8750000000,image58.jpg,11605.8897820000
4,50.8634653333,-0.0939721667,56.8000000000,8.7500000000,0.0000000000,30.4375000000,image59.jpg,11806.7833830000
4,50.8634663333,-0.0939723333,56.8000000000,9.0625000000,0.3125000000,30.8750000000,image60.jpg,12006.8124580000
4,50.8634675000,-0.0939725000,56.8000000000,7.6875000000,0.8750000000,30.8750000000,image61.jpg,12207.0383890000
4,50.8634685000,-0.0939728333,56.8000000000,7.8125000000,0.0625000000,30.2500000000,image62.jpg,12406.9316640000
4,50.8634696667,-0.0939730000,56.8000000000,8.3750000000,-1.2500000000,29.1250000000,image63.jpg,12606.1167880000
4,50.8634706667,-0.0939733333,56.8000000000,7.6875000000,-0.8750000000,28.1250000000,image64.jpg,12806.2181080000
4,50.8634716667,-0.0939736667,56.8000000000,8.0625000000,-1.8125000000,28.5000000000,image65.jpg,13006.8899470000
4,50.8634728333,-0.0939740000,56.8000000000,8.3125000000,-0.1250000000,29.1875000000,image66.jpg,13207.5604330000
4,50.8634738333,-0.0939741667,56.8000000000,7.0625000000,-0.8750000000,29.1250000000,image67.jpg,13407.3205940000
4,50.8634748333,-0.0939743333,56.8000000000,7.5625000000,-0.3125000000,28.3750000000,image68.jpg,13607.6210990000
4,50.8634760000,-0.0939748333,56.8000000000,9.0000000000,-0.5000000000,26.8750000000,image69.jpg,13806.6644690000
4,50.8634770000,-0.0939748333,56.8000000000,7.8750000000,-1.1250000000,27.0625000000,image70.jpg,14006.6854870000
4,50.8634781667,-0.0939753333,56.8000000000,7.1875000000,-2.0000000000,28.3125000000,image71.jpg,14207.1577410000
4,50.8634791667,-0.0939756667,56.8000000000,8.6875000000,-2.0625000000,27.9375000000,image72.jpg,14406.9091300000
4,50.8634803333,-0.0939760000,56.8000000000,7.6250000000,-1.7500000000,26.5000000000,image73.jpg,14607.0053620000
4,50.8634813333,-0.0939765000,56.8000000000,8.6875000000,-1.9375000000,24.6250000000,image74.jpg,14806.9583240000
4,50.8634825000,-0.0939770000,56.8000000000,6.4375000000,-2.3125000000,24.8125000000,image75.jpg,15007.0547860000
4,50.8634835000,-0.0939773333,56.8000000000,6.9375000000,-1.0625000000,23.8125000000,image76.jpg,15207.1479690000
4,50.8634846667,-0.0939778333,56.8000000000,5.1250000000,-3.0625000000,22.8750000000,image77.jpg,15407.3761760000
4,50.8634858333,-0.0939781667,56.8000000000,4.2500000000,-2.1875000000,19.6875000000,image78.jpg,15607.3313160000
4,50.8634866667,-0.0939790000,56.8000000000,5.6250000000,-3.6875000000,14.0625000000,image79.jpg,15807.3618930000
4,50.8634876667,-0.0939795000,56.8000000000,4.5625000000,-3.0000000000,13.7500000000,image80.jpg,16007.4205830000
4,50.8634886667,-0.0939803333,56.8000000000,5.1875000000,-2.6875000000,14.4375000000,image81.jpg,16207.5183130000
4,50.8634896667,-0.0939808333,56.8000000000,2.4375000000,-3.1875000000,15.2500000000,image82.jpg,16407.5879860000
4,50.8634908333,-0.0939815000,56.8000000000,2.0000000000,-2.1875000000,15.2500000000,image83.jpg,16607.7697810000
4,50.8634920000,-0.0939820000,56.8000000000,1.6875000000,-2.1250000000,14.9375000000,image84.jpg,16808.6287350000
4,50.8634931667,-0.0939828333,56.8000000000,3.0625000000,-2.0625000000,14.6875000000,image85.jpg,17008.6721370000
4,50.8634938333,-0.0939836667,56.8000000000,4.2500000000,-0.2500000000,13.3125000000,image86.jpg,17208.8196980000
4,50.8634948333,-0.0939845000,56.8000000000,7.2500000000,-1.3125000000,11.5625000000,image87.jpg,17408.9838110000
4,50.8634960000,-0.0939853333,56.8000000000,6.3750000000,1.5625000000,12.6250000000,image88.jpg,17607.9940630000
4,50.8634968333,-0.0939861667,56.8000000000,7.1875000000,0.6250000000,13.5000000000,image89.jpg,17808.1617030000
4,50.8634978333,-0.0939870000,56.8000000000,9.7500000000,0.0000000000,16.0000000000,image90.jpg,18008.8791090000
4,50.8634990000,-0.0939875000,56.8000000000,7.1875000000,-1.0000000000,17.1250000000,image91.jpg,18209.3823670000
4,50.8635000000,-0.0939881667,56.8000000000,6.1875000000,-0.4375000000,17.9375000000,image92.jpg,18409.4710190000
4,50.8635011667,-0.0939886667,56.8000000000,8.1875000000,-1.6875000000,18.1875000000,image93.jpg,18609.5565480000
4,50.8635021667,-0.0939893333,56.8000000000,6.1250000000,-1.5625000000,18.6250000000,image94.jpg,18808.4588280000
4,50.8635033333,-0.0939898333,56.8000000000,7.8750000000,-0.0625000000,18.2500000000,image95.jpg,19008.5250600000
4,50.8635043333,-0.0939905000,56.8000000000,8.1875000000,0.1250000000,18.3750000000,image96.jpg,19208.9096030000
4,50.8635053333,-0.0939911667,56.8000000000,7.6250000000,0.0000000000,16.5625000000,image97.jpg,19409.8329560000
4,50.8635063333,-0.0939918333,56.8000000000,8.3750000000,-0.4375000000,14.8750000000,image98.jpg,19609.9315140000
4,50.8635075000,-0.0939925000,56.8000000000,8.4375000000,-0.7500000000,14.8750000000,image99.jpg,19809.8047210000
4,50.8635085000,-0.0939931667,56.8000000000,9.4375000000,-1.3125000000,14.5000000000,image100.jpg,20008.9215010000
4,50.8635095000,-0.0939940000,56.8000000000,8.6875000000,-1.1875000000,14.5625000000,image101.jpg,20209.0228900000
4,50.8635105000,-0.0939948333,56.8000000000,7.0625000000,-2.0625000000,13.4375000000,image102.jpg,20409.3713280000
4,50.8635115000,-0.0939956667,56.8000000000,8.0000000000,-2.1875000000,11.4375000000,image103.jpg,20609.1194760000
4,50.8635125000,-0.0939963333,56.8000000000,8.7500000000,-2.8750000000,10.5000000000,image104.jpg,20809.4333730000
4,50.8635135000,-0.0939971667,56.8000000000,8.0000000000,-3.0625000000,10.8750000000,image105.jpg,21009.4139130000
4,50.8635145000,-0.0939981667,56.8000000000,9.1875000000,-2.0625000000,10.6875000000,image106.jpg,21209.5213640000
4,50.8635155000,-0.0939990000,56.8000000000,9.5625000000,-1.6875000000,10.3125000000,image107.jpg,21409.5553130000
4,50.8635165000,-0.0939998333,56.8000000000,9.5000000000,-1.3125000000,10.3750000000,image108.jpg,21610.0956500000
4,50.8635175000,-0.0940008333,56.8000000000,10.0000000000,-1.3125000000,10.0000000000,image109.jpg,21809.7480250000
4,50.8635185000,-0.0940015000,56.8000000000,8.2500000000,-1.9375000000,9.5625000000,image110.jpg,22009.8930880000
4,50.8635195000,-0.0940023333,56.8000000000,7.4375000000,-1.6250000000,9.6875000000,image111.jpg,22209.8832360000
4,50.8635205000,-0.0940031667,56.8000000000,7.3125000000,-2.6875000000,9.0625000000,image112.jpg,22409.9672900000
4,50.8635215000,-0.0940041667,56.8000000000,7.4375000000,-2.1250000000,8.1875000000,image113.jpg,22610.0629010000
4,50.8635225000,-0.0940048333,56.8000000000,6.5000000000,-3.1875000000,6.9375000000,image114.jpg,22810.1106400000
4,50.8635235000,-0.0940058333,56.8000000000,6.1875000000,-2.9375000000,5.6875000000,image115.jpg,23011.0299090000
4,50.8635245000,-0.0940070000,56.8000000000,6.5000000000,-2.7500000000,3.3125000000,image116.jpg,23211.4147240000
4,50.8635253333,-0.0940080000,56.8000000000,7.1250000000,-2.6875000000,1.5000000000,image117.jpg,23411.4934540000
4,50.8635263333,-0.0940091667,56.8000000000,6.5000000000,-2.6875000000,359.5625000000,image118.jpg,23611.4352250000
4,50.8635270000,-0.0940105000,56.8000000000,8.6250000000,-2.9375000000,358.0000000000,image119.jpg,23810.5294470000
4,50.8635278333,-0.0940116667,56.8000000000,5.7500000000,-3.2500000000,357.0000000000,image120.jpg,24010.5600700000
4,50.8635288333,-0.0940130000,56.8000000000,6.8750000000,-4.3125000000,356.0000000000,image121.jpg,24211.4485200000
4,50.8635295000,-0.0940143333,56.8000000000,7.1875000000,-4.2500000000,354.7500000000,image122.jpg,24411.9273960000
4,50.8635305000,-0.0940155000,56.8000000000,6.6875000000,-2.8750000000,353.8750000000,image123.jpg,24611.9535420000
4,50.8635311667,-0.0940168333,56.8000000000,7.5000000000,-3.8125000000,352.7500000000,image124.jpg,24811.8995590000
4,50.8635320000,-0.0940181667,56.8000000000,7.0000000000,-2.7500000000,351.7500000000,image125.jpg,25011.0428870000
4,50.8635328333,-0.0940195000,56.8000000000,8.4375000000,-4.0000000000,351.5625000000,image126.jpg,25211.1192700000
4,50.8635335000,-0.0940206667,56.8000000000,8.0625000000,-3.0000000000,351.1875000000,image127.jpg,25413.4562420000
4,50.8635341667,-0.0940221667,56.8000000000,7.8125000000,-4.0000000000,350.1875000000,image128.jpg,25613.3115950000
4,50.8635348333,-0.0940233333,56.8000000000,7.3750000000,-3.8125000000,350.3125000000,image129.jpg,25814.3469370000
4,50.8635355000,-0.0940245000,56.8000000000,7.2500000000,-3.1250000000,349.7500000000,image130.jpg,26014.0915260000
4,50.8635361667,-0.0940258333,56.8000000000,7.7500000000,-3.0625000000,349.0625000000,image131.jpg,26214.3990530000
4,50.8635368333,-0.0940270000,56.8000000000,5.4375000000,-3.1875000000,349.6875000000,image132.jpg,26413.3477500000
4,50.8635375000,-0.0940283333,56.8000000000,5.9375000000,-3.3125000000,348.7500000000,image133.jpg,26613.3970250000
4,50.8635383333,-0.0940295000,56.8000000000,6.3125000000,-3.6250000000,348.5625000000,image134.jpg,26813.7604810000
4,50.8635388333,-0.0940306667,56.8000000000,6.0000000000,-1.3125000000,347.5625000000,image135.jpg,27013.7138420000
4,50.8635395000,-0.0940320000,56.8000000000,6.0625000000,-1.8750000000,346.7500000000,image136.jpg,27213.6605920000
4,50.8635401667,-0.0940331667,56.8000000000,7.6875000000,-1.9375000000,346.3750000000,image137.jpg,27413.7485710000
4,50.8635406667,-0.0940346667,56.8000000000,8.0000000000,-2.8750000000,345.6875000000,image138.jpg,27613.7564360000
4,50.8635411667,-0.0940358333,56.8000000000,6.8125000000,-3.2500000000,345.1875000000,image139.jpg,27813.8700900000
4,50.8635418333,-0.0940371667,56.8000000000,8.8125000000,-2.1250000000,346.0625000000,image140.jpg,28014.0638380000
4,50.8635425000,-0.0940383333,56.9000000000,8.1875000000,-2.5625000000,347.6875000000,image141.jpg,28214.0934500000
4,50.8635431667,-0.0940396667,56.9000000000,7.6250000000,-2.9375000000,349.2500000000,image142.jpg,28414.0755340000
4,50.8635438333,-0.0940408333,56.9000000000,7.5000000000,-3.0000000000,350.6875000000,image143.jpg,28614.2050440000
4,50.8635445000,-0.0940420000,56.9000000000,6.6250000000,-2.6250000000,351.0000000000,image144.jpg,28814.4039670000
4,50.8635451667,-0.0940431667,56.9000000000,7.6250000000,-1.5000000000,351.8125000000,image145.jpg,29014.3357140000
4,50.8635458333,-0.0940443333,56.9000000000,6.1875000000,-1.5000000000,351.8125000000,image146.jpg,29214.7445160000
4,50.8635466667,-0.0940455000,56.9000000000,5.8750000000,-2.5625000000,351.8750000000,image147.jpg,29415.7161620000
4,50.8635473333,-0.0940466667,56.9000000000,6.2500000000,-2.4375000000,352.0625000000,image148.jpg,29615.6946050000
4,50.8635480000,-0.0940480000,56.9000000000,6.5000000000,-3.0000000000,351.6250000000,image149.jpg,29815.5392750000
4,50.8635488333,-0.0940490000,56.9000000000,6.0000000000,-2.4375000000,351.1875000000,image150.jpg,30015.4398590000
4,50.8635495000,-0.0940503333,56.9000000000,6.9375000000,-3.3750000000,351.0625000000,image151.jpg,30214.7855070000
4,50.8635501667,-0.0940516667,56.9000000000,7.6250000000,-3.4375000000,351.6250000000,image152.jpg,30414.8554340000
4,50.8635508333,-0.0940528333,56.9000000000,6.6250000000,-2.8750000000,351.2500000000,image153.jpg,30615.8417850000
4,50.8635515000,-0.0940541667,56.9000000000,6.6250000000,-3.0625000000,350.5000000000,image154.jpg,30816.2624340000
4,50.8635523333,-0.0940553333,56.9000000000,5.3125000000,-3.8125000000,349.5000000000,image155.jpg,31016.2818500000
4,50.8635528333,-0.0940566667,56.9000000000,5.0625000000,-3.3750000000,348.0000000000,image156.jpg,31215.9289470000
4,50.8635535000,-0.0940580000,56.9000000000,5.0625000000,-3.3125000000,347.3125000000,image157.jpg,31415.2644770000
4,50.8635543333,-0.0940590000,56.9000000000,3.7500000000,-2.6250000000,347.8125000000,image158.jpg,31615.3187720000
4,50.8635548333,-0.0940606667,56.9000000000,5.2500000000,-3.8750000000,347.3750000000,image159.jpg,31816.7734560000
4,50.8635556667,-0.0940620000,56.9000000000,5.2500000000,-3.5000000000,346.6875000000,image160.jpg,32016.5850580000
4,50.8635563333,-0.0940633333,56.9000000000,5.0000000000,-3.6875000000,346.0625000000,image161.jpg,32216.7228040000
4,50.8635568333,-0.0940650000,56.9000000000,3.3750000000,-4.2500000000,346.5000000000,image162.jpg,32416.5865170000
4,50.8635576667,-0.0940661667,56.9000000000,6.0000000000,-2.6250000000,347.0625000000,image163.jpg,32615.7305760000
4,50.8635583333,-0.0940675000,56.9000000000,5.3125000000,-1.4375000000,346.5625000000,image164.jpg,32815.8050870000
4,50.8635588333,-0.0940688333,56.9000000000,3.2500000000,-2.4375000000,344.5625000000,image165.jpg,33016.3132010000
4,50.8635595000,-0.0940703333,56.9000000000,5.5625000000,-3.9375000000,344.3125000000,image166.jpg,33216.0132110000
4,50.8635601667,-0.0940716667,56.9000000000,6.0625000000,-3.0625000000,344.7500000000,image167.jpg,33415.9863710000
4,50.8635606667,-0.0940731667,56.9000000000,5.4375000000,-2.5000000000,343.6875000000,image168.jpg,33616.1104500000
4,50.8635613333,-0.0940745000,56.9000000000,6.5625000000,-2.5625000000,342.6250000000,image169.jpg,33816.1975730000
4,50.8635618333,-0.0940761667,56.9000000000,5.6250000000,-3.1875000000,343.3125000000,image170.jpg,34016.2374110000
4,50.8635625000,-0.0940775000,56.9000000000,5.1250000000,-3.0000000000,343.4375000000,image171.jpg,34216.5525360000
4,50.8635631667,-0.0940788333,56.9000000000,7.0625000000,-2.7500000000,344.3125000000,image172.jpg,34416.3611810000
4,50.8635638333,-0.0940801667,56.9000000000,6.0625000000,-3.3125000000,347.1250000000,image173.jpg,34616.4844700000
4,50.8635645000,-0.0940815000,56.9000000000,5.8125000000,-2.8125000000,347.3750000000,image174.jpg,34816.5425270000
4,50.8635650000,-0.0940826667,56.9000000000,6.6250000000,-2.9375000000,347.4375000000,image175.jpg,35016.6352690000
4,50.8635658333,-0.0940841667,56.9000000000,6.6250000000,-1.8750000000,347.8125000000,image176.jpg,35216.7633080000
4,50.8635665000,-0.0940855000,56.9000000000,6.2500000000,-2.0000000000,348.3750000000,image177.jpg,35417.4393720000
4,50.8635671667,-0.0940866667,56.9000000000,5.7500000000,-2.1875000000,348.8750000000,image178.jpg,35617.9793010000
4,50.8635680000,-0.0940881667,56.9000000000,4.6250000000,-0.9375000000,349.4375000000,image179.jpg,35817.8661250000
4,50.8635686667,-0.0940895000,56.9000000000,5.2500000000,-1.6875000000,349.1875000000,image180.jpg,36017.9409420000
4,50.8635693333,-0.0940906667,56.9000000000,5.0000000000,-1.6250000000,347.7500000000,image181.jpg,36217.1161230000
4,50.8635700000,-0.0940921667,57.0000000000,4.8125000000,-2.5000000000,347.5625000000,image182.jpg,36417.1862030000
4,50.8635708333,-0.0940936667,57.0000000000,4.6250000000,-2.0625000000,347.0000000000,image183.jpg,36617.7525110000
4,50.8635713333,-0.0940948333,57.0000000000,5.6250000000,-1.1250000000,345.9375000000,image184.jpg,36818.5093760000
4,50.8635718333,-0.0940961667,57.0000000000,5.8125000000,-1.5625000000,342.9375000000,image185.jpg,37018.4267190000
4,50.8635725000,-0.0940975000,57.0000000000,5.4375000000,-2.8750000000,341.1875000000,image186.jpg,37218.6489740000
4,50.8635730000,-0.0940991667,57.0000000000,6.2500000000,-3.7500000000,339.4375000000,image187.jpg,37417.5722930000
4,50.8635733333,-0.0941006667,57.0000000000,8.1250000000,-3.4375000000,339.5000000000,image188.jpg,37617.6637750000
4,50.8635738333,-0.0941020000,57.0000000000,8.1875000000,-3.1875000000,340.3125000000,image189.jpg,37818.2259000000
4,50.8635746667,-0.0941033333,57.0000000000,8.1875000000,-3.1875000000,342.5625000000,image190.jpg,38018.7445620000
4,50.8635751667,-0.0941048333,57.0000000000,9.6875000000,-2.1875000000,345.1875000000,image191.jpg,38219.0630540000
4,50.8635756667,-0.0941061667,57.0000000000,9.0000000000,-2.3125000000,347.5625000000,image192.jpg,38418.8678220000
4,50.8635765000,-0.0941071667,57.0000000000,9.1250000000,-0.5000000000,350.6875000000,image193.jpg,38618.0153870000
4,50.8635771667,-0.0941085000,57.0000000000,9.3750000000,-0.9375000000,353.0000000000,image194.jpg,38818.0934840000
4,50.8635780000,-0.0941095000,57.0000000000,8.4375000000,-1.0625000000,353.3750000000,image195.jpg,39018.5946060000
4,50.8635788333,-0.0941110000,57.0000000000,8.0000000000,-2.8750000000,352.9375000000,image196.jpg,39218.2263280000
4,50.8635796667,-0.0941126667,57.0000000000,9.0000000000,-4.3750000000,351.5625000000,image197.jpg,39418.3400730000
4,50.8635803333,-0.0941140000,57.0000000000,8.8125000000,-4.0625000000,350.1250000000,image198.jpg,39618.3264270000
4,50.8635811667,-0.0941153333,57.0000000000,9.4375000000,-3.0000000000,350.0000000000,image199.jpg,39818.4964390000
4,50.8635820000,-0.0941168333,57.0000000000,9.8750000000,-3.2500000000,350.3750000000,image200.jpg,40018.5249900000
4,50.8635826667,-0.0941181667,57.0000000000,8.8125000000,-3.8125000000,351.0000000000,image201.jpg,40218.8187880000
4,50.8635835000,-0.0941196667,57.0000000000,7.7500000000,-4.6250000000,352.1875000000,image202.jpg,40418.6699710000
4,50.8635845000,-0.0941210000,57.0000000000,7.9375000000,-3.8750000000,354.0625000000,image203.jpg,40618.7830690000
4,50.8635851667,-0.0941221667,57.0000000000,6.9375000000,-2.6250000000,353.6875000000,image204.jpg,40818.9383700000
4,50.8635861667,-0.0941236667,57.0000000000,6.3125000000,-3.0000000000,351.4375000000,image205.jpg,41019.0122700000
4,50.8635868333,-0.0941248333,57.0000000000,8.3750000000,-3.6250000000,351.5625000000,image206.jpg,41219.1147500000
4,50.8635875000,-0.0941263333,57.0000000000,8.6250000000,-2.8125000000,350.0625000000,image207.jpg,41419.8309180000
4,50.8635881667,-0.0941276667,57.0000000000,7.8125000000,-2.9375000000,350.1875000000,image208.jpg,41620.3125030000
4,50.8635888333,-0.0941288333,57.0000000000,9.3125000000,-2.9375000000,350.6875000000,image209.jpg,41820.3267210000
4,50.8635895000,-0.0941303333,57.0000000000,9.7500000000,-3.2500000000,351.0625000000,image210.jpg,42020.4597410000
4,50.8635901667,-0.0941313333,57.0000000000,8.2500000000,-3.6250000000,351.8125000000,image211.jpg,42219.4518020000
4,50.8635910000,-0.0941326667,57.0000000000,8.2500000000,-3.3750000000,352.3750000000,image212.jpg,42419.4426970000
4,50.8635918333,-0.0941338333,57.0000000000,9.1875000000,-2.7500000000,353.8125000000,image213.jpg,42620.0808600000
4,50.8635926667,-0.0941350000,57.0000000000,5.6250000000,-2.6250000000,355.0625000000,image214.jpg,42820.6168530000
4,50.8635933333,-0.0941361667,57.0000000000,7.6250000000,-2.1875000000,356.8125000000,image215.jpg,43020.8340630000
4,50.8635941667,-0.0941373333,57.0000000000,9.1875000000,-2.1250000000,357.5000000000,image216.jpg,43220.8231430000
4,50.8635950000,-0.0941383333,57.0000000000,8.2500000000,-2.3125000000,358.0625000000,image217.jpg,43419.8664870000
4,50.8635960000,-0.0941395000,57.0000000000,7.1250000000,-2.4375000000,358.4375000000,image218.jpg,43619.8835750000
4,50.8635966667,-0.0941405000,57.0000000000,8.2500000000,-3.6250000000,359.1250000000,image219.jpg,43820.5847060000
4,50.8635975000,-0.0941418333,57.1000000000,8.5000000000,-3.3125000000,0.0000000000,image220.jpg,44020.9658410000
4,50.8635983333,-0.0941426667,57.0000000000,8.0000000000,-2.7500000000,0.1875000000,image221.jpg,44221.0765710000
4,50.8635990000,-0.0941435000,57.0000000000,8.6875000000,-3.2500000000,2.8125000000,image222.jpg,44421.2072410000
4,50.8636000000,-0.0941445000,57.1000000000,7.8750000000,-2.9375000000,4.0625000000,image223.jpg,44620.3151220000
4,50.8636008333,-0.0941455000,57.1000000000,7.8750000000,-2.6875000000,4.6875000000,image224.jpg,44820.5389330000
4,50.8636015000,-0.0941463333,57.0000000000,8.8125000000,-2.0625000000,5.1875000000,image225.jpg,45020.9749030000
4,50.8636025000,-0.0941471667,57.1000000000,7.1250000000,-2.3125000000,5.9375000000,image226.jpg,45220.7065390000
4,50.8636033333,-0.0941481667,57.1000000000,7.2500000000,-2.5625000000,5.6250000000,image227.jpg,45420.7233130000
4,50.8636041667,-0.0941488333,57.1000000000,7.0625000000,-2.9375000000,3.1250000000,image228.jpg,45620.8095370000
4,50.8636048333,-0.0941498333,57.1000000000,6.5000000000,-2.8125000000,359.0000000000,image229.jpg,45820.8165740000
4,50.8636056667,-0.0941510000,57.1000000000,5.4375000000,-4.5625000000,357.5000000000,image230.jpg,46020.9117970000
4,50.8636063333,-0.0941520000,57.1000000000,5.6250000000,-3.0000000000,357.7500000000,image231.jpg,46221.0142570000
4,50.8636070000,-0.0941530000,57.1000000000,6.7500000000,-3.5000000000,357.6250000000,image232.jpg,46421.1247860000
4,50.8636078333,-0.0941541667,57.0000000000,7.0000000000,-2.6250000000,357.8750000000,image233.jpg,46621.1907510000
4,50.8636086667,-0.0941548333,57.1000000000,7.0000000000,-3.0000000000,358.1875000000,image234.jpg,46821.2591680000
4,50.8636091667,-0.0941560000,57.1000000000,7.9375000000,-2.1250000000,358.1875000000,image235.jpg,47021.2918380000
4,50.8636100000,-0.0941570000,57.1000000000,8.8750000000,-3.0000000000,356.3125000000,image236.jpg,47221.3171140000
4,50.8636106667,-0.0941580000,57.1000000000,5.8125000000,-3.8750000000,353.3125000000,image237.jpg,47422.4453640000
4,50.8636111667,-0.0941591667,57.1000000000,6.1250000000,-3.8750000000,352.5625000000,image238.jpg,47622.4637690000
4,50.8636118333,-0.0941601667,57.1000000000,7.0625000000,-3.3125000000,352.6875000000,image239.jpg,47822.8182850000
4,50.8636125000,-0.0941613333,57.1000000000,8.3125000000,-1.9375000000,352.4375000000,image240.jpg,48022.6553100000
4,50.8636131667,-0.0941625000,57.1000000000,6.5625000000,-2.6250000000,352.3125000000,image241.jpg,48221.8463030000
4,50.8636138333,-0.0941633333,57.1000000000,7.3750000000,-1.9375000000,352.3750000000,image242.jpg,48421.9102650000
4,50.8636145000,-0.0941646667,57.1000000000,7.9375000000,-3.6875000000,351.0000000000,image243.jpg,48622.8235070000
4,50.8636150000,-0.0941660000,57.1000000000,7.5625000000,-3.3750000000,348.8125000000,image244.jpg,48823.1442750000
4,50.8636155000,-0.0941671667,57.1000000000,8.0625000000,-3.5000000000,348.1875000000,image245.jpg,49023.2608550000
4,50.8636163333,-0.0941681667,57.1000000000,7.5000000000,-3.1250000000,348.6250000000,image246.jpg,49222.8489560000
4,50.8636168333,-0.0941695000,57.1000000000,9.4375000000,-2.1250000000,349.3750000000,image247.jpg,49422.4006660000
4,50.8636175000,-0.0941705000,57.1000000000,9.1250000000,-3.2500000000,352.7500000000,image248.jpg,49622.6021590000
4,50.8636181667,-0.0941713333,57.1000000000,8.3125000000,-2.3750000000,354.5625000000,image249.jpg,49823.4291540000
4,50.8636188333,-0.0941725000,57.1000000000,8.2500000000,-3.1875000000,354.8125000000,image250.jpg,50023.5701680000
4,50.8636196667,-0.0941736667,57.1000000000,7.4375000000,-1.8750000000,355.1250000000,image251.jpg,50223.6879100000
4,50.8636203333,-0.0941746667,57.1000000000,6.6250000000,-2.1875000000,354.0625000000,image252.jpg,50422.9196110000
4,50.8636208333,-0.0941758333,57.1000000000,7.8125000000,-3.2500000000,353.5625000000,image253.jpg,50622.7325310000
4,50.8636216667,-0.0941770000,57.1000000000,7.0625000000,-3.5000000000,353.8750000000,image254.jpg,50823.0665610000
4,50.8636223333,-0.0941778333,57.1000000000,7.0000000000,-3.5000000000,354.3750000000,image255.jpg,51023.1403100000
4,50.8636230000,-0.0941790000,57.1000000000,8.1250000000,-3.4375000000,354.6250000000,image256.jpg,51222.9511970000
4,50.8636238333,-0.0941801667,57.1000000000,5.8125000000,-2.3750000000,354.8125000000,image257.jpg,51422.9733010000
4,50.8636243333,-0.0941810000,57.1000000000,7.9375000000,-3.5000000000,355.0625000000,image258.jpg,51623.0488190000
4,50.8636250000,-0.0941820000,57.1000000000,7.6250000000,-2.7500000000,355.6250000000,image259.jpg,51823.1708980000
4,50.8636256667,-0.0941831667,57.1000000000,7.8125000000,-4.3125000000,355.5625000000,image260.jpg,52023.3307910000
4,50.8636265000,-0.0941840000,57.1000000000,7.5625000000,-3.9375000000,356.0000000000,image261.jpg,52223.2961260000
4,50.8636270000,-0.0941850000,57.1000000000,8.6875000000,-4.3750000000,356.8750000000,image262.jpg,52423.3719900000
4,50.8636276667,-0.0941858333,57.1000000000,8.0625000000,-3.5625000000,357.2500000000,image263.jpg,52623.3554950000
4,50.8636281667,-0.0941868333,57.1000000000,8.8125000000,-2.9375000000,357.6250000000,image264.jpg,52823.6066650000
4,50.8636288333,-0.0941876667,57.1000000000,7.3125000000,-3.4375000000,356.6250000000,image265.jpg,53023.5549400000
4,50.8636295000,-0.0941886667,57.1000000000,7.5625000000,-3.2500000000,354.4375000000,image266.jpg,53224.3595880000
4,50.8636300000,-0.0941895000,57.1000000000,7.8125000000,-2.4375000000,354.4375000000,image267.jpg,53424.8063590000
4,50.8636306667,-0.0941905000,57.1000000000,7.8750000000,-2.9375000000,355.0625000000,image268.jpg,53624.8990550000
4,50.8636315000,-0.0941915000,57.1000000000,8.1250000000,-3.0625000000,355.0000000000,image269.jpg,53824.9731730000
4,50.8636320000,-0.0941926667,57.1000000000,8.7500000000,-3.6875000000,354.7500000000,image270.jpg,54024.0084780000
4,50.8636326667,-0.0941935000,57.1000000000,8.0625000000,-2.7500000000,354.9375000000,image271.jpg,54224.2673560000
4,50.8636331667,-0.0941945000,57.1000000000,7.7500000000,-2.5625000000,354.1875000000,image272.jpg,54424.7332860000
4,50.8636338333,-0.0941953333,57.1000000000,7.9375000000,-2.4375000000,352.6250000000,image273.jpg,54625.2514870000
4,50.8636343333,-0.0941963333,57.1000000000,7.6250000000,-2.1875000000,351.1250000000,image274.jpg,54825.4445620000
4,50.8636350000,-0.0941973333,57.1000000000,8.8125000000,-2.4375000000,351.6875000000,image275.jpg,55025.4977760000
4,50.8636355000,-0.0941985000,57.1000000000,9.0000000000,-1.8750000000,351.9375000000,image276.jpg,55224.5791360000
4,50.8636361667,-0.0941993333,57.1000000000,7.4375000000,-1.7500000000,351.1250000000,image277.jpg,55424.6510920000
4,50.8636366667,-0.0942003333,57.1000000000,7.4375000000,-2.1875000000,349.0000000000,image278.jpg,55625.4111070000
4,50.8636371667,-0.0942015000,57.1000000000,7.8125000000,-2.6250000000,349.0625000000,image279.jpg,55825.8042890000
4,50.8636376667,-0.0942025000,57.1000000000,8.0625000000,-2.6250000000,348.9375000000,image280.jpg,56025.9169240000
4,50.8636383333,-0.0942035000,57.1000000000,6.8750000000,-3.1250000000,348.1875000000,image281.jpg,56225.7411840000
4,50.8636386667,-0.0942043333,57.1000000000,8.5000000000,-2.5000000000,347.3750000000,image282.jpg,56425.0332070000
4,50.8636393333,-0.0942055000,57.1000000000,8.6250000000,-2.6875000000,347.3125000000,image283.jpg,56625.0552540000
4,50.8636400000,-0.0942070000,57.1000000000,8.0625000000,-2.0000000000,347.8750000000,image284.jpg,56825.2807630000
4,50.8636405000,-0.0942083333,57.1000000000,8.3125000000,-1.9375000000,348.4375000000,image285.jpg,57025.1548500000
4,50.8636411667,-0.0942095000,57.1000000000,7.8750000000,-2.8125000000,347.7500000000,image286.jpg,57225.2733730000
4,50.8636418333,-0.0942108333,57.1000000000,7.1250000000,-3.5000000000,346.0625000000,image287.jpg,57425.3002120000
4,50.8636425000,-0.0942120000,57.2000000000,7.4375000000,-3.1875000000,345.3750000000,image288.jpg,57625.3616740000
4,50.8636430000,-0.0942133333,57.1000000000,7.2500000000,-1.9375000000,345.1875000000,image289.jpg,57825.4687290000
4,50.8636435000,-0.0942145000,57.1000000000,7.5000000000,-2.5000000000,344.6250000000,image290.jpg,58026.4169160000
4,50.8636440000,-0.0942155000,57.1000000000,6.8750000000,-2.7500000000,343.2500000000,image291.jpg,58225.5776250000
4,50.8636445000,-0.0942168333,57.1000000000,4.8125000000,-3.5625000000,341.1875000000,image292.jpg,58425.6476650000
4,50.8636450000,-0.0942181667,57.2000000000,6.6250000000,-3.7500000000,340.5625000000,image293.jpg,58625.8125650000
4,50.8636455000,-0.0942195000,57.2000000000,6.3125000000,-4.1875000000,341.2500000000,image294.jpg,58825.8004750000
4,50.8636461667,-0.0942210000,57.2000000000,5.1250000000,-3.1875000000,341.1875000000,image295.jpg,59026.0818670000
4,50.8636468333,-0.0942226667,57.2000000000,5.0625000000,-2.9375000000,340.5000000000,image296.jpg,59227.1549290000
4,50.8636473333,-0.0942240000,57.2000000000,4.8125000000,-2.3750000000,339.5000000000,image297.jpg,59427.0782300000
4,50.8636478333,-0.0942251667,57.2000000000,5.8125000000,-2.5625000000,339.3750000000,image298.jpg,59627.3422840000
4,50.8636483333,-0.0942266667,57.2000000000,3.6875000000,-2.6250000000,339.1250000000,image299.jpg,59826.9577070000
4,50.8636488333,-0.0942280000,57.2000000000,2.6250000000,-2.5000000000,336.4375000000,image300.jpg,60026.4244260000
4,50.8636491667,-0.0942293333,57.2000000000,4.4375000000,-2.2500000000,336.1875000000,image301.jpg,60226.6363780000
4,50.8636496667,-0.0942306667,57.2000000000,3.9375000000,-2.1250000000,336.2500000000,image302.jpg,60427.4614790000
4,50.8636501667,-0.0942320000,57.2000000000,3.4375000000,-1.8125000000,335.8750000000,image303.jpg,60627.7739650000
4,50.8636506667,-0.0942331667,57.2000000000,2.7500000000,-1.8750000000,334.5625000000,image304.jpg,60827.5692210000
4,50.8636510000,-0.0942346667,57.2000000000,2.7500000000,-2.4375000000,331.0000000000,image305.jpg,61026.9482640000
4,50.8636513333,-0.0942358333,57.2000000000,2.8750000000,-2.8125000000,330.3750000000,image306.jpg,61226.7492800000
4,50.8636516667,-0.0942373333,57.2000000000,3.6250000000,-2.3125000000,330.8125000000,image307.jpg,61426.9768500000
4,50.8636518333,-0.0942388333,57.2000000000,4.2500000000,-2.3125000000,331.1250000000,image308.jpg,61627.9895880000
4,50.8636521667,-0.0942398333,57.2000000000,4.3125000000,-3.1875000000,331.3750000000,image309.jpg,61827.9093730000
4,50.8636526667,-0.0942413333,57.2000000000,3.6250000000,-2.8125000000,331.4375000000,image310.jpg,62027.9725140000
4,50.8636528333,-0.0942426667,57.2000000000,3.6875000000,-3.3750000000,329.1250000000,image311.jpg,62227.0860180000
4,50.8636531667,-0.0942438333,57.2000000000,4.9375000000,-2.6875000000,328.4375000000,image312.jpg,62427.1619670000
4,50.8636535000,-0.0942451667,57.2000000000,4.0625000000,-3.5000000000,328.9375000000,image313.jpg,62627.5111970000
4,50.8636538333,-0.0942466667,57.2000000000,2.4375000000,-3.8750000000,329.6250000000,image314.jpg,62827.2954930000
4,50.8636541667,-0.0942481667,57.2000000000,4.8750000000,-2.8125000000,329.8125000000,image315.jpg,63027.3520480000
4,50.8636543333,-0.0942495000,57.2000000000,4.5625000000,-4.0000000000,330.0625000000,image316.jpg,63227.5322530000
4,50.8636548333,-0.0942508333,57.2000000000,3.1875000000,-2.9375000000,329.8750000000,image317.jpg,63427.4742160000
4,50.8636551667,-0.0942521667,57.2000000000,5.8750000000,-3.6250000000,330.4375000000,image318.jpg,63627.5729940000
4,50.8636555000,-0.0942536667,57.2000000000,5.5625000000,-3.1875000000,330.8750000000,image319.jpg,63827.9305830000
4,50.8636558333,-0.0942551667,57.2000000000,5.5000000000,-2.5000000000,330.6875000000,image320.jpg,64027.8027940000
4,50.8636563333,-0.0942565000,57.2000000000,4.9375000000,-2.8125000000,330.4375000000,image321.jpg,64227.9211620000
4,50.8636566667,-0.0942581667,57.2000000000,5.2500000000,-2.3750000000,329.6875000000,image322.jpg,64427.9836660000
4,50.8636570000,-0.0942596667,57.2000000000,3.8125000000,-3.5625000000,327.5000000000,image323.jpg,64628.0024880000
4,50.8636575000,-0.0942611667,57.2000000000,3.8750000000,-2.8750000000,325.6875000000,image324.jpg,64827.9703390000
4,50.8636576667,-0.0942630000,57.2000000000,4.5625000000,-2.3125000000,325.5625000000,image325.jpg,65028.6656260000
4,50.8636580000,-0.0942646667,57.2000000000,5.5625000000,-2.4375000000,325.3125000000,image326.jpg,65229.1119970000
4,50.8636583333,-0.0942663333,57.2000000000,4.3125000000,-2.1875000000,325.5000000000,image327.jpg,65429.1210850000
4,50.8636586667,-0.0942681667,57.3000000000,4.4375000000,-2.6250000000,325.4375000000,image328.jpg,65629.2272720000
4,50.8636590000,-0.0942698333,57.3000000000,3.8750000000,-1.7500000000,325.3750000000,image329.jpg,65828.3644450000
4,50.8636593333,-0.0942715000,57.3000000000,4.4375000000,-2.1875000000,325.6875000000,image330.jpg,66028.4167360000
4,50.8636596667,-0.0942731667,57.3000000000,4.4375000000,-2.7500000000,325.6875000000,image331.jpg,66228.9843020000
4,50.8636598333,-0.0942748333,57.3000000000,4.0000000000,-2.6250000000,325.5625000000,image332.jpg,66429.5117800000
4,50.8636601667,-0.0942766667,57.3000000000,4.8125000000,-3.0000000000,324.5625000000,image333.jpg,66629.5549080000
4,50.8636605000,-0.0942783333,57.3000000000,2.8125000000,-4.1250000000,324.4375000000,image334.jpg,66829.6143290000
4,50.8636610000,-0.0942801667,57.3000000000,2.8750000000,-4.9375000000,324.6250000000,image335.jpg,67028.7484530000
4,50.8636610000,-0.0942818333,57.3000000000,3.8750000000,-5.3750000000,324.6875000000,image336.jpg,67228.8378970000
4,50.8636615000,-0.0942835000,57.3000000000,2.3125000000,-4.4375000000,324.8750000000,image337.jpg,67429.5978710000
4,50.8636618333,-0.0942853333,57.3000000000,4.1250000000,-4.3750000000,325.3125000000,image338.jpg,67630.1895760000
4,50.8636620000,-0.0942870000,57.3000000000,4.0625000000,-5.0000000000,325.3750000000,image339.jpg,67830.1665040000
4,50.8636625000,-0.0942886667,57.3000000000,3.6250000000,-4.7500000000,326.0000000000,image340.jpg,68030.0467760000
4,50.8636626667,-0.0942905000,57.3000000000,4.6250000000,-2.8750000000,326.1875000000,image341.jpg,68229.2771840000
4,50.8636630000,-0.0942918333,57.3000000000,5.8125000000,-1.5000000000,326.2500000000,image342.jpg,68429.3119820000
4,50.8636635000,-0.0942933333,57.3000000000,6.4375000000,0.6875000000,325.8750000000,image343.jpg,68629.6774900000
4,50.8636635000,-0.0942950000,57.3000000000,6.2500000000,-1.0625000000,325.5000000000,image344.jpg,68829.3673530000
4,50.8636640000,-0.0942965000,57.3000000000,6.1875000000,-1.5625000000,324.0000000000,image345.jpg,69029.5107660000
4,50.8636640000,-0.0942983333,57.3000000000,5.5000000000,-2.5000000000,322.1250000000,image346.jpg,69229.5904000000
4,50.8636643333,-0.0943001667,57.3000000000,6.6250000000,-3.0000000000,321.5000000000,image347.jpg,69429.6602990000
4,50.8636645000,-0.0943016667,57.3000000000,5.1875000000,-3.5625000000,321.4375000000,image348.jpg,69629.7626850000
4,50.8636648333,-0.0943035000,57.3000000000,5.1250000000,-4.6250000000,322.0000000000,image349.jpg,69829.7911210000
4,50.8636650000,-0.0943053333,57.3000000000,7.8750000000,-4.2500000000,322.3750000000,image350.jpg,70029.7190920000
4,50.8636651667,-0.0943070000,57.3000000000,5.3125000000,-2.8750000000,321.5625000000,image351.jpg,70229.8930150000
4,50.8636655000,-0.0943086667,57.3000000000,5.6875000000,-3.2500000000,319.3750000000,image352.jpg,70429.9112660000
4,50.8636656667,-0.0943105000,57.3000000000,4.8750000000,-4.3125000000,318.3125000000,image353.jpg,70629.9738240000
4,50.8636656667,-0.0943123333,57.3000000000,4.7500000000,-4.6875000000,314.5000000000,image354.jpg,70830.4890040000
4,50.8636658333,-0.0943140000,57.3000000000,6.0000000000,-5.1250000000,313.1250000000,image355.jpg,71031.0522020000
4,50.8636660000,-0.0943156667,57.3000000000,6.1875000000,-5.2500000000,313.5000000000,image356.jpg,71231.1811310000
4,50.8636658333,-0.0943175000,57.3000000000,6.5625000000,-3.2500000000,313.6250000000,image357.jpg,71431.2026520000
4,50.8636660000,-0.0943190000,57.4000000000,6.3750000000,-5.1250000000,312.5625000000,image358.jpg,71630.3171110000
4,50.8636660000,-0.0943205000,57.3000000000,5.8750000000,-4.3125000000,311.6250000000,image359.jpg,71830.3555260000
4,50.8636660000,-0.0943221667,57.3000000000,6.0000000000,-5.4375000000,312.1250000000,image360.jpg,72030.8679430000
4,50.8636661667,-0.0943238333,57.4000000000,5.4375000000,-4.8125000000,312.7500000000,image361.jpg,72231.4325270000
4,50.8636660000,-0.0943250000,57.3000000000,6.7500000000,-2.9375000000,312.8125000000,image362.jpg,72431.6270910000
4,50.8636661667,-0.0943261667,57.3000000000,6.1250000000,-1.5625000000,311.9375000000,image363.jpg,72631.5373320000
4,50.8636663333,-0.0943273333,57.3000000000,3.8750000000,-1.5000000000,312.0625000000,image364.jpg,72830.6742830000
4,50.8636663333,-0.0943286667,57.3000000000,3.0625000000,-1.0000000000,311.5625000000,image365.jpg,73030.7210600000
4,50.8636663333,-0.0943298333,57.3000000000,6.5000000000,-2.4375000000,311.6250000000,image366.jpg,73231.3480420000
4,50.8636661667,-0.0943310000,57.3000000000,8.0000000000,-3.1875000000,314.1250000000,image367.jpg,73431.8274740000
4,50.8636665000,-0.0943323333,57.3000000000,7.1875000000,-3.1875000000,315.7500000000,image368.jpg,73631.9045530000
4,50.8636666667,-0.0943331667,57.4000000000,5.9375000000,-1.5625000000,319.0625000000,image369.jpg,73831.8739820000
4,50.8636668333,-0.0943341667,57.4000000000,5.6875000000,-2.1250000000,320.0000000000,image370.jpg,74031.1082040000
4,50.8636670000,-0.0943356667,57.4000000000,5.3750000000,-2.6250000000,320.0625000000,image371.jpg,74231.1770190000
4,50.8636671667,-0.0943370000,57.4000000000,6.7500000000,-2.3125000000,322.6875000000,image372.jpg,74431.9566690000
4,50.8636675000,-0.0943383333,57.4000000000,8.0000000000,-3.8125000000,326.3750000000,image373.jpg,74631.2701330000
4,50.8636676667,-0.0943395000,57.4000000000,5.6250000000,-3.1875000000,328.9375000000,image374.jpg,74831.3023110000
4,50.8636681667,-0.0943408333,57.4000000000,5.8750000000,-2.8750000000,329.9375000000,image375.jpg,75031.3932080000
4,50.8636683333,-0.0943420000,57.4000000000,7.8750000000,-1.8125000000,330.7500000000,image376.jpg,75231.4744200000
4,50.8636686667,-0.0943435000,57.4000000000,7.5625000000,-3.4375000000,330.8750000000,image377.jpg,75431.5558930000
4,50.8636691667,-0.0943450000,57.4000000000,5.2500000000,-2.0625000000,330.9375000000,image378.jpg,75631.6141970000
4,50.8636695000,-0.0943463333,57.4000000000,5.1250000000,-3.7500000000,330.9375000000,image379.jpg,75831.6762110000
4,50.8636698333,-0.0943476667,57.4000000000,6.0625000000,-3.7500000000,329.1875000000,image380.jpg,76031.7196220000
4,50.8636700000,-0.0943493333,57.4000000000,6.5000000000,-4.3125000000,325.1875000000,image381.jpg,76231.8020830000
4,50.8636701667,-0.0943506667,57.4000000000,5.6250000000,-3.0625000000,321.3750000000,image382.jpg,76431.8517420000
4,50.8636705000,-0.0943520000,57.4000000000,6.4375000000,-3.3750000000,320.5000000000,image383.jpg,76632.4458930000
4,50.8636705000,-0.0943536667,57.4000000000,5.9375000000,-4.3125000000,320.6250000000,image384.jpg,76832.9656030000
4,50.8636706667,-0.0943551667,57.4000000000,8.3125000000,-4.6875000000,320.6875000000,image385.jpg,77033.0347240000
4,50.8636708333,-0.0943566667,57.4000000000,7.2500000000,-3.9375000000,321.4375000000,image386.jpg,77233.2684740000
4,50.8636711667,-0.0943581667,57.4000000000,6.9375000000,-2.6875000000,323.0625000000,image387.jpg,77432.9289400000
4,50.8636716667,-0.0943598333,57.4000000000,7.5625000000,-3.2500000000,326.5000000000,image388.jpg,77632.3134630000
4,50.8636718333,-0.0943615000,57.4000000000,6.5625000000,-4.3125000000,326.8750000000,image389.jpg,77832.8342060000
4,50.8636723333,-0.0943631667,57.4000000000,5.6250000000,-5.1875000000,325.9375000000,image390.jpg,78033.3533570000
4,50.8636725000,-0.0943648333,57.4000000000,5.3750000000,-5.1250000000,322.2500000000,image391.jpg,78233.4381840000
4,50.8636726667,-0.0943665000,57.4000000000,4.6875000000,-4.6875000000,317.3750000000,image392.jpg,78433.5007790000
4,50.8636726667,-0.0943683333,57.4000000000,4.8750000000,-4.4375000000,315.1250000000,image393.jpg,78632.6482330000
4,50.8636726667,-0.0943703333,57.4000000000,4.8750000000,-4.4375000000,315.8750000000,image394.jpg,78832.6305540000
4,50.8636730000,-0.0943723333,57.4000000000,5.5000000000,-5.6875000000,316.1875000000,image395.jpg,79033.2583390000
4,50.8636731667,-0.0943746667,57.4000000000,5.7500000000,-5.6250000000,317.8125000000,image396.jpg,79233.7837650000
4,50.8636735000,-0.0943770000,57.4000000000,6.8125000000,-5.3750000000,320.3750000000,image397.jpg,79433.8382120000
4,50.8636738333,-0.0943795000,57.4000000000,6.5000000000,-6.2500000000,324.3125000000,image398.jpg,79633.7757220000
4,50.8636743333,-0.0943820000,57.4000000000,5.1250000000,-7.1875000000,325.6250000000,image399.jpg,79833.0433170000
4,50.8636748333,-0.0943841667,57.4000000000,3.5000000000,-7.1875000000,325.1250000000,image400.jpg,80033.0823720000
4,50.8636751667,-0.0943865000,57.4000000000,4.0625000000,-6.5000000000,321.5000000000,image401.jpg,80233.2760080000
4,50.8636753333,-0.0943886667,57.3000000000,5.5000000000,-6.5625000000,317.8125000000,image402.jpg,80433.2811180000
4,50.8636755000,-0.0943906667,57.3000000000,7.0000000000,-4.7500000000,317.1250000000,image403.jpg,80633.3351160000
4,50.8636756667,-0.0943928333,57.3000000000,6.8750000000,-5.5000000000,316.9375000000,image404.jpg,80833.3723440000
4,50.8636756667,-0.0943950000,57.3000000000,8.5000000000,-4.4375000000,316.9375000000,image405.jpg,81033.4357780000
4,50.8636760000,-0.0943973333,57.3000000000,4.6250000000,-5.1250000000,314.6875000000,image406.jpg,81233.5463830000
4,50.8636760000,-0.0943995000,57.3000000000,6.4375000000,-5.2500000000,312.8750000000,image407.jpg,81433.5328650000
4,50.8636760000,-0.0944018333,57.3000000000,7.1250000000,-4.7500000000,313.3125000000,image408.jpg,81633.5041960000
4,50.8636761667,-0.0944040000,57.3000000000,6.5000000000,-4.7500000000,313.8125000000,image409.jpg,81833.6574340000
4,50.8636763333,-0.0944063333,57.3000000000,8.2500000000,-3.5625000000,315.8750000000,image410.jpg,82033.7285270000
4,50.8636765000,-0.0944085000,57.3000000000,8.1875000000,-4.0000000000,319.1875000000,image411.jpg,82233.7962880000
4,50.8636768333,-0.0944106667,57.3000000000,6.8125000000,-3.6875000000,319.5625000000,image412.jpg,82434.2964480000
4,50.8636771667,-0.0944128333,57.3000000000,8.5625000000,-2.1875000000,320.4375000000,image413.jpg,82634.8650730000
4,50.8636775000,-0.0944156667,57.3000000000,4.5000000000,-4.9375000000,320.8750000000,image414.jpg,82834.8882040000
4,50.8636778333,-0.0944185000,57.3000000000,3.6250000000,-4.0000000000,319.3750000000,image415.jpg,83034.9713230000
4,50.8636783333,-0.0944210000,57.3000000000,3.5000000000,-3.7500000000,319.5625000000,image416.jpg,83234.1269550000
4,50.8636785000,-0.0944236667,57.3000000000,4.7500000000,-3.4375000000,320.0625000000,image417.jpg,83434.1641000000
4,50.8636788333,-0.0944260000,57.3000000000,3.5000000000,-2.3125000000,317.6875000000,image418.jpg,83634.7735440000
4,50.8636790000,-0.0944283333,57.4000000000,5.0000000000,-1.7500000000,313.7500000000,image419.jpg,83835.2942040000
4,50.8636790000,-0.0944306667,57.4000000000,5.5625000000,-1.8125000000,312.0000000000,image420.jpg,84035.3354020000
4,50.8636790000,-0.0944330000,57.4000000000,6.5000000000,-2.6875000000,312.5625000000,image421.jpg,84235.2998040000
4,50.8636791667,-0.0944356667,57.4000000000,7.3750000000,-2.9375000000,315.1250000000,image422.jpg,84434.4778160000
4,50.8636793333,-0.0944381667,57.4000000000,7.7500000000,-2.0625000000,321.5000000000,image423.jpg,84634.6173130000
4,50.8636796667,-0.0944405000,57.4000000000,6.1250000000,-2.6875000000,326.0625000000,image424.jpg,84835.4365040000
4,50.8636803333,-0.0944431667,57.4000000000,6.1250000000,-2.9375000000,326.8750000000,image425.jpg,85035.6799610000
4,50.8636808333,-0.0944456667,57.4000000000,5.1250000000,-3.0000000000,326.8125000000,image426.jpg,85235.7658170000
4,50.8636813333,-0.0944481667,57.4000000000,4.1250000000,-3.6875000000,320.8125000000,image427.jpg,85435.3488800000
4,50.8636816667,-0.0944506667,57.4000000000,4.4375000000,-4.2500000000,318.1250000000,image428.jpg,85634.9735430000
4,50.8636818333,-0.0944530000,57.4000000000,6.3750000000,-3.6875000000,318.5625000000,image429.jpg,85835.1764770000
4,50.8636820000,-0.0944555000,57.4000000000,8.3750000000,-2.5000000000,321.5000000000,image430.jpg,86035.3176060000
4,50.8636823333,-0.0944580000,57.4000000000,7.8750000000,-3.6875000000,326.2500000000,image431.jpg,86235.1322340000
4,50.8636830000,-0.0944600000,57.4000000000,7.5000000000,-4.4375000000,326.5625000000,image432.jpg,86435.1795940000
4,50.8636833333,-0.0944621667,57.4000000000,5.2500000000,-1.6875000000,325.9375000000,image433.jpg,86635.2855260000
4,50.8636840000,-0.0944645000,57.4000000000,4.3125000000,-1.5625000000,325.8750000000,image434.jpg,86835.3052740000
4,50.8636843333,-0.0944668333,57.4000000000,6.3125000000,-2.0625000000,325.8750000000,image435.jpg,87035.5740920000
4,50.8636848333,-0.0944688333,57.4000000000,5.1250000000,-1.8125000000,323.5625000000,image436.jpg,87235.4216510000
4,50.8636850000,-0.0944711667,57.4000000000,7.1875000000,-2.0625000000,318.6250000000,image437.jpg,87435.5090230000
4,50.8636850000,-0.0944733333,57.4000000000,7.3125000000,-2.2500000000,318.6250000000,image438.jpg,87635.5495350000
4,50.8636853333,-0.0944756667,57.4000000000,8.0000000000,-2.6250000000,318.6875000000,image439.jpg,87835.6042950000
4,50.8636855000,-0.0944778333,57.4000000000,9.0625000000,-2.6250000000,320.0000000000,image440.jpg,88035.6785140000
4,50.8636858333,-0.0944801667,57.4000000000,7.4375000000,-2.7500000000,321.0000000000,image441.jpg,88236.5097100000
4,50.8636860000,-0.0944825000,57.4000000000,8.6875000000,-3.0625000000,323.4375000000,image442.jpg,88436.8823150000
4,50.8636865000,-0.0944846667,57.5000000000,8.6875000000,-1.5625000000,324.0625000000,image443.jpg,88636.8595370000
4,50.8636868333,-0.0944871667,57.5000000000,10.1875000000,-2.8125000000,325.2500000000,image444.jpg,88836.8052890000
4,50.8636871667,-0.0944898333,57.5000000000,9.2500000000,-3.9375000000,326.3125000000,image445.jpg,89036.0228410000
4,50.8636878333,-0.0944928333,57.5000000000,7.6250000000,-3.1250000000,327.0000000000,image446.jpg,89236.1334160000
4,50.8636885000,-0.0944955000,57.5000000000,8.9375000000,-3.1875000000,326.8750000000,image447.jpg,89436.9430720000
4,50.8636890000,-0.0944985000,57.5000000000,9.0000000000,-1.1875000000,327.6250000000,image448.jpg,89637.2394690000
4,50.8636896667,-0.0945015000,57.5000000000,8.8125000000,-2.1875000000,328.4375000000,image449.jpg,89837.2512010000
4,50.8636901667,-0.0945041667,57.5000000000,9.8750000000,-2.5000000000,329.5000000000,image450.jpg,90036.9110560000
4,50.8636908333,-0.0945066667,57.5000000000,9.3125000000,-2.8125000000,331.7500000000,image451.jpg,90236.5041120000
4,50.8636915000,-0.0945093333,57.5000000000,9.8750000000,-2.9375000000,337.0625000000,image452.jpg,90436.7383000000
4,50.8636921667,-0.0945113333,57.5000000000,9.5000000000,-1.9375000000,336.8125000000,image453.jpg,90637.6022700000
4,50.8636930000,-0.0945135000,57.5000000000,8.3125000000,-1.6875000000,337.8125000000,image454.jpg,90837.5545510000
4,50.8636936667,-0.0945158333,57.5000000000,8.5000000000,-3.5000000000,338.7500000000,image455.jpg,91037.6963270000
4,50.8636945000,-0.0945178333,57.5000000000,8.8750000000,-2.3125000000,342.3125000000,image456.jpg,91236.8191320000
4,50.8636955000,-0.0945196667,57.5000000000,6.8750000000,-0.8750000000,344.4375000000,image457.jpg,91436.8604740000
4,50.8636963333,-0.0945216667,57.5000000000,8.1875000000,-2.3750000000,344.5625000000,image458.jpg,91637.2373250000
4,50.8636971667,-0.0945238333,57.5000000000,5.3750000000,-4.1250000000,340.5625000000,image459.jpg,91837.0100320000
4,50.8636978333,-0.0945258333,57.5000000000,8.3750000000,-3.4375000000,338.5625000000,image460.jpg,92037.0744900000
4,50.8636986667,-0.0945280000,57.5000000000,7.5625000000,-3.0000000000,338.2500000000,image461.jpg,92237.1825790000
4,50.8636993333,-0.0945303333,57.5000000000,6.5625000000,-2.8750000000,339.5000000000,image462.jpg,92437.2503700000
4,50.8637001667,-0.0945323333,57.5000000000,8.5625000000,-3.1875000000,339.8125000000,image463.jpg,92637.3143600000
4,50.8637008333,-0.0945345000,57.5000000000,7.1250000000,-3.0000000000,339.6250000000,image464.jpg,92837.6080830000
4,50.8637018333,-0.0945366667,57.5000000000,8.1875000000,-1.5625000000,341.0625000000,image465.jpg,93037.4402190000
4,50.8637026667,-0.0945386667,57.5000000000,10.0625000000,-1.6875000000,345.0625000000,image466.jpg,93237.5248730000
4,50.8637035000,-0.0945408333,57.5000000000,8.0625000000,-2.9375000000,345.8750000000,image467.jpg,93437.5565770000
4,50.8637046667,-0.0945425000,57.5000000000,8.4375000000,-1.7500000000,347.9375000000,image468.jpg,93637.6425850000
4,50.8637056667,-0.0945443333,57.5000000000,10.1875000000,-0.9375000000,354.6250000000,image469.jpg,93837.7149690000
4,50.8637068333,-0.0945460000,57.5000000000,8.7500000000,-1.8750000000,1.8125000000,image470.jpg,94038.4764640000
4,50.8637080000,-0.0945470000,57.5000000000,9.3125000000,-0.5625000000,5.6875000000,image471.jpg,94238.9062500000
4,50.8637093333,-0.0945483333,57.6000000000,8.6875000000,-2.0625000000,6.8125000000,image472.jpg,94438.9783980000
4,50.8637106667,-0.0945495000,57.5000000000,8.6250000000,-0.7500000000,7.1250000000,image473.jpg,94638.8497290000
4,50.8637118333,-0.0945506667,57.5000000000,8.8750000000,-0.1875000000,3.4375000000,image474.jpg,94838.0491720000
4,50.8637130000,-0.0945523333,57.5000000000,7.9375000000,-2.3750000000,358.1875000000,image475.jpg,95038.1241690000
4,50.8637140000,-0.0945540000,57.6000000000,8.0625000000,-1.3750000000,357.9375000000,image476.jpg,95238.8474850000
4,50.8637151667,-0.0945555000,57.6000000000,10.7500000000,0.1875000000,358.9375000000,image477.jpg,95439.2067600000
4,50.8637160000,-0.0945568333,57.6000000000,8.6875000000,-2.0625000000,357.8125000000,image478.jpg,95639.4266020000
4,50.8637163333,-0.0945568333,57.6000000000,7.1875000000,-1.1875000000,358.7500000000,image479.jpg,95839.2868450000
4,50.8637161667,-0.0945568333,57.6000000000,7.4375000000,-1.1250000000,358.6875000000,image480.jpg,96038.4845180000
4,50.8637161667,-0.0945568333,57.6000000000,7.3125000000,-1.5000000000,358.6875000000,image481.jpg,96238.6048440000
4,50.8637161667,-0.0945568333,57.6000000000,7.2500000000,-1.5000000000,358.6875000000,image482.jpg,96439.4409160000
4,50.8637161667,-0.0945568333,57.6000000000,7.1875000000,-1.5000000000,358.6875000000,image483.jpg,96639.6925520000
4,50.8637161667,-0.0945568333,57.6000000000,7.1250000000,-1.5000000000,358.6875000000,image484.jpg,96839.7889430000
4,50.8637161667,-0.0945568333,57.6000000000,7.1250000000,-1.5000000000,358.6875000000,image485.jpg,97038.8664240000
4,50.8637161667,-0.0945570000,57.6000000000,7.0625000000,-1.5625000000,358.6875000000,image486.jpg,97238.9555920000
4,50.8637161667,-0.0945568333,57.6000000000,7.0625000000,-1.5625000000,358.6875000000,image487.jpg,97439.0707400000
4,50.8637161667,-0.0945568333,57.5000000000,7.0625000000,-1.5625000000,358.6875000000,image488.jpg,97640.1515490000
4,50.8637161667,-0.0945570000,57.5000000000,7.0625000000,-1.5625000000,358.6875000000,image489.jpg,97840.1850720000
4,50.8637161667,-0.0945570000,57.5000000000,7.0625000000,-1.5625000000,358.6875000000,image490.jpg,98040.3079500000
4,50.8637161667,-0.0945568333,57.5000000000,7.0625000000,-1.5625000000,358.6875000000,image491.jpg,98239.3125110000
4,50.8637161667,-0.0945568333,57.5000000000,7.0625000000,-1.5625000000,358.6875000000,image492.jpg,98439.3586440000
4,50.8637161667,-0.0945568333,57.6000000000,7.0625000000,-1.5625000000,358.6875000000,image493.jpg,98639.7249820000
4,50.8637161667,-0.0945568333,57.6000000000,7.0625000000,-1.5625000000,358.6875000000,image494.jpg,98840.4628190000
4,50.8637161667,-0.0945570000,57.6000000000,7.0625000000,-1.5625000000,358.6875000000,image495.jpg,99039.5479450000
4,50.8637163333,-0.0945568333,57.6000000000,7.0625000000,-1.5625000000,358.6875000000,image496.jpg,99239.6465810000
4,50.8637161667,-0.0945568333,57.5000000000,7.0625000000,-1.5625000000,358.6875000000,image497.jpg,99439.6870600000
4,50.8637161667,-0.0945570000,57.5000000000,7.0625000000,-1.5625000000,358.6875000000,image498.jpg,99639.7274350000
4,50.8637161667,-0.0945568333,57.6000000000,7.0625000000,-1.5625000000,358.6875000000,image499.jpg,99840.6052960000
4,50.8637163333,-0.0945568333,57.6000000000,7.0625000000,-1.5625000000,358.6875000000,image500.jpg,100040.7250870000
4,50.8637161667,-0.0945568333,57.6000000000,7.0625000000,-1.5625000000,358.6875000000,image501.jpg,100240.9107420000
4,50.8637161667,-0.0945568333,57.5000000000,7.0625000000,-1.5625000000,358.6875000000,image502.jpg,100440.8129500000
4,50.8637161667,-0.0945568333,57.6000000000,7.0625000000,-1.5625000000,358.6875000000,image503.jpg,100640.1133840000
4,50.8637161667,-0.0945568333,57.6000000000,7.0625000000,-1.5625000000,358.6875000000,image504.jpg,100840.1160330000
4,50.8637161667,-0.0945568333,57.6000000000,7.0625000000,-1.5625000000,358.6875000000,image505.jpg,101040.8499520000
4,50.8637161667,-0.0945568333,57.6000000000,7.0625000000,-1.5625000000,358.6875000000,image506.jpg,101241.2713210000
4,50.8637161667,-0.0945568333,57.6000000000,7.0625000000,-1.5625000000,358.6875000000,image507.jpg,101441.2812660000
4,50.8637161667,-0.0945568333,57.5000000000,7.0625000000,-1.5625000000,358.6875000000,image508.jpg,101641.3020410000
4,50.8637161667,-0.0945568333,57.5000000000,7.0625000000,-1.5625000000,358.6875000000,image509.jpg,101840.3283650000
4,50.8637161667,-0.0945568333,57.6000000000,7.0625000000,-1.5625000000,358.6875000000,image510.jpg,102040.5463750000
4,50.8637161667,-0.0945568333,57.6000000000,7.0625000000,-1.5625000000,358.6875000000,image511.jpg,102241.4916900000
4,50.8637161667,-0.0945568333,57.6000000000,7.0625000000,-1.5625000000,358.6875000000,image512.jpg,102441.5586040000
4,50.8637161667,-0.0945568333,57.5000000000,7.0625000000,-1.5625000000,358.6875000000,image513.jpg,102641.8154540000
4,50.8637161667,-0.0945570000,57.5000000000,7.0625000000,-1.5625000000,358.6875000000,image514.jpg,102841.0800380000
4,50.8637161667,-0.0945568333,57.5000000000,7.0625000000,-1.5625000000,358.6875000000,image515.jpg,103040.8248270000
4,50.8637161667,-0.0945568333,57.5000000000,7.0625000000,-1.5625000000,358.6875000000,image516.jpg,103241.0049900000
4,50.8637161667,-0.0945570000,57.6000000000,7.0625000000,-1.5625000000,358.6875000000,image517.jpg,103442.0104470000
4,50.8637161667,-0.0945568333,57.6000000000,7.0625000000,-1.5625000000,358.6875000000,image518.jpg,103642.3881990000
