speed,steering angle,gps quality,lat,lon,altitude,roll,pitch,yaw,image name,timestamp
0.0078431377,1.0000000000,4,50.8680578333,-0.0981475000,68.1000000000,2.1875000000,1.0625000000,0.0000000000,image0.jpg,45.5660940000
0.0392156877,0.0000000000,4,50.8680578333,-0.0981475000,68.0000000000,2.1875000000,1.0625000000,0.0000000000,image1.jpg,175.5438020000
0.0549019612,0.0000000000,4,50.8680578333,-0.0981475000,68.1000000000,2.1875000000,1.0625000000,0.0000000000,image2.jpg,238.6928640000
0.0549019612,0.0000000000,4,50.8680578333,-0.0981476667,68.1000000000,2.1875000000,1.0625000000,0.0000000000,image3.jpg,373.7642710000
0.0392156877,0.0000000000,4,50.8680578333,-0.0981475000,68.1000000000,2.1875000000,1.0625000000,0.0000000000,image4.jpg,439.0046350000
0.0392156877,0.0000000000,4,50.8680578333,-0.0981475000,68.1000000000,2.1875000000,1.0625000000,0.0000000000,image5.jpg,574.1905730000
0.0392156877,0.0000000000,4,50.8680578333,-0.0981476667,68.1000000000,2.1875000000,1.0625000000,0.0000000000,image6.jpg,639.8801040000
0.0705882385,1.0000000000,4,50.8680578333,-0.0981475000,68.1000000000,2.1875000000,1.0625000000,0.0000000000,image7.jpg,777.0531770000
0.0705882385,0.0000000000,4,50.8680578333,-0.0981475000,68.1000000000,2.1875000000,1.0625000000,0.0000000000,image8.jpg,840.5017700000
0.0392156877,1.0000000000,4,50.8680578333,-0.0981475000,68.1000000000,2.1875000000,1.0625000000,0.0000000000,image9.jpg,981.4149470000
0.0784313753,0.0000000000,4,50.8680578333,-0.0981475000,68.1000000000,2.1875000000,1.0625000000,0.0000000000,image10.jpg,1040.6220310000
0.0784313753,0.0000000000,4,50.8680578333,-0.0981475000,68.1000000000,2.1875000000,1.0625000000,0.0000000000,image11.jpg,1177.5931240000
0.0470588244,0.0000000000,4,50.8680578333,-0.0981475000,68.1000000000,2.1875000000,1.0625000000,0.0000000000,image12.jpg,1309.2895310000
0.1019607857,0.0000000000,4,50.8680578333,-0.0981475000,68.1000000000,2.1875000000,1.0625000000,0.0000000000,image13.jpg,1375.0186450000
0.1176470593,0.0000000000,4,50.8680578333,-0.0981475000,68.1000000000,2.1875000000,1.0625000000,0.0000000000,image14.jpg,1510.7803640000
0.0705882385,0.0000000000,4,50.8680578333,-0.0981475000,68.1000000000,2.1875000000,1.0625000000,0.0000000000,image15.jpg,1575.5502600000
0.0784313753,2.0000000000,4,50.8680578333,-0.0981475000,68.1000000000,2.1875000000,1.0625000000,0.0000000000,image16.jpg,1708.5655200000
0.1098039225,1.0000000000,4,50.8680578333,-0.0981475000,68.1000000000,2.1875000000,1.0625000000,0.0000000000,image17.jpg,1776.2798430000
0.1568627506,2.0000000000,4,50.8680578333,-0.0981475000,68.1000000000,2.1875000000,1.0625000000,0.0000000000,image18.jpg,1907.7107280000
0.1882352978,4.0000000000,4,50.8680578333,-0.0981476667,68.1000000000,2.1875000000,1.0625000000,0.0000000000,image19.jpg,1977.0402590000
0.1882352978,4.0000000000,4,50.8680578333,-0.0981476667,68.1000000000,2.1875000000,1.0625000000,0.0000000000,image20.jpg,2108.8060410000
0.1960784346,4.0000000000,4,50.8680578333,-0.0981476667,68.1000000000,2.1875000000,1.0625000000,0.0000000000,image21.jpg,2177.3797390000
0.1882352978,4.0000000000,4,50.8680578333,-0.0981475000,68.1000000000,2.1875000000,1.0625000000,0.0000000000,image22.jpg,2308.1297390000
0.2274509817,4.0000000000,4,50.8680578333,-0.0981475000,68.1000000000,2.1875000000,1.0625000000,0.0000000000,image23.jpg,2377.4128640000
0.2196078449,5.0000000000,4,50.8680578333,-0.0981476667,68.1000000000,2.3125000000,1.0625000000,359.9375000000,image24.jpg,2507.9229160000
0.2509804070,4.0000000000,4,50.8680578333,-0.0981476667,68.1000000000,2.4375000000,1.0625000000,359.9375000000,image25.jpg,2574.9922910000
0.3058823645,7.0000000000,4,50.8680578333,-0.0981476667,68.1000000000,2.6250000000,1.0625000000,359.8750000000,image26.jpg,2708.3073950000
0.2823529541,5.0000000000,4,50.8680578333,-0.0981475000,68.1000000000,2.8750000000,1.1250000000,359.8750000000,image27.jpg,2776.3818220000
0.3607843220,2.0000000000,4,50.8680578333,-0.0981475000,68.1000000000,2.8750000000,1.1875000000,359.8750000000,image28.jpg,2911.8244260000
0.3686274588,0.0000000000,4,50.8680576667,-0.0981476667,68.1000000000,2.8750000000,1.3125000000,359.9375000000,image29.jpg,2978.7151030000
0.3921568692,0.0000000000,4,50.8680578333,-0.0981476667,68.1000000000,2.6875000000,1.1875000000,0.0625000000,image30.jpg,3106.6089570000
0.4392156899,1.0000000000,4,50.8680576667,-0.0981478333,68.1000000000,2.6875000000,1.0000000000,0.0000000000,image31.jpg,3176.1264050000
0.4313725531,0.0000000000,4,50.8680575000,-0.0981480000,68.0000000000,2.7500000000,1.2500000000,0.0000000000,image32.jpg,3307.7724990000
0.4313725531,0.0000000000,4,50.8680575000,-0.0981481667,68.0000000000,2.6875000000,0.8750000000,0.0625000000,image33.jpg,3377.7180710000
0.4313725531,0.0000000000,4,50.8680573333,-0.0981483333,68.1000000000,4.2500000000,1.8125000000,0.1250000000,image34.jpg,3511.2165090000
0.4235294163,-2.0000000000,4,50.8680570000,-0.0981483333,68.1000000000,4.6875000000,2.2500000000,359.9375000000,image35.jpg,3576.3830710000
0.3843137324,-3.0000000000,4,50.8680568333,-0.0981483333,68.1000000000,4.8125000000,2.5625000000,359.9375000000,image36.jpg,3713.4708320000
0.4156862795,-4.0000000000,4,50.8680568333,-0.0981485000,68.1000000000,4.7500000000,2.5625000000,359.8750000000,image37.jpg,3775.0567170000
0.4235294163,-3.0000000000,4,50.8680566667,-0.0981485000,68.1000000000,3.9375000000,2.2500000000,359.7500000000,image38.jpg,3911.9023940000
0.3921568692,-3.0000000000,4,50.8680565000,-0.0981486667,68.1000000000,3.6250000000,2.1875000000,359.6250000000,image39.jpg,3975.2107270000
0.4470588267,-1.0000000000,4,50.8680563333,-0.0981491667,68.1000000000,2.3125000000,1.0000000000,359.5625000000,image40.jpg,4111.4935400000
0.4470588267,-2.0000000000,4,50.8680561667,-0.0981498333,68.1000000000,2.1875000000,1.2500000000,359.6250000000,image41.jpg,4175.7079670000
0.4627451003,-1.0000000000,4,50.8680560000,-0.0981508333,68.1000000000,1.6875000000,2.1250000000,358.7500000000,image42.jpg,4312.4806230000
0.4470588267,1.0000000000,4,50.8680558333,-0.0981511667,68.1000000000,0.0000000000,1.3125000000,358.2500000000,image43.jpg,4375.1730190000
0.4470588267,0.0000000000,4,50.8680556667,-0.0981521667,68.0000000000,-1.3125000000,-0.2500000000,358.1875000000,image44.jpg,4512.1438520000
0.4470588267,1.0000000000,4,50.8680556667,-0.0981528333,68.0000000000,-0.5625000000,-1.9375000000,357.6875000000,image45.jpg,4575.5380710000
0.4470588267,3.0000000000,4,50.8680553333,-0.0981531667,68.0000000000,1.5000000000,-4.3750000000,357.6875000000,image46.jpg,4712.3761960000
0.4627451003,1.0000000000,4,50.8680550000,-0.0981536667,68.0000000000,2.9375000000,-5.6875000000,357.2500000000,image47.jpg,4780.1766650000
0.3921568692,1.0000000000,4,50.8680543333,-0.0981538333,68.0000000000,2.1250000000,-5.9375000000,357.3125000000,image48.jpg,4913.0078100000
0.4549019635,1.0000000000,4,50.8680543333,-0.0981545000,68.0000000000,1.7500000000,-5.6250000000,357.0625000000,image49.jpg,4980.4701540000
0.4627451003,0.0000000000,5,50.8680543333,-0.0981548333,68.0000000000,0.3750000000,-3.3125000000,356.8125000000,image50.jpg,5113.0947370000
0.4078431427,3.0000000000,5,50.8680541667,-0.0981553333,68.0000000000,0.0000000000,-2.3750000000,356.8750000000,image51.jpg,5180.1918730000
0.4627451003,5.0000000000,5,50.8680540000,-0.0981555000,68.0000000000,0.0625000000,-1.5000000000,357.0000000000,image52.jpg,5312.3146330000
0.4705882370,4.0000000000,5,50.8680538333,-0.0981553333,68.0000000000,0.0625000000,-0.8750000000,357.0000000000,image53.jpg,5380.4986440000
0.4627451003,15.0000000000,5,50.8680536667,-0.0981553333,68.0000000000,-0.5625000000,0.3125000000,356.6250000000,image54.jpg,5512.0838520000
0.5176470876,15.0000000000,5,50.8680535000,-0.0981555000,68.0000000000,-1.0000000000,0.8750000000,356.6875000000,image55.jpg,5579.3882270000
0.5176470876,15.0000000000,5,50.8680535000,-0.0981553333,68.0000000000,-1.8125000000,2.8125000000,357.1875000000,image56.jpg,5711.9402060000
0.5098039508,17.0000000000,5,50.8680535000,-0.0981553333,68.0000000000,-1.6250000000,4.5000000000,357.5625000000,image57.jpg,5781.7541120000
0.5333333611,23.0000000000,5,50.8680535000,-0.0981550000,68.0000000000,0.0625000000,8.6250000000,358.6875000000,image58.jpg,5912.3391640000
0.5333333611,23.0000000000,5,50.8680535000,-0.0981553333,68.1000000000,1.2500000000,10.2500000000,359.8125000000,image59.jpg,5984.7227060000
0.4313725531,23.0000000000,5,50.8680531667,-0.0981555000,68.1000000000,4.3750000000,11.4375000000,1.5625000000,image60.jpg,6112.9046330000
0.5176470876,22.0000000000,5,50.8680526667,-0.0981563333,68.1000000000,6.1250000000,10.5625000000,2.3750000000,image61.jpg,6179.1085390000
0.5176470876,21.0000000000,5,50.8680525000,-0.0981568333,68.1000000000,6.8125000000,9.1875000000,3.0000000000,image62.jpg,6311.3782790000
0.4862745106,19.0000000000,2,50.8680523333,-0.0981573333,68.1000000000,4.9375000000,8.3750000000,2.3750000000,image63.jpg,6381.2191640000
0.5333333611,9.0000000000,2,50.8680521667,-0.0981573333,68.1000000000,3.3125000000,7.8125000000,3.3125000000,image64.jpg,6513.3231220000
0.5333333611,7.0000000000,2,50.8680521667,-0.0981576667,68.1000000000,3.2500000000,7.6250000000,3.9375000000,image65.jpg,6580.3582790000
0.5333333611,0.0000000000,2,50.8680518333,-0.0981580000,68.1000000000,3.6250000000,7.1875000000,4.2500000000,image66.jpg,6713.0139040000
0.5254902244,0.0000000000,2,50.8680516667,-0.0981580000,68.1000000000,4.4375000000,7.0625000000,4.3125000000,image67.jpg,6780.4679140000
0.5490196347,1.0000000000,2,50.8680515000,-0.0981581667,68.2000000000,5.6250000000,5.9375000000,3.3750000000,image68.jpg,6912.5198930000
0.5490196347,0.0000000000,2,50.8680513333,-0.0981585000,68.2000000000,5.6250000000,5.0000000000,2.8750000000,image69.jpg,6980.3374970000
0.5333333611,0.0000000000,2,50.8680510000,-0.0981590000,68.2000000000,7.8125000000,1.3125000000,2.4375000000,image70.jpg,7111.9979140000
0.5176470876,0.0000000000,2,50.8680506667,-0.0981590000,68.2000000000,8.9375000000,-0.3750000000,2.4375000000,image71.jpg,7181.2833300000
0.5176470876,0.0000000000,2,50.8680503333,-0.0981591667,68.2000000000,9.7500000000,-1.2500000000,2.6875000000,image72.jpg,7312.0976530000
0.5490196347,0.0000000000,2,50.8680500000,-0.0981593333,68.2000000000,9.1250000000,-0.7500000000,2.2500000000,image73.jpg,7381.1530180000
0.5725490451,1.0000000000,5,50.8680498333,-0.0981595000,68.2000000000,8.1875000000,0.7500000000,1.7500000000,image74.jpg,7514.2886430000
0.5333333611,3.0000000000,5,50.8680495000,-0.0981598333,68.2000000000,7.2500000000,0.4375000000,0.7500000000,image75.jpg,7580.3978090000
0.5647059083,0.0000000000,5,50.8680493333,-0.0981603333,68.2000000000,6.1250000000,-1.6250000000,0.8125000000,image76.jpg,7715.7684860000
0.5568627715,1.0000000000,5,50.8680491667,-0.0981610000,68.2000000000,7.1875000000,-2.2500000000,1.0625000000,image77.jpg,7780.3287990000
0.5254902244,3.0000000000,5,50.8680486667,-0.0981610000,68.2000000000,8.8125000000,-1.6250000000,1.8750000000,image78.jpg,7915.7035910000
0.5490196347,7.0000000000,5,50.8680480000,-0.0981610000,68.2000000000,10.8750000000,-2.3750000000,2.1250000000,image79.jpg,7984.6274450000
0.5490196347,14.0000000000,5,50.8680476667,-0.0981608333,68.2000000000,13.4375000000,-4.0625000000,1.2500000000,image80.jpg,8115.7541630000
0.5568627715,15.0000000000,5,50.8680471667,-0.0981608333,68.2000000000,11.3125000000,-4.5625000000,0.6250000000,image81.jpg,8179.6219240000
0.5490196347,10.0000000000,5,50.8680473333,-0.0981613333,68.2000000000,9.1875000000,-4.2500000000,1.1875000000,image82.jpg,8316.3639550000
0.5176470876,5.0000000000,5,50.8680471667,-0.0981620000,68.3000000000,8.7500000000,-3.8125000000,1.1875000000,image83.jpg,8379.2549970000
0.5490196347,7.0000000000,5,50.8680470000,-0.0981643333,68.2000000000,9.1875000000,-2.1250000000,1.0625000000,image84.jpg,8517.0699970000
0.5490196347,9.0000000000,5,50.8680470000,-0.0981655000,68.1000000000,10.1875000000,-1.6250000000,0.9375000000,image85.jpg,8579.3585900000
0.5647059083,7.0000000000,5,50.8680466667,-0.0981660000,68.1000000000,10.4375000000,-0.9375000000,0.5625000000,image86.jpg,8716.7347360000
0.5568627715,5.0000000000,5,50.8680460000,-0.0981660000,68.1000000000,12.0000000000,-0.2500000000,0.6875000000,image87.jpg,8785.5586940000
0.5490196347,0.0000000000,5,50.8680458333,-0.0981665000,68.1000000000,16.0000000000,2.1875000000,1.2500000000,image88.jpg,8917.8167670000
0.5490196347,0.0000000000,5,50.8680455000,-0.0981668333,68.0000000000,16.8750000000,3.1875000000,1.0625000000,image89.jpg,8983.2756730000
0.5176470876,11.0000000000,5,50.8680451667,-0.0981670000,68.0000000000,16.3125000000,4.4375000000,0.9375000000,image90.jpg,9115.3856210000
0.5490196347,15.0000000000,5,50.8680451667,-0.0981673333,68.0000000000,14.6875000000,4.6875000000,0.3125000000,image91.jpg,9182.9906210000
0.5568627715,14.0000000000,5,50.8680451667,-0.0981681667,68.0000000000,13.6250000000,4.3125000000,0.7500000000,image92.jpg,9315.1908300000
0.5490196347,10.0000000000,5,50.8680448333,-0.0981685000,68.0000000000,14.1250000000,3.4375000000,1.2500000000,image93.jpg,9384.8044750000
0.5490196347,15.0000000000,5,50.8680443333,-0.0981686667,68.0000000000,14.4375000000,3.0000000000,1.7500000000,image94.jpg,9516.2834860000
0.4705882370,17.0000000000,5,50.8680441667,-0.0981691667,68.0000000000,13.3750000000,2.7500000000,1.8125000000,image95.jpg,9584.8118190000
0.5176470876,24.0000000000,5,50.8680438333,-0.0981695000,68.0000000000,11.2500000000,1.5000000000,3.2500000000,image96.jpg,9717.8624960000
0.5254902244,24.0000000000,5,50.8680436667,-0.0981698333,68.0000000000,13.4375000000,0.6250000000,4.3750000000,image97.jpg,9783.9196840000
0.5333333611,17.0000000000,5,50.8680433333,-0.0981701667,68.0000000000,17.1250000000,-2.0000000000,5.7500000000,image98.jpg,9915.6095790000
0.5490196347,11.0000000000,2,50.8680431667,-0.0981703333,68.0000000000,17.0000000000,-2.4375000000,5.9375000000,image99.jpg,9985.3870270000
0.5568627715,7.0000000000,2,50.8680428333,-0.0981706667,68.0000000000,17.1250000000,-3.1875000000,6.6250000000,image100.jpg,10116.4749960000
0.5568627715,9.0000000000,2,50.8680426667,-0.0981710000,68.0000000000,17.0625000000,-3.8750000000,7.0625000000,image101.jpg,10185.3163500000
0.5019608140,21.0000000000,2,50.8680423333,-0.0981713333,68.0000000000,15.5000000000,-3.5625000000,6.8125000000,image102.jpg,10316.1302040000
0.5647059083,23.0000000000,2,50.8680421667,-0.0981718333,68.0000000000,13.1875000000,-3.1875000000,7.5000000000,image103.jpg,10384.1785900000
0.5490196347,23.0000000000,5,50.8680420000,-0.0981728333,68.1000000000,12.1875000000,-3.5625000000,8.1875000000,image104.jpg,10516.0469750000
0.5490196347,25.0000000000,5,50.8680416667,-0.0981735000,68.1000000000,11.1875000000,-2.1875000000,8.3125000000,image105.jpg,10584.5512460000
0.5490196347,27.0000000000,5,50.8680415000,-0.0981738333,68.1000000000,11.3125000000,0.2500000000,11.6250000000,image106.jpg,10717.6181210000
0.5019608140,26.0000000000,5,50.8680413333,-0.0981745000,68.1000000000,13.1875000000,0.5625000000,12.5000000000,image107.jpg,10786.7919230000
0.5490196347,23.0000000000,5,50.8680410000,-0.0981751667,68.1000000000,15.3750000000,1.8125000000,14.0000000000,image108.jpg,10923.3907250000
0.5725490451,25.0000000000,nan,nan,nan,nan,16.1875000000,2.1250000000,14.7500000000,image109.jpg,10988.8333810000
0.5098039508,27.0000000000,5,50.8680408333,-0.0981756667,68.1000000000,17.0000000000,1.8750000000,15.5625000000,image110.jpg,11052.6969230000
0.5568627715,33.0000000000,2,50.8680405000,-0.0981761667,68.1000000000,14.6250000000,-0.9375000000,16.9375000000,image111.jpg,11186.5208290000
0.4705882370,34.0000000000,2,50.8680403333,-0.0981768333,68.1000000000,12.2500000000,-0.6875000000,17.0000000000,image112.jpg,11251.4562980000
0.5568627715,34.0000000000,2,50.8680401667,-0.0981776667,68.1000000000,9.3125000000,-0.0625000000,18.0625000000,image113.jpg,11385.1302560000
0.5568627715,34.0000000000,5,50.8680400000,-0.0981780000,68.1000000000,9.8125000000,0.4375000000,17.6250000000,image114.jpg,11452.2397350000
0.5568627715,31.0000000000,5,50.8680400000,-0.0981780000,68.1000000000,9.2500000000,1.6250000000,19.1875000000,image115.jpg,11583.3123390000
0.5568627715,29.0000000000,5,50.8680400000,-0.0981783333,68.1000000000,8.3750000000,1.8750000000,19.7500000000,image116.jpg,11655.3919750000
0.5568627715,24.0000000000,5,50.8680400000,-0.0981786667,68.1000000000,8.5000000000,3.1875000000,21.2500000000,image117.jpg,11785.8011410000
0.5647059083,14.0000000000,5,50.8680398333,-0.0981790000,68.1000000000,7.8125000000,3.1875000000,22.3750000000,image118.jpg,11852.0908290000
0.4705882370,13.0000000000,5,50.8680398333,-0.0981793333,68.1000000000,8.8750000000,2.9375000000,24.3125000000,image119.jpg,11985.5738490000
0.5568627715,11.0000000000,5,50.8680396667,-0.0981796667,68.1000000000,10.6250000000,2.0625000000,25.1875000000,image120.jpg,12050.8643180000
0.5568627715,8.0000000000,5,50.8680393333,-0.0981801667,68.1000000000,14.9375000000,0.7500000000,25.8125000000,image121.jpg,12185.5169740000
0.4784313738,8.0000000000,5,50.8680390000,-0.0981805000,68.1000000000,15.9375000000,1.0625000000,25.9375000000,image122.jpg,12251.8903080000
0.5568627715,17.0000000000,5,50.8680388333,-0.0981811667,68.1000000000,15.1875000000,4.0625000000,25.0625000000,image123.jpg,12384.9112970000
0.5254902244,22.0000000000,5,50.8680388333,-0.0981816667,68.1000000000,13.8125000000,3.9375000000,25.5625000000,image124.jpg,12452.2888490000
0.5647059083,30.0000000000,5,50.8680388333,-0.0981821667,68.1000000000,12.1250000000,2.7500000000,25.2500000000,image125.jpg,12582.9849430000
0.5803921819,31.0000000000,5,50.8680386667,-0.0981828333,68.1000000000,10.1875000000,2.7500000000,25.6875000000,image126.jpg,12653.6053600000
0.5725490451,30.0000000000,5,50.8680388333,-0.0981833333,68.1000000000,9.0625000000,2.1875000000,27.8125000000,image127.jpg,12789.0891100000
0.5647059083,34.0000000000,5,50.8680388333,-0.0981838333,68.1000000000,9.0000000000,1.7500000000,29.0000000000,image128.jpg,12851.7848910000
0.5647059083,35.0000000000,5,50.8680386667,-0.0981845000,68.1000000000,7.8125000000,3.3750000000,32.6250000000,image129.jpg,12991.4019220000
0.5333333611,34.0000000000,5,50.8680386667,-0.0981848333,68.1000000000,9.5000000000,3.9375000000,33.8750000000,image130.jpg,13052.0311410000
0.5490196347,34.0000000000,5,50.8680385000,-0.0981851667,68.1000000000,12.3125000000,2.8750000000,36.4375000000,image131.jpg,13188.0058800000
0.5803921819,34.0000000000,5,50.8680383333,-0.0981856667,68.1000000000,12.0625000000,2.1875000000,37.3125000000,image132.jpg,13251.9462970000
0.5725490451,33.0000000000,5,50.8680381667,-0.0981861667,68.1000000000,11.3750000000,1.0000000000,39.7500000000,image133.jpg,13388.6846820000
0.5333333611,33.0000000000,5,50.8680381667,-0.0981866667,68.1000000000,12.7500000000,0.8750000000,40.7500000000,image134.jpg,13450.7345780000
0.5725490451,34.0000000000,5,50.8680381667,-0.0981870000,68.1000000000,11.1250000000,0.3125000000,41.4375000000,image135.jpg,13589.2580150000
0.5333333611,33.0000000000,5,50.8680381667,-0.0981875000,68.1000000000,9.5625000000,0.8750000000,42.5000000000,image136.jpg,13655.8408800000
0.5490196347,33.0000000000,5,50.8680383333,-0.0981880000,68.1000000000,11.5625000000,2.5000000000,45.1875000000,image137.jpg,13788.0460880000
0.5725490451,34.0000000000,5,50.8680381667,-0.0981886667,68.1000000000,12.5625000000,2.6875000000,45.6250000000,image138.jpg,13851.2282760000
0.5411764979,31.0000000000,5,50.8680381667,-0.0981890000,68.1000000000,9.9375000000,2.9375000000,45.3750000000,image139.jpg,13989.5440050000
0.5803921819,28.0000000000,5,50.8680383333,-0.0981891667,68.1000000000,9.8750000000,3.1250000000,46.4375000000,image140.jpg,14054.6630150000
0.5725490451,27.0000000000,5,50.8680383333,-0.0981896667,68.1000000000,10.7500000000,4.0000000000,48.0625000000,image141.jpg,14189.0085880000
0.5411764979,26.0000000000,5,50.8680385000,-0.0981900000,68.1000000000,11.4375000000,4.3125000000,49.3125000000,image142.jpg,14254.7551510000
0.5725490451,26.0000000000,5,50.8680385000,-0.0981906667,68.1000000000,10.6250000000,5.0625000000,51.8750000000,image143.jpg,14389.1254110000
0.5803921819,23.0000000000,5,50.8680385000,-0.0981915000,68.1000000000,9.1875000000,4.2500000000,53.7500000000,image144.jpg,14455.9510360000
0.5803921819,23.0000000000,5,50.8680386667,-0.0981920000,68.1000000000,8.0625000000,2.9375000000,56.0625000000,image145.jpg,14588.7983280000
0.5803921819,24.0000000000,5,50.8680388333,-0.0981926667,68.1000000000,8.7500000000,3.0625000000,56.7500000000,image146.jpg,14655.6609320000
0.5803921819,24.0000000000,5,50.8680388333,-0.0981933333,68.1000000000,8.5000000000,3.0625000000,57.4375000000,image147.jpg,14788.3403590000
0.5882353187,24.0000000000,5,50.8680390000,-0.0981936667,68.1000000000,8.3750000000,3.5625000000,57.5000000000,image148.jpg,14857.0281710000
0.5411764979,24.0000000000,5,50.8680390000,-0.0981940000,68.1000000000,8.0625000000,3.1250000000,58.6875000000,image149.jpg,14989.7198900000
0.5803921819,24.0000000000,5,50.8680390000,-0.0981945000,68.1000000000,7.9375000000,1.5625000000,60.1875000000,image150.jpg,15056.2556710000
0.5568627715,24.0000000000,5,50.8680390000,-0.0981950000,68.1000000000,10.0000000000,-2.2500000000,63.1875000000,image151.jpg,15189.2898380000
0.5960784554,24.0000000000,5,50.8680391667,-0.0981956667,68.1000000000,10.8125000000,-2.2500000000,63.5000000000,image152.jpg,15255.8165040000
0.5882353187,25.0000000000,2,50.8680391667,-0.0981966667,68.1000000000,7.5000000000,-2.3750000000,65.2500000000,image153.jpg,15388.9858790000
0.5803921819,23.0000000000,5,50.8680398333,-0.0981973333,68.2000000000,7.0000000000,-3.5000000000,67.1875000000,image154.jpg,15456.0062960000
0.5960784554,24.0000000000,5,50.8680403333,-0.0981983333,68.2000000000,6.3750000000,-7.3750000000,69.4375000000,image155.jpg,15588.8733790000
0.5960784554,23.0000000000,5,50.8680403333,-0.0981990000,68.2000000000,7.4375000000,-7.0625000000,70.3750000000,image156.jpg,15654.7443690000
0.5960784554,25.0000000000,5,50.8680403333,-0.0981996667,68.2000000000,4.3750000000,-4.5000000000,71.9375000000,image157.jpg,15792.3921810000
0.5960784554,26.0000000000,2,50.8680405000,-0.0982003333,68.2000000000,4.1250000000,-3.6875000000,73.0000000000,image158.jpg,15854.8087960000
0.6039215922,27.0000000000,2,50.8680408333,-0.0982008333,68.2000000000,5.7500000000,-2.0000000000,74.4375000000,image159.jpg,15995.8280670000
0.5882353187,28.0000000000,2,50.8680408333,-0.0982013333,68.2000000000,4.8125000000,-2.1875000000,75.0000000000,image160.jpg,16054.9182750000
0.5333333611,30.0000000000,2,50.8680411667,-0.0982016667,68.2000000000,4.7500000000,-1.1250000000,77.3750000000,image161.jpg,16188.7097330000
0.5882353187,30.0000000000,2,50.8680413333,-0.0982023333,68.2000000000,6.6250000000,-1.5000000000,78.5625000000,image162.jpg,16255.4670770000
0.5333333611,31.0000000000,2,50.8680413333,-0.0982026667,68.2000000000,9.3750000000,-2.7500000000,79.8750000000,image163.jpg,16393.7655660000
0.5882353187,31.0000000000,2,50.8680416667,-0.0982033333,68.2000000000,10.2500000000,-2.1250000000,80.6250000000,image164.jpg,16454.9647330000
0.6039215922,34.0000000000,2,50.8680418333,-0.0982036667,68.2000000000,7.2500000000,-1.8125000000,83.1250000000,image165.jpg,16591.9432230000
0.5333333611,34.0000000000,2,50.8680418333,-0.0982040000,68.2000000000,6.5000000000,-1.3125000000,84.0625000000,image166.jpg,16655.1197330000
0.5882353187,35.0000000000,2,50.8680423333,-0.0982045000,68.2000000000,5.1875000000,-3.5000000000,86.4375000000,image167.jpg,16792.1724410000
0.5882353187,34.0000000000,2,50.8680426667,-0.0982050000,68.2000000000,5.5625000000,-3.9375000000,87.7500000000,image168.jpg,16854.7660350000
0.5882353187,33.0000000000,2,50.8680430000,-0.0982056667,68.2000000000,6.4375000000,-3.5000000000,89.5000000000,image169.jpg,16992.8091600000
0.5960784554,33.0000000000,2,50.8680433333,-0.0982063333,68.2000000000,6.0000000000,-4.1250000000,90.6875000000,image170.jpg,17060.8537950000
0.5960784554,34.0000000000,2,50.8680436667,-0.0982066667,68.2000000000,4.0625000000,-3.3750000000,92.1250000000,image171.jpg,17192.9298370000
0.5960784554,34.0000000000,2,50.8680440000,-0.0982071667,68.2000000000,4.0625000000,-2.8750000000,91.8125000000,image172.jpg,17260.4580660000
0.5098039508,34.0000000000,2,50.8680441667,-0.0982070000,68.2000000000,4.8125000000,-2.1875000000,93.1875000000,image173.jpg,17393.3440040000
0.5960784554,33.0000000000,5,50.8680445000,-0.0982070000,68.2000000000,5.0000000000,-2.0000000000,94.2500000000,image174.jpg,17455.0243160000
0.5568627715,34.0000000000,5,50.8680448333,-0.0982073333,68.2000000000,7.3125000000,0.2500000000,97.2500000000,image175.jpg,17593.9760870000
0.6588235497,34.0000000000,5,50.8680451667,-0.0982076667,68.2000000000,7.7500000000,1.6250000000,98.4375000000,image176.jpg,17654.9105140000
0.6352941394,33.0000000000,5,50.8680455000,-0.0982080000,68.2000000000,8.3125000000,3.6875000000,101.6875000000,image177.jpg,17795.0987950000
0.5411764979,35.0000000000,5,50.8680456667,-0.0982086667,68.1000000000,9.4375000000,3.8750000000,103.1875000000,image178.jpg,17859.2358260000
0.6117647290,34.0000000000,5,50.8680460000,-0.0982088333,68.2000000000,9.8125000000,5.5000000000,105.0625000000,image179.jpg,17995.5525970000
0.6117647290,33.0000000000,5,50.8680463333,-0.0982091667,68.2000000000,7.1250000000,5.0625000000,104.1875000000,image180.jpg,18059.1837950000
0.6117647290,33.0000000000,5,50.8680465000,-0.0982091667,68.2000000000,6.6875000000,5.3125000000,106.3750000000,image181.jpg,18193.6071280000
0.6274510026,34.0000000000,5,50.8680466667,-0.0982096667,68.2000000000,6.6250000000,5.3750000000,107.8125000000,image182.jpg,18258.6586390000
0.6117647290,34.0000000000,5,50.8680470000,-0.0982096667,68.2000000000,5.8125000000,7.1875000000,110.7500000000,image183.jpg,18394.1895760000
0.6117647290,34.0000000000,5,50.8680473333,-0.0982101667,68.2000000000,6.4375000000,7.1875000000,111.8125000000,image184.jpg,18459.4361390000
0.5803921819,35.0000000000,5,50.8680476667,-0.0982100000,68.2000000000,8.0625000000,6.6875000000,113.7500000000,image185.jpg,18592.8549410000
0.6039215922,34.0000000000,5,50.8680476667,-0.0982103333,68.2000000000,8.1875000000,6.2500000000,116.0625000000,image186.jpg,18658.8861390000
0.5882353187,33.0000000000,5,50.8680478333,-0.0982101667,68.2000000000,11.1250000000,4.4375000000,118.6250000000,image187.jpg,18792.6981180000
0.6039215922,34.0000000000,5,50.8680480000,-0.0982105000,68.2000000000,11.7500000000,4.8125000000,119.3750000000,image188.jpg,18858.8647320000
0.6274510026,33.0000000000,5,50.8680481667,-0.0982108333,68.2000000000,10.8125000000,3.5000000000,121.1875000000,image189.jpg,18994.2097840000
0.5882353187,33.0000000000,5,50.8680483333,-0.0982106667,68.2000000000,10.0000000000,2.4375000000,121.9375000000,image190.jpg,19059.2620760000
0.6274510026,34.0000000000,5,50.8680488333,-0.0982108333,68.2000000000,8.7500000000,0.9375000000,124.9375000000,image191.jpg,19193.7503050000
0.6274510026,34.0000000000,5,50.8680491667,-0.0982110000,68.2000000000,10.2500000000,1.9375000000,126.2500000000,image192.jpg,19258.9329090000
0.6039215922,34.0000000000,5,50.8680493333,-0.0982110000,68.2000000000,12.6250000000,3.3750000000,127.8125000000,image193.jpg,19393.7594720000
0.6274510026,34.0000000000,5,50.8680496667,-0.0982111667,68.2000000000,13.0000000000,3.4375000000,129.4375000000,image194.jpg,19458.9383260000
0.6274510026,30.0000000000,5,50.8680501667,-0.0982110000,68.2000000000,11.8750000000,0.1875000000,133.5625000000,image195.jpg,19593.7556690000
0.6274510026,27.0000000000,5,50.8680506667,-0.0982111667,68.2000000000,9.3750000000,-1.3750000000,134.5625000000,image196.jpg,19658.9436380000
0.5960784554,2.0000000000,5,50.8680513333,-0.0982110000,68.2000000000,9.7500000000,-1.1875000000,137.5625000000,image197.jpg,19793.7421280000
0.5960784554,2.0000000000,5,50.8680515000,-0.0982106667,68.2000000000,11.3125000000,-1.3750000000,138.7500000000,image198.jpg,19858.9395240000
0.5960784554,0.0000000000,5,50.8680518333,-0.0982110000,68.2000000000,13.1250000000,0.8750000000,139.7500000000,image199.jpg,19996.9307730000
0.6352941394,0.0000000000,5,50.8680523333,-0.0982111667,68.2000000000,12.9375000000,0.3125000000,140.1875000000,image200.jpg,20059.7259820000
0.6352941394,0.0000000000,5,50.8680530000,-0.0982111667,68.2000000000,12.0625000000,-1.8750000000,140.3750000000,image201.jpg,20199.3103570000
0.5960784554,2.0000000000,5,50.8680533333,-0.0982110000,68.2000000000,12.5625000000,-1.0000000000,139.7500000000,image202.jpg,20260.5643150000
0.6352941394,0.0000000000,5,50.8680538333,-0.0982111667,68.2000000000,11.5000000000,2.5000000000,137.8125000000,image203.jpg,20397.1162940000
0.6431372762,0.0000000000,5,50.8680541667,-0.0982108333,68.2000000000,11.6875000000,2.3750000000,138.5625000000,image204.jpg,20460.0450960000
0.6352941394,0.0000000000,5,50.8680545000,-0.0982108333,68.3000000000,11.5625000000,2.5625000000,139.0625000000,image205.jpg,20595.5384290000
0.6745098233,0.0000000000,5,50.8680550000,-0.0982106667,68.3000000000,11.7500000000,1.3125000000,138.2500000000,image206.jpg,20659.9087940000
0.6745098233,0.0000000000,5,50.8680555000,-0.0982106667,68.3000000000,11.0625000000,-1.8750000000,135.8125000000,image207.jpg,20797.0559810000
0.6745098233,0.0000000000,5,50.8680561667,-0.0982108333,68.3000000000,10.6875000000,-0.2500000000,136.5625000000,image208.jpg,20860.2016590000
0.6745098233,2.0000000000,5,50.8680565000,-0.0982106667,68.3000000000,17.2500000000,4.1250000000,135.2500000000,image209.jpg,20995.7236380000
0.6509804130,0.0000000000,5,50.8680566667,-0.0982111667,68.2000000000,16.3125000000,3.9375000000,135.7500000000,image210.jpg,21058.9624920000
0.6745098233,0.0000000000,5,50.8680570000,-0.0982111667,68.2000000000,11.2500000000,2.4375000000,136.0625000000,image211.jpg,21196.7206170000
0.6745098233,-3.0000000000,2,50.8680575000,-0.0982110000,68.3000000000,8.5625000000,2.5625000000,135.9375000000,image212.jpg,21265.1304080000
0.6745098233,-18.0000000000,2,50.8680580000,-0.0982110000,68.3000000000,6.5000000000,4.6875000000,136.1875000000,image213.jpg,21396.6299400000
0.6745098233,-29.0000000000,2,50.8680586667,-0.0982110000,68.2000000000,5.0625000000,4.2500000000,135.8125000000,image214.jpg,21466.7152520000
0.6901960969,-35.0000000000,2,50.8680591667,-0.0982108333,68.3000000000,4.5000000000,5.5000000000,134.6875000000,image215.jpg,21597.5531690000
0.6745098233,-35.0000000000,2,50.8680595000,-0.0982108333,68.3000000000,6.2500000000,5.5000000000,134.1875000000,image216.jpg,21666.2480120000
0.5960784554,-35.0000000000,2,50.8680598333,-0.0982111667,68.3000000000,9.6875000000,4.0625000000,129.6875000000,image217.jpg,21797.0778040000
0.6823529601,-35.0000000000,2,50.8680601667,-0.0982118333,68.3000000000,7.8125000000,3.6250000000,126.6250000000,image218.jpg,21862.9229080000
0.6823529601,-30.0000000000,2,50.8680606667,-0.0982120000,68.3000000000,4.5000000000,3.6875000000,125.5000000000,image219.jpg,21994.2283770000
0.6823529601,-26.0000000000,2,50.8680611667,-0.0982121667,68.3000000000,6.1875000000,3.4375000000,124.6250000000,image220.jpg,22064.5686370000
0.6980392337,-11.0000000000,2,50.8680613333,-0.0982123333,68.3000000000,5.1875000000,1.7500000000,119.9375000000,image221.jpg,22195.2862410000
0.6274510026,-11.0000000000,2,50.8680618333,-0.0982125000,68.3000000000,2.5625000000,1.4375000000,119.0000000000,image222.jpg,22263.3856680000
0.6901960969,-17.0000000000,2,50.8680621667,-0.0982126667,68.3000000000,2.7500000000,1.1875000000,120.5000000000,image223.jpg,22395.8800950000
0.6901960969,-23.0000000000,5,50.8680628333,-0.0982130000,68.3000000000,3.5000000000,1.3750000000,118.9375000000,image224.jpg,22464.6510850000
0.6980392337,-23.0000000000,5,50.8680630000,-0.0982133333,68.3000000000,2.3125000000,2.1875000000,116.3750000000,image225.jpg,22596.5619700000
0.6980392337,-20.0000000000,5,50.8680635000,-0.0982136667,68.3000000000,2.5000000000,2.4375000000,115.4375000000,image226.jpg,22665.9893660000
0.6980392337,-12.0000000000,5,50.8680638333,-0.0982140000,68.3000000000,3.5000000000,0.9375000000,112.1875000000,image227.jpg,22796.9204600000
0.6980392337,-12.0000000000,5,50.8680645000,-0.0982143333,68.3000000000,2.3125000000,-0.1875000000,110.1250000000,image228.jpg,22863.7388450000
0.6509804130,-7.0000000000,2,50.8680650000,-0.0982146667,68.3000000000,-0.1250000000,-2.2500000000,109.0625000000,image229.jpg,22997.9103560000
0.6980392337,-5.0000000000,2,50.8680655000,-0.0982151667,68.3000000000,0.5000000000,0.1250000000,108.5625000000,image230.jpg,23064.0370220000
0.6980392337,1.0000000000,2,50.8680658333,-0.0982158333,68.3000000000,2.2500000000,1.7500000000,107.0000000000,image231.jpg,23196.5112410000
0.7215686440,2.0000000000,2,50.8680661667,-0.0982160000,68.3000000000,3.6875000000,1.6250000000,106.6250000000,image232.jpg,23263.3892620000
0.7058823705,-1.0000000000,2,50.8680665000,-0.0982165000,68.3000000000,-0.8125000000,1.5000000000,106.5625000000,image233.jpg,23394.6045740000
0.6588235497,-2.0000000000,5,50.8680670000,-0.0982170000,68.3000000000,-2.8750000000,0.6250000000,107.7500000000,image234.jpg,23464.6062930000
0.7058823705,-2.0000000000,5,50.8680676667,-0.0982173333,68.3000000000,0.2500000000,2.5000000000,107.2500000000,image235.jpg,23596.5663450000
0.7058823705,1.0000000000,5,50.8680680000,-0.0982176667,68.3000000000,2.4375000000,2.1875000000,107.0000000000,image236.jpg,23663.2825950000
0.7137255073,7.0000000000,5,50.8680680000,-0.0982180000,68.3000000000,3.9375000000,0.8750000000,106.7500000000,image237.jpg,23800.1859800000
0.7294117808,14.0000000000,5,50.8680683333,-0.0982186667,68.3000000000,4.7500000000,0.0625000000,106.5625000000,image238.jpg,23863.3238450000
0.7215686440,19.0000000000,5,50.8680690000,-0.0982193333,68.3000000000,-0.4375000000,-0.1250000000,105.7500000000,image239.jpg,24002.5345740000
0.7137255073,18.0000000000,5,50.8680695000,-0.0982195000,68.2000000000,-5.4375000000,-0.3125000000,107.5000000000,image240.jpg,24064.5972820000
0.6274510026,5.0000000000,5,50.8680701667,-0.0982193333,68.2000000000,-2.0625000000,-0.1250000000,109.6250000000,image241.jpg,24198.0932200000
0.7137255073,2.0000000000,5,50.8680705000,-0.0982198333,68.2000000000,-0.9375000000,-1.0000000000,110.1875000000,image242.jpg,24264.4733240000
0.7294117808,0.0000000000,5,50.8680708333,-0.0982205000,68.2000000000,-0.6875000000,-0.6875000000,111.3750000000,image243.jpg,24399.3884800000
0.7137255073,1.0000000000,5,50.8680713333,-0.0982210000,68.2000000000,-0.0625000000,0.7500000000,111.0000000000,image244.jpg,24464.1081160000
0.7058823705,0.0000000000,5,50.8680721667,-0.0982215000,68.2000000000,-0.3125000000,0.0000000000,109.6875000000,image245.jpg,24599.3531680000
0.6745098233,0.0000000000,5,50.8680726667,-0.0982220000,68.2000000000,-3.8125000000,-1.1250000000,109.0625000000,image246.jpg,24663.8146260000
0.7058823705,1.0000000000,5,50.8680733333,-0.0982221667,68.2000000000,-3.3125000000,1.8750000000,110.2500000000,image247.jpg,24801.9051470000
0.7058823705,1.0000000000,5,50.8680738333,-0.0982225000,68.2000000000,-3.4375000000,2.3750000000,110.3750000000,image248.jpg,24864.1560320000
0.6666666865,1.0000000000,5,50.8680741667,-0.0982230000,68.2000000000,-2.3125000000,2.8750000000,110.6875000000,image249.jpg,25000.0671260000
0.7058823705,0.0000000000,5,50.8680746667,-0.0982233333,68.2000000000,-0.5625000000,0.5000000000,110.4375000000,image250.jpg,25069.4037920000
0.7058823705,3.0000000000,5,50.8680750000,-0.0982240000,68.2000000000,-0.1250000000,3.1875000000,108.0625000000,image251.jpg,25199.5544170000
0.6666666865,5.0000000000,5,50.8680755000,-0.0982246667,68.2000000000,-4.8125000000,0.7500000000,109.8750000000,image252.jpg,25268.9868130000
0.6666666865,9.0000000000,5,50.8680763333,-0.0982246667,68.2000000000,-2.4375000000,0.5625000000,109.8750000000,image253.jpg,25398.5409280000
0.6823529601,9.0000000000,5,50.8680766667,-0.0982251667,68.2000000000,-2.2500000000,1.0000000000,109.2500000000,image254.jpg,25469.5555630000
0.7058823705,8.0000000000,5,50.8680770000,-0.0982258333,68.2000000000,-3.5625000000,2.6875000000,111.2500000000,image255.jpg,25599.6144170000
0.7058823705,9.0000000000,5,50.8680775000,-0.0982256667,68.2000000000,-0.8750000000,4.5625000000,113.2500000000,image256.jpg,25668.9772820000
0.7058823705,6.0000000000,5,50.8680778333,-0.0982263333,68.2000000000,2.0000000000,3.3750000000,110.9375000000,image257.jpg,25801.5802500000
0.6666666865,6.0000000000,5,50.8680783333,-0.0982271667,68.2000000000,-0.2500000000,5.6250000000,111.0625000000,image258.jpg,25867.2345730000
0.6980392337,5.0000000000,5,50.8680790000,-0.0982268333,68.2000000000,0.1250000000,2.9375000000,112.3125000000,image259.jpg,26002.3188440000
0.7137255073,4.0000000000,5,50.8680793333,-0.0982273333,68.2000000000,0.3750000000,1.8750000000,111.9375000000,image260.jpg,26067.1526980000
0.6666666865,4.0000000000,5,50.8680796667,-0.0982278333,68.2000000000,-4.1250000000,3.1250000000,112.3750000000,image261.jpg,26199.7680630000
0.7058823705,4.0000000000,5,50.8680805000,-0.0982280000,68.2000000000,-2.8750000000,2.8125000000,113.1875000000,image262.jpg,26268.4255630000
0.7058823705,2.0000000000,5,50.8680810000,-0.0982283333,68.2000000000,-2.3750000000,2.5625000000,113.4375000000,image263.jpg,26399.5399900000
0.6666666865,-1.0000000000,5,50.8680815000,-0.0982288333,68.2000000000,-2.3750000000,2.3750000000,113.7500000000,image264.jpg,26469.1573860000
0.6666666865,-11.0000000000,5,50.8680820000,-0.0982290000,68.3000000000,-1.8125000000,3.3750000000,113.3750000000,image265.jpg,26599.7799380000
0.7137255073,-16.0000000000,5,50.8680823333,-0.0982293333,68.3000000000,-4.1250000000,4.0625000000,112.8750000000,image266.jpg,26668.3906670000
0.6980392337,-21.0000000000,5,50.8680830000,-0.0982293333,68.2000000000,-2.5000000000,3.0625000000,110.6875000000,image267.jpg,26801.8342600000
0.7058823705,-20.0000000000,5,50.8680835000,-0.0982298333,68.2000000000,-4.4375000000,3.1250000000,109.3750000000,image268.jpg,26867.5455100000
0.7058823705,-22.0000000000,5,50.8680838333,-0.0982301667,68.2000000000,-9.3125000000,2.3750000000,108.5625000000,image269.jpg,26999.4840000000
0.6666666865,-22.0000000000,5,50.8680845000,-0.0982303333,68.3000000000,-8.5000000000,4.0625000000,107.8125000000,image270.jpg,27068.6270730000
0.6980392337,-22.0000000000,5,50.8680850000,-0.0982306667,68.3000000000,-6.5000000000,1.4375000000,106.5625000000,image271.jpg,27201.0981140000
0.6980392337,-22.0000000000,5,50.8680851667,-0.0982318333,68.2000000000,-4.0000000000,2.5625000000,106.6250000000,image272.jpg,27268.3038440000
0.6666666865,-19.0000000000,5,50.8680853333,-0.0982325000,68.2000000000,-3.3750000000,5.1875000000,104.5000000000,image273.jpg,27401.1250410000
0.6980392337,-16.0000000000,5,50.8680858333,-0.0982328333,68.2000000000,-0.7500000000,4.5625000000,103.8125000000,image274.jpg,27468.5182710000
0.7058823705,-11.0000000000,5,50.8680861667,-0.0982336667,68.2000000000,-1.3750000000,3.1250000000,99.8125000000,image275.jpg,27601.3456140000
0.6666666865,-11.0000000000,5,50.8680865000,-0.0982338333,68.3000000000,-2.6875000000,3.8750000000,97.5000000000,image276.jpg,27668.3063960000
0.6980392337,-2.0000000000,5,50.8680870000,-0.0982343333,68.3000000000,-4.5625000000,3.3750000000,96.4375000000,image277.jpg,27805.1427500000
0.6980392337,-1.0000000000,5,50.8680873333,-0.0982348333,68.3000000000,-3.6875000000,2.4375000000,97.3750000000,image278.jpg,27867.6603540000
0.6980392337,5.0000000000,5,50.8680876667,-0.0982355000,68.3000000000,0.3750000000,0.6875000000,96.3125000000,image279.jpg,28006.8205620000
0.7058823705,8.0000000000,5,50.8680878333,-0.0982363333,68.3000000000,0.5625000000,2.3125000000,96.3750000000,image280.jpg,28067.1203020000
0.7058823705,10.0000000000,5,50.8680881667,-0.0982368333,68.3000000000,2.4375000000,4.2500000000,95.9375000000,image281.jpg,28205.0828540000
0.7137255073,11.0000000000,5,50.8680885000,-0.0982375000,68.3000000000,1.1250000000,3.8125000000,96.3750000000,image282.jpg,28267.7038950000
0.7058823705,10.0000000000,5,50.8680888333,-0.0982380000,68.3000000000,-1.5000000000,4.6875000000,97.2500000000,image283.jpg,28403.0291040000
0.6980392337,10.0000000000,5,50.8680893333,-0.0982380000,68.3000000000,-2.6875000000,4.2500000000,98.1875000000,image284.jpg,28467.3647290000
0.6509804130,10.0000000000,5,50.8680896667,-0.0982383333,68.3000000000,-1.9375000000,5.6250000000,99.2500000000,image285.jpg,28604.7021760000
0.7058823705,10.0000000000,5,50.8680900000,-0.0982386667,68.3000000000,-1.0625000000,4.3125000000,99.0625000000,image286.jpg,28668.9126450000
0.7058823705,9.0000000000,5,50.8680905000,-0.0982393333,68.3000000000,1.8750000000,2.5625000000,99.5000000000,image287.jpg,28803.4589990000
0.6666666865,8.0000000000,5,50.8680908333,-0.0982400000,68.3000000000,1.7500000000,2.4375000000,99.2500000000,image288.jpg,28867.2339990000
0.7058823705,9.0000000000,5,50.8680913333,-0.0982406667,68.3000000000,-0.5625000000,2.9375000000,100.0000000000,image289.jpg,29006.6235300000
0.7058823705,8.0000000000,5,50.8680918333,-0.0982410000,68.3000000000,-1.3750000000,3.3125000000,99.8125000000,image290.jpg,29071.3638430000
0.7058823705,8.0000000000,5,50.8680921667,-0.0982413333,68.3000000000,1.1250000000,1.8125000000,100.7500000000,image291.jpg,29205.2702490000
0.7058823705,10.0000000000,5,50.8680926667,-0.0982418333,68.3000000000,2.5000000000,4.0000000000,100.3125000000,image292.jpg,29271.0750410000
0.7058823705,8.0000000000,5,50.8680928333,-0.0982421667,68.3000000000,2.8750000000,5.1250000000,101.1875000000,image293.jpg,29405.2332700000
0.7058823705,8.0000000000,5,50.8680931667,-0.0982423333,68.3000000000,1.6875000000,5.2500000000,102.1250000000,image294.jpg,29473.1709260000
0.7058823705,11.0000000000,5,50.8680935000,-0.0982430000,68.3000000000,-1.7500000000,3.4375000000,102.3750000000,image295.jpg,29604.5692070000
0.7058823705,11.0000000000,5,50.8680941667,-0.0982433333,68.3000000000,-1.5000000000,3.8750000000,103.0625000000,image296.jpg,29672.6781140000
0.6196078658,11.0000000000,5,50.8680948333,-0.0982441667,68.3000000000,1.3125000000,3.7500000000,103.2500000000,image297.jpg,29805.2733220000
0.7058823705,11.0000000000,5,50.8680948333,-0.0982445000,68.3000000000,0.6250000000,2.0625000000,104.1250000000,image298.jpg,29871.1467070000
0.7058823705,11.0000000000,5,50.8680953333,-0.0982446667,68.3000000000,0.9375000000,2.8125000000,104.9375000000,image299.jpg,30003.6881650000
0.6196078658,11.0000000000,5,50.8680958333,-0.0982448333,68.3000000000,0.0000000000,4.0000000000,105.1875000000,image300.jpg,30072.3709780000
0.7058823705,10.0000000000,5,50.8680961667,-0.0982455000,68.3000000000,-2.0000000000,5.2500000000,106.5000000000,image301.jpg,30203.6721240000
0.7058823705,10.0000000000,5,50.8680968333,-0.0982456667,68.4000000000,-2.2500000000,3.9375000000,106.6875000000,image302.jpg,30272.9706650000
0.7058823705,10.0000000000,5,50.8680973333,-0.0982460000,68.4000000000,-5.1875000000,4.4375000000,108.0625000000,image303.jpg,30403.2344150000
0.7058823705,9.0000000000,5,50.8680976667,-0.0982463333,68.4000000000,-5.2500000000,5.7500000000,108.9375000000,image304.jpg,30473.6768110000
0.7058823705,7.0000000000,5,50.8680980000,-0.0982463333,68.4000000000,-4.0000000000,6.1875000000,109.2500000000,image305.jpg,30604.6752490000
0.7058823705,6.0000000000,5,50.8680986667,-0.0982465000,68.4000000000,-4.5000000000,5.6250000000,109.0000000000,image306.jpg,30672.9506130000
0.7058823705,-2.0000000000,5,50.8680990000,-0.0982470000,68.4000000000,-5.0000000000,6.0000000000,110.0625000000,image307.jpg,30803.7237900000
0.7058823705,-12.0000000000,5,50.8680996667,-0.0982476667,68.4000000000,-4.6875000000,5.2500000000,110.3125000000,image308.jpg,30873.5867070000
0.6745098233,-15.0000000000,5,50.8681001667,-0.0982478333,68.4000000000,-4.3125000000,4.8750000000,109.3750000000,image309.jpg,31012.0099360000
0.7058823705,-15.0000000000,5,50.8681005000,-0.0982483333,68.4000000000,-4.5000000000,5.7500000000,108.2500000000,image310.jpg,31072.1885820000
0.7058823705,-13.0000000000,5,50.8681008333,-0.0982490000,68.4000000000,-4.4375000000,5.3125000000,107.5625000000,image311.jpg,31205.0579570000
0.6745098233,-9.0000000000,5,50.8681013333,-0.0982493333,68.4000000000,-3.6250000000,6.0625000000,106.6250000000,image312.jpg,31271.1659250000
0.7058823705,-12.0000000000,5,50.8681018333,-0.0982500000,68.4000000000,-2.5625000000,4.8750000000,245.6875000000,image313.jpg,31405.0547800000
0.7058823705,-12.0000000000,5,50.8681021667,-0.0982503333,68.4000000000,-2.5625000000,4.0000000000,244.6250000000,image314.jpg,31471.3242590000
0.6745098233,-12.0000000000,5,50.8681026667,-0.0982508333,68.4000000000,-3.5000000000,3.8750000000,242.7500000000,image315.jpg,31604.1920190000
0.7058823705,-12.0000000000,5,50.8681031667,-0.0982513333,68.4000000000,-4.0000000000,3.0625000000,242.9375000000,image316.jpg,31671.0536860000
0.7058823705,-9.0000000000,5,50.8681036667,-0.0982516667,68.4000000000,-1.5625000000,3.2500000000,240.5000000000,image317.jpg,31810.7377480000
0.7058823705,-8.0000000000,5,50.8681038333,-0.0982523333,68.4000000000,-2.5625000000,4.7500000000,240.2500000000,image318.jpg,31872.4006130000
0.7058823705,-4.0000000000,5,50.8681041667,-0.0982526667,68.4000000000,-1.7500000000,6.8125000000,239.7500000000,image319.jpg,32009.3313420000
0.6745098233,-4.0000000000,5,50.8681045000,-0.0982526667,68.5000000000,-0.5625000000,6.0000000000,239.4375000000,image320.jpg,32073.7631130000
0.6901960969,-2.0000000000,5,50.8681048333,-0.0982533333,68.5000000000,1.8750000000,4.1875000000,237.4375000000,image321.jpg,32207.4361330000
0.7137255073,-2.0000000000,5,50.8681053333,-0.0982541667,68.5000000000,0.6875000000,4.5625000000,237.1250000000,image322.jpg,32272.4050920000
0.7137255073,0.0000000000,5,50.8681060000,-0.0982546667,68.5000000000,4.3125000000,5.4375000000,235.3750000000,image323.jpg,32407.5304560000
0.6745098233,2.0000000000,5,50.8681061667,-0.0982555000,68.5000000000,2.5625000000,4.0625000000,235.8750000000,image324.jpg,32472.1726960000
0.7137255073,0.0000000000,5,50.8681065000,-0.0982558333,68.5000000000,-0.5625000000,2.7500000000,236.6875000000,image325.jpg,32608.5091020000
0.7137255073,0.0000000000,5,50.8681070000,-0.0982563333,68.5000000000,0.3750000000,3.8750000000,236.8125000000,image326.jpg,32672.5889460000
0.6745098233,3.0000000000,5,50.8681073333,-0.0982570000,68.5000000000,3.8125000000,5.6250000000,236.7500000000,image327.jpg,32808.8143100000
0.7137255073,6.0000000000,5,50.8681075000,-0.0982576667,68.4000000000,4.6250000000,4.4375000000,236.4375000000,image328.jpg,32870.7306120000
0.7137255073,15.0000000000,5,50.8681081667,-0.0982581667,68.4000000000,4.1250000000,3.0000000000,235.5625000000,image329.jpg,33009.8444140000
0.7137255073,16.0000000000,5,50.8681085000,-0.0982586667,68.5000000000,5.0625000000,3.9375000000,235.7500000000,image330.jpg,33071.5907680000
0.7137255073,16.0000000000,5,50.8681088333,-0.0982593333,68.5000000000,3.6250000000,3.6250000000,236.3750000000,image331.jpg,33210.5550390000
0.6823529601,13.0000000000,5,50.8681091667,-0.0982598333,68.5000000000,5.7500000000,3.2500000000,237.3750000000,image332.jpg,33276.6154560000
0.7215686440,12.0000000000,5,50.8681095000,-0.0982606667,68.5000000000,6.7500000000,1.2500000000,239.0000000000,image333.jpg,33413.0168100000
0.7215686440,12.0000000000,5,50.8681100000,-0.0982618333,68.5000000000,6.7500000000,1.0625000000,239.3750000000,image334.jpg,33475.6155600000
0.7215686440,12.0000000000,5,50.8681105000,-0.0982626667,68.5000000000,4.6875000000,3.6250000000,241.6250000000,image335.jpg,33610.5485290000
0.7137255073,13.0000000000,5,50.8681111667,-0.0982626667,68.5000000000,6.1875000000,3.3750000000,242.5000000000,image336.jpg,33677.0897790000
0.7215686440,13.0000000000,5,50.8681113333,-0.0982631667,68.5000000000,6.2500000000,3.6250000000,243.0625000000,image337.jpg,33808.8040490000
0.7137255073,12.0000000000,5,50.8681116667,-0.0982640000,68.4000000000,7.8750000000,4.1250000000,243.0000000000,image338.jpg,33877.3059240000
0.6666666865,11.0000000000,5,50.8681123333,-0.0982646667,68.4000000000,5.7500000000,4.3750000000,243.5625000000,image339.jpg,34010.3031120000
0.7137255073,10.0000000000,5,50.8681125000,-0.0982648333,68.4000000000,5.1250000000,5.4375000000,243.6875000000,image340.jpg,34076.6988410000
0.7215686440,10.0000000000,5,50.8681131667,-0.0982655000,68.4000000000,4.5625000000,2.6250000000,244.5625000000,image341.jpg,34207.5085810000
0.7215686440,10.0000000000,2,50.8681135000,-0.0982655000,68.4000000000,3.2500000000,2.7500000000,244.8125000000,image342.jpg,34277.6581120000
0.7372549176,10.0000000000,2,50.8681138333,-0.0982658333,68.4000000000,2.3125000000,3.3125000000,246.5625000000,image343.jpg,34410.0512890000
0.6745098233,8.0000000000,5,50.8681140000,-0.0982661667,68.4000000000,3.8750000000,2.5625000000,247.5625000000,image344.jpg,34478.8819140000
0.7372549176,8.0000000000,5,50.8681145000,-0.0982665000,68.4000000000,6.2500000000,3.1875000000,247.5000000000,image345.jpg,34610.3272260000
0.7294117808,7.0000000000,2,50.8681150000,-0.0982670000,68.4000000000,6.5625000000,3.5000000000,248.7500000000,image346.jpg,34679.7287370000
0.7294117808,12.0000000000,2,50.8681153333,-0.0982678333,68.4000000000,4.8750000000,2.7500000000,249.1250000000,image347.jpg,34809.7531640000
0.7294117808,15.0000000000,2,50.8681156667,-0.0982681667,68.4000000000,4.2500000000,1.6250000000,249.4375000000,image348.jpg,34879.3488930000
0.7450980544,16.0000000000,2,50.8681165000,-0.0982685000,68.4000000000,1.3125000000,2.0625000000,250.3750000000,image349.jpg,35009.9118090000
0.7372549176,16.0000000000,2,50.8681171667,-0.0982690000,68.4000000000,4.0625000000,2.5000000000,252.3750000000,image350.jpg,35080.1759240000
0.6823529601,17.0000000000,2,50.8681175000,-0.0982686667,68.4000000000,5.0625000000,2.0000000000,252.8750000000,image351.jpg,35209.1700380000
0.7294117808,16.0000000000,2,50.8681180000,-0.0982690000,68.4000000000,5.5000000000,2.1250000000,253.5000000000,image352.jpg,35277.4865490000
0.7372549176,17.0000000000,2,50.8681183333,-0.0982691667,68.4000000000,6.5625000000,2.8750000000,255.0000000000,image353.jpg,35408.5013400000
0.7372549176,19.0000000000,5,50.8681190000,-0.0982695000,68.4000000000,5.4375000000,3.0625000000,255.6875000000,image354.jpg,35475.7799340000
0.7450980544,18.0000000000,5,50.8681193333,-0.0982696667,68.4000000000,-0.2500000000,1.5000000000,257.7500000000,image355.jpg,35608.2589970000
0.6431372762,18.0000000000,2,50.8681196667,-0.0982695000,68.4000000000,1.2500000000,1.9375000000,259.4375000000,image356.jpg,35678.0904550000
0.7372549176,16.0000000000,2,50.8681201667,-0.0982696667,68.4000000000,3.1875000000,2.7500000000,261.6875000000,image357.jpg,35813.5707150000
0.7372549176,12.0000000000,2,50.8681206667,-0.0982700000,68.4000000000,3.1250000000,3.0000000000,261.7500000000,image358.jpg,35874.3780070000
0.6980392337,-9.0000000000,2,50.8681221667,-0.0982701667,68.4000000000,2.7500000000,4.2500000000,262.1250000000,image359.jpg,36644.7611840000
0.7294117808,-8.0000000000,5,50.8681238333,-0.0982726667,68.5000000000,3.6875000000,2.3750000000,260.5000000000,image360.jpg,36744.3736840000
0.7372549176,-8.0000000000,5,50.8681243333,-0.0982733333,68.5000000000,5.2500000000,2.5625000000,260.5000000000,image361.jpg,36813.2376940000
0.7372549176,-13.0000000000,5,50.8681251667,-0.0982745000,68.5000000000,2.1250000000,2.3125000000,258.8125000000,image362.jpg,36944.3244650000
0.7372549176,-14.0000000000,nan,nan,nan,nan,2.3125000000,1.5000000000,258.6250000000,image363.jpg,37011.9319650000
0.7372549176,-13.0000000000,5,50.8681258333,-0.0982746667,68.5000000000,2.6250000000,2.0625000000,256.6250000000,image364.jpg,37079.8284230000
0.7058823705,-10.0000000000,5,50.8681263333,-0.0982755000,68.5000000000,0.0625000000,2.1250000000,255.8125000000,image365.jpg,37212.5207150000
0.7372549176,-7.0000000000,5,50.8681268333,-0.0982756667,68.5000000000,-0.3750000000,3.5000000000,254.1875000000,image366.jpg,37279.3900900000
0.7372549176,0.0000000000,2,50.8681270000,-0.0982756667,68.5000000000,-0.6250000000,2.5000000000,253.0625000000,image367.jpg,37412.3140480000
0.6980392337,1.0000000000,5,50.8681273333,-0.0982760000,68.5000000000,-0.1875000000,3.3750000000,252.5625000000,image368.jpg,37479.5084750000
0.6980392337,3.0000000000,5,50.8681280000,-0.0982765000,68.5000000000,2.5625000000,2.8750000000,253.1250000000,image369.jpg,37614.6688400000
0.6823529601,0.0000000000,2,50.8681283333,-0.0982770000,68.5000000000,0.9375000000,2.0625000000,252.3750000000,image370.jpg,37679.6138920000
0.7215686440,0.0000000000,2,50.8681288333,-0.0982771667,68.5000000000,-2.6875000000,2.5625000000,252.3125000000,image371.jpg,37811.2443080000
0.7058823705,2.0000000000,2,50.8681295000,-0.0982773333,68.5000000000,-1.8750000000,3.2500000000,252.1875000000,image372.jpg,37879.5291000000
0.6980392337,0.0000000000,2,50.8681298333,-0.0982780000,68.5000000000,0.0625000000,4.5000000000,252.8750000000,image373.jpg,38013.9669640000
0.6588235497,2.0000000000,2,50.8681300000,-0.0982783333,68.5000000000,1.1875000000,4.7500000000,252.8750000000,image374.jpg,38080.8699330000
0.6980392337,0.0000000000,2,50.8681301667,-0.0982786667,68.5000000000,-1.3750000000,2.8750000000,252.6875000000,image375.jpg,38211.9202980000
0.6980392337,0.0000000000,2,50.8681310000,-0.0982790000,68.5000000000,-3.1250000000,2.6875000000,252.9375000000,image376.jpg,38279.7576410000
0.6588235497,0.0000000000,2,50.8681315000,-0.0982788333,68.6000000000,-0.4375000000,3.0000000000,253.0000000000,image377.jpg,38412.0318080000
0.6980392337,0.0000000000,5,50.8681318333,-0.0982795000,68.6000000000,0.6250000000,3.0000000000,253.1250000000,image378.jpg,38480.0374330000
0.6980392337,6.0000000000,5,50.8681321667,-0.0982800000,68.6000000000,0.0625000000,2.0000000000,253.5000000000,image379.jpg,38612.2365480000
0.6588235497,8.0000000000,5,50.8681328333,-0.0982803333,68.6000000000,-0.5625000000,0.2500000000,253.7500000000,image380.jpg,38680.1502980000
0.6980392337,16.0000000000,5,50.8681333333,-0.0982805000,68.6000000000,-1.9375000000,1.6250000000,253.1875000000,image381.jpg,38813.2683180000
0.6745098233,14.0000000000,2,50.8681336667,-0.0982806667,68.6000000000,-3.9375000000,3.8125000000,253.5625000000,image382.jpg,38879.2588390000
0.6980392337,15.0000000000,2,50.8681340000,-0.0982806667,68.6000000000,-2.1875000000,3.7500000000,255.2500000000,image383.jpg,39012.0010790000
0.6980392337,17.0000000000,2,50.8681343333,-0.0982811667,68.6000000000,0.4375000000,3.7500000000,256.3125000000,image384.jpg,39079.6460270000
0.6980392337,15.0000000000,2,50.8681346667,-0.0982815000,68.7000000000,-0.3750000000,3.6875000000,256.8125000000,image385.jpg,39211.7141520000
0.6980392337,14.0000000000,2,50.8681353333,-0.0982816667,68.7000000000,-2.6875000000,4.1250000000,257.6250000000,image386.jpg,39280.4642560000
0.6823529601,10.0000000000,2,50.8681358333,-0.0982813333,68.7000000000,-3.5000000000,2.4375000000,258.3750000000,image387.jpg,39411.0891510000
0.6980392337,9.0000000000,2,50.8681361667,-0.0982816667,68.7000000000,-2.0625000000,2.8750000000,259.4375000000,image388.jpg,39480.1184740000
0.6274510026,7.0000000000,2,50.8681363333,-0.0982818333,68.7000000000,-2.8125000000,3.4375000000,259.7500000000,image389.jpg,39611.0023810000
0.6745098233,7.0000000000,2,50.8681370000,-0.0982823333,68.7000000000,-3.3750000000,3.0000000000,260.3750000000,image390.jpg,39681.0171720000
0.6823529601,5.0000000000,2,50.8681373333,-0.0982825000,68.7000000000,-6.0000000000,3.3125000000,260.8750000000,image391.jpg,39817.7060780000
0.6039215922,4.0000000000,2,50.8681378333,-0.0982825000,68.7000000000,-7.6250000000,2.7500000000,261.2500000000,image392.jpg,39881.2509220000
0.7137255073,5.0000000000,2,50.8681383333,-0.0982821667,68.7000000000,-2.4375000000,4.1875000000,262.5000000000,image393.jpg,40016.0879010000
0.6509804130,3.0000000000,2,50.8681388333,-0.0982825000,68.7000000000,-0.5625000000,4.6875000000,261.6875000000,image394.jpg,40081.0395680000
0.6901960969,4.0000000000,2,50.8681390000,-0.0982831667,68.7000000000,-1.3750000000,3.5625000000,262.5000000000,image395.jpg,40215.2462340000
0.6980392337,5.0000000000,2,50.8681396667,-0.0982833333,68.7000000000,-0.5000000000,4.0000000000,262.2500000000,image396.jpg,40281.3568590000
0.6901960969,1.0000000000,2,50.8681398333,-0.0982835000,68.7000000000,-6.1250000000,6.3125000000,261.9375000000,image397.jpg,40415.9774840000
0.6980392337,1.0000000000,5,50.8681405000,-0.0982833333,68.8000000000,-7.3750000000,7.4375000000,262.1250000000,image398.jpg,40480.8292030000
0.6901960969,-3.0000000000,5,50.8681408333,-0.0982831667,68.8000000000,-5.2500000000,6.1250000000,262.6250000000,image399.jpg,40616.4588390000
0.6980392337,-9.0000000000,5,50.8681411667,-0.0982831667,68.8000000000,-2.0625000000,6.1875000000,262.6250000000,image400.jpg,40680.6375360000
0.6431372762,-13.0000000000,2,50.8681418333,-0.0982836667,68.8000000000,-0.3125000000,5.8125000000,262.6250000000,image401.jpg,40816.5874840000
0.6901960969,-14.0000000000,2,50.8681420000,-0.0982841667,68.8000000000,-1.4375000000,5.6875000000,262.1250000000,image402.jpg,40879.8688900000
0.6901960969,-11.0000000000,2,50.8681431667,-0.0982841667,68.8000000000,-3.6250000000,5.8125000000,260.3125000000,image403.jpg,41022.3406610000
0.6352941394,-9.0000000000,nan,nan,nan,nan,-4.6250000000,4.8750000000,259.0625000000,image404.jpg,41084.6350880000
0.6980392337,-8.0000000000,2,50.8681436667,-0.0982843333,68.8000000000,-5.8750000000,3.3125000000,257.8750000000,image405.jpg,41146.7114420000
0.6352941394,-5.0000000000,2,50.8681440000,-0.0982841667,68.9000000000,-5.0000000000,3.6875000000,257.0625000000,image406.jpg,41284.2824320000
0.6823529601,0.0000000000,2,50.8681443333,-0.0982846667,68.9000000000,-2.6875000000,5.6875000000,256.9375000000,image407.jpg,41346.9151920000
0.6823529601,1.0000000000,5,50.8681448333,-0.0982855000,68.8000000000,-0.9375000000,4.2500000000,254.8125000000,image408.jpg,41485.0477440000
0.6352941394,1.0000000000,5,50.8681453333,-0.0982858333,68.9000000000,-1.1250000000,3.6875000000,254.5000000000,image409.jpg,41546.7321190000
0.6980392337,0.0000000000,5,50.8681458333,-0.0982863333,68.8000000000,-1.0625000000,5.3750000000,254.0625000000,image410.jpg,41685.5434210000
0.6823529601,0.0000000000,5,50.8681461667,-0.0982868333,68.8000000000,-0.6875000000,5.8125000000,253.9375000000,image411.jpg,41746.7964420000
0.6980392337,-4.0000000000,5,50.8681465000,-0.0982873333,68.9000000000,-3.1250000000,6.9375000000,252.6875000000,image412.jpg,41885.2749840000
0.6980392337,-6.0000000000,5,50.8681466667,-0.0982875000,68.9000000000,-5.5625000000,6.5000000000,253.2500000000,image413.jpg,41946.9781610000
0.6980392337,-6.0000000000,5,50.8681475000,-0.0982875000,68.9000000000,-4.0625000000,6.1250000000,253.3750000000,image414.jpg,42084.6089940000
0.6980392337,-5.0000000000,5,50.8681480000,-0.0982880000,68.9000000000,-2.7500000000,6.8750000000,253.0000000000,image415.jpg,42147.4989940000
0.6196078658,-6.0000000000,5,50.8681481667,-0.0982885000,68.9000000000,-1.3750000000,4.8125000000,252.3750000000,image416.jpg,42285.2990980000
0.7058823705,-7.0000000000,5,50.8681485000,-0.0982891667,68.9000000000,-1.8750000000,5.0000000000,251.5000000000,image417.jpg,42348.0725880000
0.6039215922,-6.0000000000,5,50.8681491667,-0.0982895000,68.9000000000,-1.5625000000,3.5625000000,250.9375000000,image418.jpg,42484.6570670000
0.6823529601,35.0000000000,5,50.8681496667,-0.0982896667,68.9000000000,-2.5000000000,3.3125000000,250.0000000000,image419.jpg,42550.7404520000
0.7137255073,-11.0000000000,5,50.8681503333,-0.0982898333,68.9000000000,-3.6250000000,2.8750000000,249.1875000000,image420.jpg,42685.2061810000
0.7058823705,-11.0000000000,5,50.8681506667,-0.0982901667,68.9000000000,-3.8750000000,2.4375000000,249.5000000000,image421.jpg,42751.0339420000
0.7058823705,-10.0000000000,5,50.8681511667,-0.0982905000,68.9000000000,-2.5625000000,4.0000000000,248.8750000000,image422.jpg,42886.0927960000
0.7058823705,-9.0000000000,5,50.8681516667,-0.0982906667,68.9000000000,-0.5625000000,5.0625000000,248.0000000000,image423.jpg,42951.5362330000
