gps quality,lat,lon,altitude,roll,pitch,yaw,image name,timestamp
4,50.8634281667,-0.0939290000,56.7000000000,8.0000000000,-2.9375000000,359.9375000000,image0.jpg,3.4627810000
4,50.8634281667,-0.0939290000,56.7000000000,8.0000000000,-2.9375000000,359.9375000000,image1.jpg,202.7259620000
4,50.8634281667,-0.0939291667,56.7000000000,8.0000000000,-2.9375000000,359.9375000000,image2.jpg,402.8160480000
4,50.8634281667,-0.0939290000,56.7000000000,8.0000000000,-2.9375000000,359.9375000000,image3.jpg,602.7584200000
4,50.8634281667,-0.0939290000,56.7000000000,8.0000000000,-2.9375000000,359.9375000000,image4.jpg,801.8048220000
4,50.8634280000,-0.0939290000,56.7000000000,8.0000000000,-2.9375000000,359.9375000000,image5.jpg,1001.8751680000
4,50.8634281667,-0.0939290000,56.7000000000,8.0000000000,-2.9375000000,359.9375000000,image6.jpg,1202.0739550000
4,50.8634280000,-0.0939290000,56.7000000000,8.0000000000,-2.9375000000,359.9375000000,image7.jpg,1402.8151060000
4,50.8634281667,-0.0939290000,56.7000000000,8.0000000000,-2.9375000000,359.9375000000,image8.jpg,1603.2718200000
4,50.8634281667,-0.0939290000,56.7000000000,8.0000000000,-2.9375000000,359.9375000000,image9.jpg,1803.1213240000
4,50.8634281667,-0.0939290000,56.7000000000,8.0000000000,-2.9375000000,359.9375000000,image10.jpg,2003.1851590000
4,50.8634280000,-0.0939290000,56.7000000000,8.0000000000,-2.9375000000,359.9375000000,image11.jpg,2202.4096920000
4,50.8634280000,-0.0939290000,56.7000000000,8.0000000000,-2.9375000000,359.9375000000,image12.jpg,2402.6448870000
4,50.8634281667,-0.0939290000,56.7000000000,8.0000000000,-2.9375000000,359.9375000000,image13.jpg,2602.7121600000
4,50.8634281667,-0.0939290000,56.7000000000,8.0000000000,-2.9375000000,359.9375000000,image14.jpg,2803.3189830000
4,50.8634281667,-0.0939290000,56.7000000000,8.0000000000,-2.8750000000,0.0625000000,image15.jpg,3003.9304940000
4,50.8634281667,-0.0939290000,56.7000000000,7.7500000000,-2.6875000000,0.5000000000,image16.jpg,3203.0218460000
4,50.8634281667,-0.0939290000,56.7000000000,7.5000000000,-1.9375000000,0.6875000000,image17.jpg,3403.0503670000
4,50.8634285000,-0.0939295000,56.7000000000,8.2500000000,-1.6250000000,1.0000000000,image18.jpg,3603.0573240000
4,50.8634290000,-0.0939301667,56.7000000000,9.1250000000,-1.7500000000,0.8750000000,image19.jpg,3803.1202220000
4,50.8634295000,-0.0939306667,56.7000000000,10.8125000000,-1.3125000000,0.9375000000,image20.jpg,4003.2211930000
4,50.8634300000,-0.0939313333,56.7000000000,9.1250000000,-1.4375000000,0.9375000000,image21.jpg,4203.4955560000
4,50.8634306667,-0.0939321667,56.7000000000,9.6250000000,-2.2500000000,0.1875000000,image22.jpg,4403.3643320000
4,50.8634311667,-0.0939328333,56.7000000000,10.6250000000,-1.5625000000,359.6875000000,image23.jpg,4603.4356670000
4,50.8634316667,-0.0939335000,56.7000000000,9.7500000000,-2.0000000000,359.8750000000,image24.jpg,4803.6229960000
4,50.8634323333,-0.0939341667,56.7000000000,10.5625000000,-2.3750000000,359.6250000000,image25.jpg,5003.6214640000
4,50.8634330000,-0.0939348333,56.7000000000,8.8750000000,-2.0625000000,359.4375000000,image26.jpg,5203.6727460000
4,50.8634335000,-0.0939355000,56.7000000000,11.0625000000,-2.4375000000,0.0000000000,image27.jpg,5403.7900200000
4,50.8634343333,-0.0939365000,56.7000000000,10.6875000000,-2.5000000000,0.8750000000,image28.jpg,5603.8000510000
4,50.8634350000,-0.0939371667,56.7000000000,10.9375000000,-2.5625000000,2.3750000000,image29.jpg,5804.8056390000
4,50.8634356667,-0.0939378333,56.7000000000,10.5625000000,-1.9375000000,3.5625000000,image30.jpg,6005.1595360000
4,50.8634363333,-0.0939386667,56.7000000000,11.0625000000,-2.1875000000,4.4375000000,image31.jpg,6205.2155580000
4,50.8634371667,-0.0939395000,56.7000000000,11.1875000000,-1.7500000000,6.3750000000,image32.jpg,6405.2372040000
4,50.8634378333,-0.0939400000,56.7000000000,10.6875000000,-1.1875000000,7.9375000000,image33.jpg,6604.8972740000
4,50.8634386667,-0.0939406667,56.7000000000,10.3750000000,-1.4375000000,9.1250000000,image34.jpg,6804.3280130000
4,50.8634393333,-0.0939413333,56.7000000000,9.1250000000,-1.3750000000,9.3125000000,image35.jpg,7004.4214840000
4,50.8634401667,-0.0939418333,56.7000000000,10.8750000000,0.3750000000,9.2500000000,image36.jpg,7204.8071020000
4,50.8634408333,-0.0939425000,56.7000000000,10.8125000000,-0.7500000000,8.8750000000,image37.jpg,7405.5507530000
4,50.8634415000,-0.0939433333,56.7000000000,10.3125000000,-0.1250000000,9.2500000000,image38.jpg,7605.6592240000
4,50.8634425000,-0.0939440000,56.7000000000,10.7500000000,-1.0625000000,9.9375000000,image39.jpg,7805.7559770000
4,50.8634431667,-0.0939448333,56.7000000000,10.4375000000,0.0000000000,9.5625000000,image40.jpg,8005.8350210000
4,50.8634441667,-0.0939455000,56.7000000000,11.8125000000,-1.6250000000,9.3125000000,image41.jpg,8204.8073060000
4,50.8634450000,-0.0939463333,56.7000000000,10.8750000000,-1.4375000000,9.1250000000,image42.jpg,8404.9098920000
4,50.8634458333,-0.0939470000,56.7000000000,11.1250000000,-1.5000000000,9.4375000000,image43.jpg,8605.2174330000
4,50.8634466667,-0.0939478333,56.7000000000,11.1875000000,-0.7500000000,10.7500000000,image44.jpg,8805.9800430000
4,50.8634476667,-0.0939485000,56.7000000000,10.5000000000,-1.5625000000,12.7500000000,image45.jpg,9006.0933070000
4,50.8634486667,-0.0939490000,56.7000000000,10.5000000000,-0.2500000000,14.5625000000,image46.jpg,9206.2130290000
4,50.8634495000,-0.0939496667,56.7000000000,10.5625000000,-0.7500000000,15.5000000000,image47.jpg,9406.2528530000
4,50.8634505000,-0.0939500000,56.7000000000,8.3125000000,0.2500000000,16.4375000000,image48.jpg,9605.3677470000
4,50.8634515000,-0.0939506667,56.7000000000,10.0000000000,-0.6250000000,17.2500000000,image49.jpg,9805.4393430000
4,50.8634525000,-0.0939513333,56.7000000000,9.5625000000,-0.0625000000,18.9375000000,image50.jpg,10005.4996360000
4,50.8634536667,-0.0939516667,56.7000000000,6.6250000000,-1.7500000000,21.0625000000,image51.jpg,10206.1688050000
4,50.8634546667,-0.0939518333,56.8000000000,7.5625000000,-1.1250000000,23.2500000000,image52.jpg,10405.5605320000
4,50.8634556667,-0.0939523333,56.8000000000,9.0625000000,-1.7500000000,24.1875000000,image53.jpg,10605.6725980000
4,50.8634566667,-0.0939526667,56.8000000000,8.3125000000,-0.3750000000,25.6875000000,image54.jpg,10805.7048690000
4,50.8634578333,-0.0939528333,56.8000000000,5.7500000000,0.0625000000,27.7500000000,image55.jpg,11005.7340150000
4,50.8634586667,-0.0939530000,56.8000000000,7.9375000000,0.0625000000,29.5000000000,image56.jpg,11205.8342570000
4,50.8634596667,-0.0939533333,56.8000000000,7.2500000000,-1.0625000000,30.0625000000,image57.jpg,11405.8687680000
4,50.8634608333,-0.0939533333,56.8000000000,6.3125000000,-0.8750000000,30.3750000000,image58.jpg,11606.1220370000
4,50.8634620000,-0.0939535000,56.8000000000,7.2500000000,-1.3125000000,31.4375000000,image59.jpg,11806.0514920000
4,50.8634631667,-0.0939536667,56.8000000000,5.1250000000,-1.0000000000,31.9375000000,image60.jpg,12006.0861590000
4,50.8634641667,-0.0939538333,56.8000000000,5.6875000000,-2.0000000000,30.8750000000,image61.jpg,12206.1817660000
4,50.8634653333,-0.0939540000,56.8000000000,4.8750000000,-1.2500000000,29.3125000000,image62.jpg,12406.2336210000
4,50.8634665000,-0.0939541667,56.8000000000,3.9375000000,-2.3125000000,28.0625000000,image63.jpg,12606.2628710000
4,50.8634675000,-0.0939543333,56.8000000000,4.1250000000,-1.6250000000,27.4375000000,image64.jpg,12806.3883750000
4,50.8634686667,-0.0939548333,56.8000000000,5.6250000000,-1.1875000000,25.6250000000,image65.jpg,13006.8446190000
4,50.8634696667,-0.0939551667,56.8000000000,4.0625000000,-0.4375000000,24.1250000000,image66.jpg,13207.6358240000
4,50.8634706667,-0.0939553333,56.8000000000,4.6250000000,-0.6875000000,23.6250000000,image67.jpg,13407.4895990000
4,50.8634716667,-0.0939560000,56.8000000000,4.6875000000,-2.0000000000,24.1250000000,image68.jpg,13607.5755180000
4,50.8634728333,-0.0939561667,56.8000000000,4.6250000000,-1.5625000000,24.3750000000,image69.jpg,13807.6528950000
4,50.8634740000,-0.0939565000,56.8000000000,4.5000000000,-1.8125000000,23.0625000000,image70.jpg,14006.7952910000
4,50.8634751667,-0.0939570000,56.8000000000,4.2500000000,-1.3750000000,22.6875000000,image71.jpg,14206.9123040000
4,50.8634761667,-0.0939573333,56.8000000000,3.1875000000,-1.7500000000,21.7500000000,image72.jpg,14406.9896810000
4,50.8634773333,-0.0939578333,56.8000000000,3.3750000000,-1.6875000000,22.1250000000,image73.jpg,14607.7778650000
4,50.8634785000,-0.0939581667,56.8000000000,3.4375000000,-2.4375000000,21.3750000000,image74.jpg,14808.0413950000
4,50.8634795000,-0.0939588333,56.8000000000,4.4375000000,-0.9375000000,20.0625000000,image75.jpg,15008.0653840000
4,50.8634805000,-0.0939591667,56.8000000000,4.5000000000,-0.8125000000,19.1875000000,image76.jpg,15208.2033880000
4,50.8634815000,-0.0939596667,56.8000000000,4.9375000000,-0.3125000000,19.2500000000,image77.jpg,15407.3993270000
4,50.8634826667,-0.0939605000,56.8000000000,6.6250000000,-1.0625000000,19.0000000000,image78.jpg,15607.3330010000
4,50.8634838333,-0.0939610000,56.8000000000,6.1875000000,-0.5625000000,18.5000000000,image79.jpg,15807.4255870000
4,50.8634850000,-0.0939615000,56.8000000000,6.0625000000,-1.1250000000,16.9375000000,image80.jpg,16007.9651680000
4,50.8634861667,-0.0939621667,56.8000000000,5.6250000000,-1.5000000000,15.1875000000,image81.jpg,16208.4948530000
4,50.8634873333,-0.0939630000,56.8000000000,6.6250000000,-1.8125000000,13.8750000000,image82.jpg,16408.5587920000
4,50.8634885000,-0.0939636667,56.8000000000,4.3125000000,-2.0625000000,13.5625000000,image83.jpg,16608.6079390000
4,50.8634896667,-0.0939643333,56.8000000000,5.1250000000,-1.1875000000,11.5625000000,image84.jpg,16808.2270180000
4,50.8634906667,-0.0939655000,56.8000000000,6.5625000000,-2.3750000000,10.3125000000,image85.jpg,17007.8060960000
4,50.8634920000,-0.0939660000,56.8000000000,6.0000000000,-2.0000000000,10.4375000000,image86.jpg,17207.9132130000
4,50.8634928333,-0.0939668333,56.8000000000,5.9375000000,-1.4375000000,11.3125000000,image87.jpg,17408.4409190000
4,50.8634940000,-0.0939678333,56.8000000000,7.0625000000,-0.5000000000,11.1875000000,image88.jpg,17608.0430180000
4,50.8634951667,-0.0939686667,56.8000000000,7.2500000000,-0.9375000000,11.8750000000,image89.jpg,17808.0903420000
4,50.8634963333,-0.0939693333,56.8000000000,4.8750000000,-1.6250000000,12.8125000000,image90.jpg,18008.1442290000
4,50.8634975000,-0.0939701667,56.8000000000,5.6250000000,-1.2500000000,12.3750000000,image91.jpg,18208.2445230000
4,50.8634985000,-0.0939710000,56.8000000000,5.8125000000,-1.0000000000,12.6250000000,image92.jpg,18408.2580440000
4,50.8634996667,-0.0939716667,56.8000000000,6.5000000000,-0.2500000000,11.7500000000,image93.jpg,18608.3374000000
4,50.8635006667,-0.0939725000,56.8000000000,6.8125000000,-0.3125000000,11.3125000000,image94.jpg,18808.6441600000
4,50.8635016667,-0.0939731667,56.8000000000,7.1250000000,-0.1250000000,10.8125000000,image95.jpg,19008.4098070000
4,50.8635026667,-0.0939741667,56.8000000000,7.5625000000,0.5000000000,10.0625000000,image96.jpg,19208.5858330000
4,50.8635038333,-0.0939750000,56.8000000000,7.9375000000,-0.4375000000,10.4375000000,image97.jpg,19408.6194590000
4,50.8635048333,-0.0939758333,56.8000000000,8.1250000000,-0.9375000000,11.4375000000,image98.jpg,19608.7095440000
4,50.8635061667,-0.0939766667,56.8000000000,8.4375000000,-0.8750000000,12.1250000000,image99.jpg,19808.7663480000
4,50.8635071667,-0.0939775000,56.8000000000,7.7500000000,-1.0625000000,11.6250000000,image100.jpg,20008.8328910000
4,50.8635081667,-0.0939783333,56.8000000000,7.2500000000,0.5625000000,11.5000000000,image101.jpg,20209.3334600000
4,50.8635093333,-0.0939790000,56.8000000000,9.1250000000,0.7500000000,12.0625000000,image102.jpg,20410.0487770000
4,50.8635103333,-0.0939800000,56.8000000000,7.6250000000,0.8125000000,11.9375000000,image103.jpg,20610.0336510000
4,50.8635113333,-0.0939806667,56.8000000000,9.1875000000,0.3125000000,12.0625000000,image104.jpg,20810.1317050000
4,50.8635125000,-0.0939816667,56.8000000000,9.7500000000,-0.3125000000,11.6250000000,image105.jpg,21010.1238190000
4,50.8635136667,-0.0939823333,56.8000000000,8.3750000000,0.6875000000,12.1250000000,image106.jpg,21209.3047570000
4,50.8635146667,-0.0939831667,56.8000000000,8.1250000000,0.6875000000,11.8750000000,image107.jpg,21409.3982800000
4,50.8635160000,-0.0939841667,56.8000000000,9.0000000000,-1.0000000000,11.4375000000,image108.jpg,21609.5013350000
4,50.8635171667,-0.0939850000,56.8000000000,8.1875000000,-2.2500000000,11.1250000000,image109.jpg,21810.2144120000
4,50.8635183333,-0.0939860000,56.8000000000,8.0000000000,-1.7500000000,11.0625000000,image110.jpg,22010.5983630000
4,50.8635195000,-0.0939870000,56.8000000000,8.0625000000,-1.5625000000,11.0625000000,image111.jpg,22210.7453260000
4,50.8635206667,-0.0939878333,56.8000000000,7.8125000000,-1.2500000000,10.4375000000,image112.jpg,22410.7791070000
4,50.8635218333,-0.0939886667,56.8000000000,9.0625000000,-2.6250000000,8.1875000000,image113.jpg,22610.4695430000
4,50.8635230000,-0.0939898333,56.8000000000,8.3125000000,-2.5000000000,6.5625000000,image114.jpg,22809.9840350000
4,50.8635243333,-0.0939908333,56.9000000000,8.0000000000,-2.3125000000,5.1875000000,image115.jpg,23010.0234420000
4,50.8635253333,-0.0939920000,56.9000000000,7.7500000000,-1.9375000000,5.1875000000,image116.jpg,23210.6428180000
4,50.8635265000,-0.0939931667,56.9000000000,8.3125000000,-1.1250000000,5.8750000000,image117.jpg,23411.1964100000
4,50.8635275000,-0.0939941667,56.9000000000,7.3750000000,-1.6875000000,6.0625000000,image118.jpg,23611.2203990000
4,50.8635286667,-0.0939953333,56.9000000000,7.0625000000,-1.6250000000,6.4375000000,image119.jpg,23811.2971510000
4,50.8635298333,-0.0939961667,56.9000000000,6.3750000000,-0.6875000000,6.1250000000,image120.jpg,24011.1980120000
4,50.8635310000,-0.0939973333,56.9000000000,7.3750000000,-0.6250000000,5.4375000000,image121.jpg,24210.4946830000
4,50.8635321667,-0.0939983333,56.9000000000,6.7500000000,-1.9375000000,5.4375000000,image122.jpg,24410.5404970000
4,50.8635331667,-0.0939996667,56.9000000000,6.5000000000,-1.3125000000,5.1875000000,image123.jpg,24610.8687160000
4,50.8635343333,-0.0940008333,56.9000000000,6.5000000000,-0.5000000000,4.3750000000,image124.jpg,24810.7128550000
4,50.8635355000,-0.0940020000,56.9000000000,6.5000000000,-1.5625000000,3.7500000000,image125.jpg,25010.7301780000
4,50.8635365000,-0.0940031667,56.9000000000,7.2500000000,-2.6250000000,2.4375000000,image126.jpg,25210.8296390000
4,50.8635376667,-0.0940043333,56.9000000000,5.3125000000,-2.4375000000,0.0625000000,image127.jpg,25410.8763380000
4,50.8635386667,-0.0940056667,56.9000000000,6.3750000000,-2.7500000000,357.5000000000,image128.jpg,25610.9802780000
4,50.8635396667,-0.0940070000,56.9000000000,6.4375000000,-2.6875000000,353.5625000000,image129.jpg,25811.0251020000
4,50.8635406667,-0.0940083333,56.9000000000,5.9375000000,-3.3750000000,351.8750000000,image130.jpg,26011.2555570000
4,50.8635413333,-0.0940100000,56.9000000000,7.1250000000,-2.4375000000,350.5000000000,image131.jpg,26211.2073050000
4,50.8635421667,-0.0940115000,56.9000000000,7.3125000000,-2.3750000000,349.4375000000,image132.jpg,26411.1985850000
4,50.8635430000,-0.0940128333,56.9000000000,6.7500000000,-2.0000000000,349.6250000000,image133.jpg,26611.3099210000
4,50.8635436667,-0.0940141667,56.9000000000,7.3125000000,-2.7500000000,349.8750000000,image134.jpg,26811.3862570000
4,50.8635445000,-0.0940158333,56.9000000000,6.8125000000,-3.1250000000,348.8125000000,image135.jpg,27011.4059750000
4,50.8635453333,-0.0940171667,56.9000000000,6.5625000000,-2.7500000000,349.8750000000,image136.jpg,27211.5464270000
4,50.8635461667,-0.0940185000,56.9000000000,6.1875000000,-2.0625000000,350.5000000000,image137.jpg,27411.7542260000
4,50.8635470000,-0.0940201667,56.9000000000,6.9375000000,-1.4375000000,350.5625000000,image138.jpg,27612.5751190000
4,50.8635480000,-0.0940215000,56.9000000000,5.6250000000,0.1250000000,350.1250000000,image139.jpg,27812.6626010000
4,50.8635486667,-0.0940226667,56.9000000000,8.2500000000,-1.5000000000,349.8750000000,image140.jpg,28012.7306540000
4,50.8635495000,-0.0940241667,56.9000000000,6.6250000000,-1.5625000000,349.5625000000,image141.jpg,28212.8733460000
4,50.8635503333,-0.0940258333,56.9000000000,6.2500000000,-1.3125000000,348.8750000000,image142.jpg,28412.0495450000
4,50.8635511667,-0.0940271667,56.9000000000,8.5625000000,-1.1875000000,347.4375000000,image143.jpg,28611.9934790000
4,50.8635518333,-0.0940286667,56.9000000000,6.2500000000,-0.6250000000,346.5000000000,image144.jpg,28812.0666890000
4,50.8635525000,-0.0940301667,56.9000000000,7.8125000000,-0.8750000000,344.9375000000,image145.jpg,29012.6475220000
4,50.8635531667,-0.0940318333,56.9000000000,5.3750000000,-1.6875000000,343.7500000000,image146.jpg,29213.1768940000
4,50.8635540000,-0.0940333333,56.9000000000,8.4375000000,-0.5625000000,343.1250000000,image147.jpg,29413.1959360000
4,50.8635546667,-0.0940350000,56.9000000000,6.8125000000,-0.8125000000,344.3125000000,image148.jpg,29613.5031650000
4,50.8635555000,-0.0940365000,56.9000000000,6.7500000000,-2.2500000000,345.3750000000,image149.jpg,29812.8873920000
4,50.8635563333,-0.0940381667,56.9000000000,8.6875000000,-1.2500000000,345.5625000000,image150.jpg,30012.4595420000
4,50.8635570000,-0.0940396667,56.9000000000,6.3750000000,-0.5625000000,345.6250000000,image151.jpg,30212.5487950000
4,50.8635578333,-0.0940411667,56.9000000000,6.1250000000,-0.2500000000,345.1875000000,image152.jpg,30413.1575970000
4,50.8635585000,-0.0940426667,56.9000000000,5.1250000000,-1.0625000000,344.7500000000,image153.jpg,30613.6098310000
4,50.8635593333,-0.0940441667,56.9000000000,6.3750000000,-1.5000000000,344.3750000000,image154.jpg,30813.6460090000
4,50.8635601667,-0.0940458333,56.9000000000,4.9375000000,-1.1875000000,343.3125000000,image155.jpg,31013.6874990000
4,50.8635608333,-0.0940473333,56.9000000000,5.8125000000,-1.1250000000,342.6875000000,image156.jpg,31213.8224820000
4,50.8635615000,-0.0940490000,56.9000000000,4.6875000000,-2.8750000000,342.6250000000,image157.jpg,31412.8941980000
4,50.8635623333,-0.0940506667,56.9000000000,3.5625000000,-2.3750000000,342.7500000000,image158.jpg,31612.9690230000
4,50.8635631667,-0.0940521667,56.9000000000,2.9375000000,-3.0625000000,341.7500000000,image159.jpg,31813.3290660000
4,50.8635638333,-0.0940536667,56.9000000000,5.1250000000,-0.4375000000,341.5625000000,image160.jpg,32013.7428090000
4,50.8635643333,-0.0940555000,56.9000000000,3.1875000000,-1.1875000000,340.8750000000,image161.jpg,32213.1975600000
4,50.8635653333,-0.0940571667,56.9000000000,3.7500000000,-1.1875000000,340.8750000000,image162.jpg,32413.2454560000
4,50.8635658333,-0.0940590000,56.9000000000,5.8750000000,-1.1875000000,340.5000000000,image163.jpg,32613.5008610000
4,50.8635666667,-0.0940603333,56.9000000000,3.0000000000,-1.3125000000,340.3125000000,image164.jpg,32813.3611990000
4,50.8635673333,-0.0940621667,56.9000000000,5.3750000000,-2.1250000000,339.6250000000,image165.jpg,33013.3558640000
4,50.8635680000,-0.0940640000,56.9000000000,2.7500000000,-1.7500000000,338.6250000000,image166.jpg,33213.4936600000
4,50.8635690000,-0.0940666667,56.9000000000,5.3125000000,-2.1875000000,338.5000000000,image167.jpg,33413.5547860000
4,50.8635693333,-0.0940675000,57.0000000000,5.0625000000,-2.7500000000,338.6875000000,image168.jpg,33613.5509100000
4,50.8635701667,-0.0940693333,57.0000000000,4.3125000000,-1.5625000000,339.6875000000,image169.jpg,33813.7128220000
4,50.8635708333,-0.0940711667,57.0000000000,5.1250000000,-1.4375000000,340.5625000000,image170.jpg,34013.7461340000
4,50.8635715000,-0.0940728333,57.0000000000,5.4375000000,-1.9375000000,341.2500000000,image171.jpg,34213.7484050000
4,50.8635726667,-0.0940755000,57.0000000000,6.6250000000,-1.5625000000,342.1250000000,image172.jpg,34414.0167260000
4,50.8635735000,-0.0940773333,57.0000000000,5.1875000000,-2.8125000000,343.3125000000,image173.jpg,34613.9415450000
4,50.8635743333,-0.0940790000,57.0000000000,5.3750000000,-3.3750000000,344.2500000000,image174.jpg,34814.8723380000
4,50.8635748333,-0.0940798333,57.0000000000,4.6250000000,-1.6875000000,345.1250000000,image175.jpg,35014.9386730000
4,50.8635760000,-0.0940821667,57.0000000000,3.0625000000,-0.5000000000,347.0000000000,image176.jpg,35215.5607570000
4,50.8635770000,-0.0940836667,57.0000000000,3.8125000000,-0.6250000000,347.5625000000,image177.jpg,35415.1162410000
4,50.8635780000,-0.0940851667,57.0000000000,2.3750000000,-0.8125000000,347.1250000000,image178.jpg,35615.3401850000
4,50.8635781667,-0.0940860000,57.0000000000,-0.3125000000,0.2500000000,344.8750000000,image179.jpg,35814.2360610000
4,50.8635791667,-0.0940875000,57.0000000000,0.0000000000,0.3750000000,343.1875000000,image180.jpg,36014.5142270000
4,50.8635800000,-0.0940898333,57.0000000000,1.9375000000,-0.8125000000,343.0625000000,image181.jpg,36215.0284940000
4,50.8635810000,-0.0940915000,57.0000000000,0.6875000000,-1.2500000000,343.3125000000,image182.jpg,36415.6900070000
4,50.8635818333,-0.0940933333,57.0000000000,0.0000000000,-0.8125000000,343.5000000000,image183.jpg,36615.7857180000
4,50.8635826667,-0.0940948333,57.0000000000,2.1250000000,-0.3750000000,343.5000000000,image184.jpg,36815.6858490000
4,50.8635835000,-0.0940965000,57.0000000000,0.6250000000,0.4375000000,342.7500000000,image185.jpg,37015.7738510000
4,50.8635838333,-0.0940973333,57.0000000000,3.3750000000,0.2500000000,343.3750000000,image186.jpg,37214.6713420000
4,50.8635850000,-0.0940998333,57.0000000000,2.1875000000,-0.0625000000,344.6250000000,image187.jpg,37415.0969080000
4,50.8635856667,-0.0941015000,57.0000000000,3.8750000000,-0.3125000000,345.3750000000,image188.jpg,37615.2137660000
4,50.8635865000,-0.0941030000,57.0000000000,3.5625000000,-0.1875000000,345.9375000000,image189.jpg,37815.7468890000
4,50.8635873333,-0.0941045000,57.0000000000,4.6250000000,0.1250000000,347.7500000000,image190.jpg,38017.5988610000
4,50.8635881667,-0.0941060000,57.0000000000,4.8125000000,-0.1875000000,349.5000000000,image191.jpg,38216.1959760000
4,50.8635891667,-0.0941076667,57.0000000000,4.3750000000,-0.9375000000,350.0000000000,image192.jpg,38416.1753290000
4,50.8635900000,-0.0941090000,57.1000000000,4.9375000000,-1.5000000000,350.3125000000,image193.jpg,38615.5231480000
4,50.8635910000,-0.0941103333,57.1000000000,4.9375000000,-1.5000000000,350.5625000000,image194.jpg,38815.3605160000
4,50.8635916667,-0.0941120000,57.1000000000,8.1250000000,-2.9375000000,350.8125000000,image195.jpg,39017.9764740000
4,50.8635923333,-0.0941130000,57.1000000000,10.9375000000,-4.1875000000,351.8750000000,image196.jpg,39217.9228570000
4,50.8635936667,-0.0941148333,57.1000000000,6.5000000000,-3.0625000000,353.4375000000,image197.jpg,39418.4110820000
4,50.8635943333,-0.0941163333,57.1000000000,10.2500000000,1.3125000000,355.0625000000,image198.jpg,39618.7754490000
4,50.8635951667,-0.0941175000,57.1000000000,8.6250000000,0.1250000000,353.6875000000,image199.jpg,39818.2643150000
4,50.8635961667,-0.0941188333,57.1000000000,7.0625000000,-1.1875000000,353.7500000000,image200.jpg,40018.3871100000
4,50.8635971667,-0.0941200000,57.1000000000,6.6250000000,-0.6875000000,354.1250000000,image201.jpg,40218.3546390000
4,50.8635981667,-0.0941213333,57.1000000000,5.4375000000,-1.9375000000,354.3125000000,image202.jpg,40418.4203490000
4,50.8635990000,-0.0941230000,57.1000000000,6.2500000000,-2.0000000000,355.0000000000,image203.jpg,40618.5663220000
4,50.8636000000,-0.0941240000,57.1000000000,6.0625000000,-1.6250000000,355.5625000000,image204.jpg,40818.6641170000
4,50.8636011667,-0.0941255000,57.1000000000,5.7500000000,-3.0000000000,356.5000000000,image205.jpg,41018.8503520000
4,50.8636020000,-0.0941268333,57.1000000000,4.9375000000,-3.0000000000,356.5625000000,image206.jpg,41218.7659520000
4,50.8636030000,-0.0941280000,57.1000000000,4.5000000000,-1.6250000000,356.6875000000,image207.jpg,41418.8340580000
4,50.8636040000,-0.0941293333,57.1000000000,5.6250000000,-2.3125000000,357.1875000000,image208.jpg,41618.8958610000
4,50.8636050000,-0.0941305000,57.1000000000,4.7500000000,-3.1875000000,357.7500000000,image209.jpg,41818.9886030000
4,50.8636055000,-0.0941311667,57.1000000000,5.6250000000,-2.2500000000,357.9375000000,image210.jpg,42018.9048290000
4,50.8636071667,-0.0941331667,57.1000000000,5.1875000000,-2.2500000000,358.3125000000,image211.jpg,42219.3550320000
4,50.8636081667,-0.0941345000,57.1000000000,4.8125000000,-2.8125000000,358.3125000000,image212.jpg,42419.6100710000
4,50.8636091667,-0.0941356667,57.1000000000,5.0625000000,-1.6250000000,358.8750000000,image213.jpg,42620.3734100000
4,50.8636101667,-0.0941368333,57.1000000000,5.6875000000,-1.3125000000,2.2500000000,image214.jpg,42820.2915110000
4,50.8636111667,-0.0941378333,57.1000000000,4.8125000000,-1.0000000000,4.1250000000,image215.jpg,43020.3632630000
4,50.8636123333,-0.0941388333,57.1000000000,4.1875000000,-1.7500000000,4.7500000000,image216.jpg,43220.4486090000
4,50.8636133333,-0.0941398333,57.1000000000,4.8750000000,-2.4375000000,5.6875000000,image217.jpg,43419.5603260000
4,50.8636145000,-0.0941408333,57.1000000000,3.6250000000,-1.5000000000,4.7500000000,image218.jpg,43619.6803600000
4,50.8636155000,-0.0941418333,57.1000000000,4.1250000000,-2.1250000000,3.6875000000,image219.jpg,43819.6807550000
4,50.8636160000,-0.0941423333,57.1000000000,1.8750000000,-1.5000000000,3.3125000000,image220.jpg,44020.1995020000
4,50.8636173333,-0.0941438333,57.1000000000,2.1875000000,-1.0000000000,358.8750000000,image221.jpg,44220.9825300000
4,50.8636181667,-0.0941451667,57.1000000000,2.7500000000,-2.8125000000,353.7500000000,image222.jpg,44420.8604200000
4,50.8636188333,-0.0941465000,57.1000000000,1.5000000000,-2.0000000000,349.1250000000,image223.jpg,44620.8814930000
4,50.8636195000,-0.0941480000,57.1000000000,5.0625000000,-2.8125000000,348.8125000000,image224.jpg,44820.6453170000
4,50.8636201667,-0.0941491667,57.1000000000,6.8750000000,-1.3750000000,348.9375000000,image225.jpg,45020.0331380000
4,50.8636213333,-0.0941505000,57.1000000000,3.0625000000,-1.1250000000,348.3750000000,image226.jpg,45220.1484850000
4,50.8636218333,-0.0941521667,57.1000000000,6.5000000000,-2.1250000000,348.3125000000,image227.jpg,45420.7049420000
4,50.8636226667,-0.0941535000,57.1000000000,5.5625000000,-0.9375000000,348.5000000000,image228.jpg,45621.2861390000
4,50.8636236667,-0.0941548333,57.1000000000,3.6875000000,-1.6250000000,349.2500000000,image229.jpg,45821.3228370000
4,50.8636243333,-0.0941563333,57.1000000000,3.7500000000,-1.8750000000,349.6875000000,image230.jpg,46021.4665190000
4,50.8636251667,-0.0941576667,57.1000000000,2.4375000000,0.6875000000,347.0625000000,image231.jpg,46221.4423820000
4,50.8636258333,-0.0941593333,57.1000000000,4.1250000000,-1.1250000000,344.8750000000,image232.jpg,46420.5635260000
4,50.8636265000,-0.0941608333,57.1000000000,5.4375000000,-2.3750000000,344.1250000000,image233.jpg,46620.6655920000
4,50.8636271667,-0.0941623333,57.1000000000,5.3750000000,-1.6250000000,344.3125000000,image234.jpg,46820.8964120000
4,50.8636280000,-0.0941638333,57.1000000000,6.1875000000,-1.2500000000,344.5625000000,image235.jpg,47021.5453720000
4,50.8636286667,-0.0941655000,57.1000000000,7.1875000000,-0.5000000000,345.3750000000,image236.jpg,47220.7912080000
4,50.8636295000,-0.0941668333,57.1000000000,6.6250000000,-0.8125000000,345.8125000000,image237.jpg,47420.8015520000
4,50.8636301667,-0.0941683333,57.1000000000,7.1250000000,-0.2500000000,346.6250000000,image238.jpg,47620.9190860000
4,50.8636308333,-0.0941696667,57.1000000000,6.1875000000,-0.1250000000,347.6875000000,image239.jpg,47820.9874520000
4,50.8636316667,-0.0941711667,57.1000000000,7.0000000000,-1.1875000000,350.0625000000,image240.jpg,48020.9875870000
4,50.8636325000,-0.0941723333,57.1000000000,7.5625000000,-0.3750000000,352.2500000000,image241.jpg,48221.1080380000
4,50.8636335000,-0.0941738333,57.1000000000,6.6250000000,-0.1875000000,353.5000000000,image242.jpg,48421.4561020000
4,50.8636343333,-0.0941751667,57.1000000000,7.1250000000,-0.3125000000,354.1875000000,image243.jpg,48621.2923770000
4,50.8636351667,-0.0941763333,57.1000000000,8.0625000000,-0.1250000000,354.7500000000,image244.jpg,48821.2212070000
4,50.8636356667,-0.0941770000,57.1000000000,7.7500000000,-0.6250000000,355.1875000000,image245.jpg,49021.1959760000
4,50.8636368333,-0.0941790000,57.1000000000,6.8750000000,-0.9375000000,356.2500000000,image246.jpg,49221.6397200000
4,50.8636378333,-0.0941801667,57.1000000000,7.9375000000,-0.5625000000,357.0000000000,image247.jpg,49421.5640710000
4,50.8636388333,-0.0941815000,57.1000000000,7.1875000000,0.0000000000,357.1250000000,image248.jpg,49621.6689490000
4,50.8636398333,-0.0941826667,57.1000000000,6.0000000000,0.5000000000,357.0625000000,image249.jpg,49822.1360270000
4,50.8636401667,-0.0941833333,57.1000000000,7.0000000000,0.6250000000,357.1875000000,image250.jpg,50022.8378020000
4,50.8636416667,-0.0941853333,57.1000000000,7.0625000000,0.1250000000,357.8125000000,image251.jpg,50222.9063760000
4,50.8636425000,-0.0941865000,57.1000000000,6.3125000000,-1.0625000000,358.5625000000,image252.jpg,50422.7571820000
4,50.8636435000,-0.0941876667,57.2000000000,4.8750000000,-0.8125000000,358.0625000000,image253.jpg,50622.8058080000
4,50.8636445000,-0.0941890000,57.2000000000,4.3750000000,-0.6250000000,355.3125000000,image254.jpg,50822.0674790000
4,50.8636450000,-0.0941896667,57.2000000000,5.7500000000,0.0000000000,355.1875000000,image255.jpg,51021.9567760000
4,50.8636465000,-0.0941915000,57.2000000000,5.0625000000,0.5000000000,355.3750000000,image256.jpg,51222.5605260000
4,50.8636471667,-0.0941930000,57.2000000000,5.7500000000,0.2500000000,355.1875000000,image257.jpg,51422.9225490000
4,50.8636481667,-0.0941943333,57.2000000000,6.5625000000,0.5625000000,354.5000000000,image258.jpg,51623.1956620000
4,50.8636491667,-0.0941955000,57.2000000000,4.9375000000,0.3125000000,355.0000000000,image259.jpg,51823.3045500000
4,50.8636495000,-0.0941961667,57.2000000000,6.3750000000,-0.3750000000,355.6250000000,image260.jpg,52023.1866600000
4,50.8636510000,-0.0941981667,57.2000000000,5.0000000000,-0.6250000000,355.0625000000,image261.jpg,52223.1928880000
4,50.8636520000,-0.0941995000,57.2000000000,4.3750000000,-1.1250000000,353.8125000000,image262.jpg,52422.6343050000
4,50.8636526667,-0.0942008333,57.2000000000,5.3750000000,-0.5000000000,353.1875000000,image263.jpg,52622.5653750000
4,50.8636536667,-0.0942021667,57.2000000000,4.6875000000,-0.5625000000,351.4375000000,image264.jpg,52823.2590760000
4,50.8636541667,-0.0942028333,57.2000000000,3.9375000000,-1.4375000000,348.1250000000,image265.jpg,53023.5521900000
4,50.8636551667,-0.0942051667,57.2000000000,4.2500000000,-1.5000000000,344.2500000000,image266.jpg,53224.0212480000
4,50.8636558333,-0.0942068333,57.2000000000,4.1875000000,-1.3125000000,340.2500000000,image267.jpg,53423.9875790000
4,50.8636565000,-0.0942085000,57.2000000000,5.0000000000,-1.9375000000,339.2500000000,image268.jpg,53624.0947480000
4,50.8636571667,-0.0942101667,57.2000000000,4.9375000000,-1.2500000000,339.3125000000,image269.jpg,53823.1606310000
4,50.8636575000,-0.0942111667,57.2000000000,4.8125000000,-0.5000000000,339.3750000000,image270.jpg,54022.9584660000
4,50.8636585000,-0.0942136667,57.2000000000,3.6875000000,0.3125000000,336.5000000000,image271.jpg,54223.7363370000
4,50.8636590000,-0.0942153333,57.2000000000,5.0000000000,0.4375000000,334.4375000000,image272.jpg,54423.4746390000
4,50.8636595000,-0.0942170000,57.2000000000,5.0000000000,0.3125000000,332.6875000000,image273.jpg,54623.8654650000
4,50.8636598333,-0.0942188333,57.2000000000,5.2500000000,-0.3750000000,330.6250000000,image274.jpg,54823.4538140000
4,50.8636603333,-0.0942206667,57.2000000000,6.0625000000,-1.1875000000,330.3125000000,image275.jpg,55023.4520740000
4,50.8636608333,-0.0942226667,57.2000000000,6.8125000000,-1.0625000000,330.5625000000,image276.jpg,55223.7183120000
4,50.8636615000,-0.0942245000,57.2000000000,6.3750000000,-1.3125000000,331.1250000000,image277.jpg,55423.6235470000
4,50.8636620000,-0.0942265000,57.2000000000,6.9375000000,-1.6875000000,331.6250000000,image278.jpg,55623.8170740000
4,50.8636625000,-0.0942283333,57.2000000000,6.6875000000,-0.7500000000,331.5625000000,image279.jpg,55824.0956040000
4,50.8636631667,-0.0942301667,57.2000000000,5.8125000000,-0.7500000000,332.4375000000,image280.jpg,56023.8857830000
4,50.8636636667,-0.0942323333,57.2000000000,6.0000000000,-1.8125000000,333.4375000000,image281.jpg,56224.5351080000
4,50.8636643333,-0.0942340000,57.2000000000,3.6875000000,-1.5000000000,332.8125000000,image282.jpg,56424.2892960000
4,50.8636648333,-0.0942361667,57.2000000000,4.2500000000,-1.6875000000,328.3750000000,image283.jpg,56624.3421410000
4,50.8636651667,-0.0942380000,57.2000000000,3.7500000000,-1.1250000000,324.3750000000,image284.jpg,56824.5458760000
4,50.8636653333,-0.0942390000,57.2000000000,4.5625000000,-0.3125000000,324.8125000000,image285.jpg,57024.5240310000
4,50.8636658333,-0.0942418333,57.2000000000,4.1250000000,-1.6250000000,325.5625000000,image286.jpg,57225.3738840000
4,50.8636663333,-0.0942438333,57.2000000000,3.6250000000,-0.6875000000,326.7500000000,image287.jpg,57425.7215310000
4,50.8636668333,-0.0942456667,57.2000000000,3.3750000000,-0.6250000000,327.2500000000,image288.jpg,57626.0505840000
4,50.8636671667,-0.0942476667,57.2000000000,4.2500000000,0.1250000000,325.3750000000,image289.jpg,57825.9395680000
4,50.8636676667,-0.0942493333,57.2000000000,3.4375000000,0.5625000000,325.5000000000,image290.jpg,58025.9305880000
4,50.8636678333,-0.0942513333,57.2000000000,5.3125000000,0.6250000000,325.3125000000,image291.jpg,58225.3777340000
4,50.8636683333,-0.0942533333,57.2000000000,6.0000000000,0.4375000000,324.1875000000,image292.jpg,58425.1118690000
4,50.8636686667,-0.0942551667,57.2000000000,4.3125000000,-0.1250000000,325.0000000000,image293.jpg,58625.2177370000
4,50.8636690000,-0.0942571667,57.2000000000,5.0625000000,0.3125000000,325.5625000000,image294.jpg,58825.7346610000
4,50.8636693333,-0.0942590000,57.3000000000,4.3125000000,-0.3125000000,325.8125000000,image295.jpg,59026.4902910000
4,50.8636698333,-0.0942610000,57.3000000000,5.1250000000,-1.5625000000,326.7500000000,image296.jpg,59226.6070450000
4,50.8636703333,-0.0942628333,57.3000000000,4.7500000000,-1.5625000000,325.4375000000,image297.jpg,59426.8470840000
4,50.8636706667,-0.0942646667,57.3000000000,3.9375000000,-0.7500000000,323.6250000000,image298.jpg,59626.8733130000
4,50.8636711667,-0.0942666667,57.3000000000,3.8750000000,-1.9375000000,323.5000000000,image299.jpg,59825.9095070000
4,50.8636713333,-0.0942688333,57.3000000000,4.5625000000,-2.8750000000,324.1250000000,image300.jpg,60025.9945920000
4,50.8636716667,-0.0942705000,57.3000000000,2.6875000000,-2.3125000000,324.8125000000,image301.jpg,60226.1094710000
4,50.8636721667,-0.0942723333,57.2000000000,2.1250000000,-1.7500000000,324.1250000000,image302.jpg,60426.7291590000
4,50.8636723333,-0.0942743333,57.2000000000,1.9375000000,-0.4375000000,321.6875000000,image303.jpg,60627.1791530000
4,50.8636726667,-0.0942758333,57.2000000000,2.3750000000,0.5000000000,321.8750000000,image304.jpg,60827.1451720000
4,50.8636730000,-0.0942776667,57.2000000000,3.3125000000,1.0625000000,322.0000000000,image305.jpg,61027.4316190000
4,50.8636733333,-0.0942795000,57.3000000000,3.4375000000,1.8750000000,322.0000000000,image306.jpg,61226.7982410000
4,50.8636736667,-0.0942810000,57.3000000000,1.7500000000,3.3125000000,319.9375000000,image307.jpg,61426.4633120000
4,50.8636738333,-0.0942828333,57.3000000000,4.1250000000,3.1875000000,317.3750000000,image308.jpg,61626.4436020000
4,50.8636738333,-0.0942846667,57.3000000000,5.2500000000,4.4375000000,316.3125000000,image309.jpg,61826.9938600000
4,50.8636741667,-0.0942863333,57.3000000000,3.8750000000,3.4375000000,316.6250000000,image310.jpg,62026.5896570000
4,50.8636741667,-0.0942881667,57.3000000000,6.7500000000,4.1250000000,317.0000000000,image311.jpg,62226.8874070000
4,50.8636743333,-0.0942901667,57.3000000000,5.2500000000,1.0000000000,316.6250000000,image312.jpg,62426.9725450000
4,50.8636745000,-0.0942921667,57.3000000000,5.3125000000,1.1875000000,314.3125000000,image313.jpg,62627.4985840000
4,50.8636746667,-0.0942941667,57.3000000000,5.1250000000,1.0625000000,313.6250000000,image314.jpg,62827.6304420000
4,50.8636748333,-0.0942960000,57.3000000000,5.6250000000,0.8750000000,314.2500000000,image315.jpg,63028.1006970000
4,50.8636750000,-0.0942981667,57.3000000000,4.4375000000,0.3125000000,314.8750000000,image316.jpg,63227.7099320000
4,50.8636751667,-0.0943001667,57.3000000000,5.4375000000,-0.1875000000,313.5000000000,image317.jpg,63428.0647150000
4,50.8636753333,-0.0943021667,57.4000000000,4.9375000000,0.2500000000,312.5625000000,image318.jpg,63627.8499460000
4,50.8636753333,-0.0943041667,57.4000000000,6.3750000000,-0.2500000000,312.4375000000,image319.jpg,63827.9555530000
4,50.8636755000,-0.0943063333,57.4000000000,5.7500000000,-0.8750000000,312.7500000000,image320.jpg,64028.4565390000
4,50.8636755000,-0.0943083333,57.4000000000,6.5000000000,-0.5000000000,313.7500000000,image321.jpg,64228.0444190000
4,50.8636758333,-0.0943105000,57.4000000000,4.8125000000,0.0000000000,314.1250000000,image322.jpg,64428.3225330000
4,50.8636758333,-0.0943125000,57.4000000000,7.0000000000,0.0000000000,313.1875000000,image323.jpg,64629.3460380000
4,50.8636761667,-0.0943146667,57.4000000000,5.3750000000,-1.4375000000,312.3125000000,image324.jpg,64829.1005380000
4,50.8636760000,-0.0943168333,57.4000000000,6.8125000000,-0.5000000000,312.3750000000,image325.jpg,65029.4910520000
4,50.8636763333,-0.0943190000,57.4000000000,5.6875000000,-1.0000000000,312.3125000000,image326.jpg,65229.7623420000
4,50.8636763333,-0.0943210000,57.4000000000,5.7500000000,-0.9375000000,310.5000000000,image327.jpg,65429.8966480000
4,50.8636763333,-0.0943230000,57.4000000000,6.5000000000,-0.2500000000,310.1250000000,image328.jpg,65630.9204650000
4,50.8636765000,-0.0943251667,57.4000000000,6.3125000000,-1.0625000000,310.2500000000,image329.jpg,65829.4465880000
4,50.8636765000,-0.0943271667,57.4000000000,5.9375000000,0.0625000000,310.5000000000,image330.jpg,66032.9598700000
4,50.8636763333,-0.0943291667,57.4000000000,6.9375000000,-0.0625000000,309.6875000000,image331.jpg,66232.8796900000
4,50.8636765000,-0.0943313333,57.4000000000,5.3125000000,-0.2500000000,307.4375000000,image332.jpg,66432.1893830000
4,50.8636763333,-0.0943335000,57.4000000000,5.0000000000,-2.1875000000,304.3750000000,image333.jpg,66632.1783710000
4,50.8636763333,-0.0943355000,57.4000000000,3.8750000000,-0.6250000000,302.1250000000,image334.jpg,66832.5675820000
4,50.8636761667,-0.0943376667,57.4000000000,4.3125000000,-0.6875000000,300.1875000000,image335.jpg,67033.2266990000
4,50.8636760000,-0.0943395000,57.4000000000,4.5625000000,-1.0000000000,299.7500000000,image336.jpg,67233.5794500000
4,50.8636756667,-0.0943413333,57.4000000000,3.8750000000,-1.2500000000,301.5000000000,image337.jpg,67433.7819880000
4,50.8636756667,-0.0943431667,57.4000000000,6.6875000000,-1.2500000000,305.0625000000,image338.jpg,67633.6553990000
4,50.8636758333,-0.0943451667,57.4000000000,4.5625000000,-1.1875000000,310.5000000000,image339.jpg,67832.6026310000
4,50.8636760000,-0.0943470000,57.4000000000,4.0000000000,-1.4375000000,314.8125000000,image340.jpg,68033.4185770000
4,50.8636763333,-0.0943486667,57.4000000000,4.3750000000,-1.7500000000,319.2500000000,image341.jpg,68233.3946480000
4,50.8636766667,-0.0943503333,57.4000000000,4.1250000000,-1.5000000000,320.3750000000,image342.jpg,68433.5498920000
4,50.8636768333,-0.0943523333,57.4000000000,3.3125000000,-1.0000000000,320.0625000000,image343.jpg,68634.5036030000
4,50.8636773333,-0.0943543333,57.4000000000,4.8125000000,-0.1250000000,320.8125000000,image344.jpg,68834.5705630000
4,50.8636775000,-0.0943561667,57.4000000000,4.8125000000,-0.2500000000,320.3750000000,image345.jpg,69034.5600200000
4,50.8636778333,-0.0943583333,57.4000000000,2.7500000000,-1.6875000000,319.1875000000,image346.jpg,69234.8433940000
4,50.8636781667,-0.0943603333,57.4000000000,3.5000000000,-1.3750000000,318.4375000000,image347.jpg,69433.7498430000
4,50.8636783333,-0.0943621667,57.4000000000,4.0625000000,-1.1250000000,317.8750000000,image348.jpg,69633.8530540000
4,50.8636786667,-0.0943645000,57.4000000000,1.6875000000,-1.5625000000,318.1250000000,image349.jpg,69833.8594910000
4,50.8636788333,-0.0943666667,57.4000000000,4.0000000000,-2.7500000000,318.1875000000,image350.jpg,70034.4631370000
4,50.8636791667,-0.0943688333,57.4000000000,2.6250000000,-3.0625000000,318.6875000000,image351.jpg,70233.9264290000
4,50.8636795000,-0.0943710000,57.4000000000,3.8125000000,-1.8125000000,318.8125000000,image352.jpg,70434.1211020000
4,50.8636798333,-0.0943731667,57.4000000000,3.0625000000,-1.7500000000,318.5000000000,image353.jpg,70634.4653120000
4,50.8636800000,-0.0943753333,57.4000000000,3.6875000000,-2.0000000000,318.2500000000,image354.jpg,70834.5768050000
4,50.8636801667,-0.0943775000,57.4000000000,4.2500000000,-2.3750000000,315.6250000000,image355.jpg,71034.4269340000
4,50.8636803333,-0.0943798333,57.4000000000,5.3125000000,-2.0000000000,316.0625000000,image356.jpg,71234.4963420000
4,50.8636806667,-0.0943818333,57.4000000000,5.5000000000,-2.5000000000,316.4375000000,image357.jpg,71434.7426310000
4,50.8636806667,-0.0943840000,57.4000000000,6.4375000000,-2.6875000000,317.4375000000,image358.jpg,71634.6613560000
4,50.8636810000,-0.0943861667,57.4000000000,4.9375000000,-3.1250000000,318.3125000000,image359.jpg,71834.7075340000
4,50.8636811667,-0.0943883333,57.4000000000,7.9375000000,-3.4375000000,319.4375000000,image360.jpg,72034.7213150000
4,50.8636816667,-0.0943903333,57.4000000000,5.7500000000,-2.4375000000,321.0625000000,image361.jpg,72234.7307730000
4,50.8636820000,-0.0943925000,57.4000000000,6.6250000000,-1.3125000000,322.0625000000,image362.jpg,72434.9101850000
4,50.8636823333,-0.0943945000,57.4000000000,2.8750000000,-0.8125000000,320.4375000000,image363.jpg,72634.9323510000
4,50.8636825000,-0.0943966667,57.4000000000,4.9375000000,-0.9375000000,317.9375000000,image364.jpg,72835.0750950000
4,50.8636828333,-0.0943986667,57.4000000000,6.6250000000,-0.6250000000,317.0625000000,image365.jpg,73035.9459380000
4,50.8636831667,-0.0944008333,57.4000000000,4.5000000000,-0.8125000000,317.4375000000,image366.jpg,73236.3321290000
4,50.8636831667,-0.0944026667,57.4000000000,4.0000000000,-1.7500000000,316.6875000000,image367.jpg,73436.3331490000
4,50.8636835000,-0.0944046667,57.4000000000,4.4375000000,-0.4375000000,315.8750000000,image368.jpg,73636.3121370000
4,50.8636836667,-0.0944068333,57.4000000000,4.3750000000,-0.6250000000,316.0000000000,image369.jpg,73836.1491920000
4,50.8636838333,-0.0944088333,57.4000000000,5.0625000000,-2.5000000000,316.6875000000,image370.jpg,74035.4488850000
4,50.8636841667,-0.0944108333,57.4000000000,4.6875000000,-1.7500000000,317.3750000000,image371.jpg,74235.5739720000
4,50.8636843333,-0.0944128333,57.4000000000,5.3125000000,-0.5000000000,317.6250000000,image372.jpg,74435.8397930000
4,50.8636845000,-0.0944150000,57.4000000000,6.0625000000,-1.6875000000,318.0625000000,image373.jpg,74636.8559020000
4,50.8636848333,-0.0944170000,57.4000000000,6.6250000000,-1.0000000000,319.0625000000,image374.jpg,74836.8189000000
4,50.8636851667,-0.0944190000,57.4000000000,5.8125000000,-0.3750000000,317.9375000000,image375.jpg,75036.8737240000
4,50.8636853333,-0.0944210000,57.4000000000,4.5625000000,-1.5625000000,316.4375000000,image376.jpg,75236.7526040000
4,50.8636855000,-0.0944228333,57.4000000000,5.3750000000,-0.9375000000,315.8750000000,image377.jpg,75435.9295320000
4,50.8636858333,-0.0944248333,57.4000000000,5.8125000000,1.2500000000,316.1250000000,image378.jpg,75635.9374790000
4,50.8636860000,-0.0944268333,57.4000000000,5.8125000000,0.1875000000,315.8125000000,image379.jpg,75836.1809040000
4,50.8636860000,-0.0944290000,57.4000000000,6.7500000000,-0.3750000000,315.5000000000,image380.jpg,76036.9381490000
4,50.8636861667,-0.0944310000,57.4000000000,7.1250000000,-0.1250000000,316.0000000000,image381.jpg,76237.3136100000
4,50.8636865000,-0.0944330000,57.4000000000,6.4375000000,0.8125000000,316.7500000000,image382.jpg,76437.4275510000
4,50.8636866667,-0.0944350000,57.4000000000,5.6875000000,0.4375000000,317.3125000000,image383.jpg,76637.3906000000
4,50.8636868333,-0.0944370000,57.4000000000,4.5000000000,0.0625000000,317.6250000000,image384.jpg,76836.8396730000
4,50.8636871667,-0.0944388333,57.4000000000,5.6875000000,0.0625000000,318.3125000000,image385.jpg,77036.5168800000
4,50.8636875000,-0.0944408333,57.4000000000,4.5000000000,0.0625000000,319.6875000000,image386.jpg,77236.6345190000
4,50.8636878333,-0.0944428333,57.4000000000,4.3125000000,-1.1250000000,320.0625000000,image387.jpg,77437.1981630000
4,50.8636881667,-0.0944446667,57.4000000000,5.8125000000,-1.2500000000,320.5000000000,image388.jpg,77636.9548510000
4,50.8636883333,-0.0944461667,57.4000000000,6.1875000000,-0.3125000000,321.5625000000,image389.jpg,77836.8070120000
4,50.8636888333,-0.0944481667,57.4000000000,4.3750000000,-0.9375000000,322.8125000000,image390.jpg,78036.8873060000
4,50.8636891667,-0.0944496667,57.4000000000,4.3125000000,-0.6250000000,325.1250000000,image391.jpg,78236.9397860000
4,50.8636895000,-0.0944515000,57.4000000000,5.0625000000,0.5625000000,326.7500000000,image392.jpg,78436.9753900000
4,50.8636901667,-0.0944531667,57.4000000000,4.3750000000,-0.2500000000,327.3125000000,image393.jpg,78637.0618300000
4,50.8636906667,-0.0944550000,57.4000000000,4.7500000000,-0.5000000000,328.5625000000,image394.jpg,78837.5941190000
4,50.8636910000,-0.0944568333,57.4000000000,2.9375000000,0.0000000000,327.9375000000,image395.jpg,79037.5230530000
4,50.8636913333,-0.0944586667,57.4000000000,5.3750000000,0.5000000000,325.3125000000,image396.jpg,79237.5383450000
4,50.8636918333,-0.0944603333,57.4000000000,4.8750000000,1.0000000000,326.5000000000,image397.jpg,79437.8620330000
4,50.8636921667,-0.0944621667,57.4000000000,4.6250000000,-0.4375000000,326.9375000000,image398.jpg,79637.9601920000
4,50.8636925000,-0.0944638333,57.4000000000,3.4375000000,0.3750000000,325.2500000000,image399.jpg,79838.0698620000
4,50.8636928333,-0.0944656667,57.4000000000,3.0625000000,-0.1875000000,319.5000000000,image400.jpg,80038.0542140000
4,50.8636930000,-0.0944671667,57.4000000000,4.1875000000,2.6875000000,315.5000000000,image401.jpg,80238.1858120000
4,50.8636931667,-0.0944691667,57.4000000000,1.7500000000,0.8125000000,313.9375000000,image402.jpg,80438.7157570000
4,50.8636933333,-0.0944708333,57.4000000000,5.7500000000,0.0000000000,315.8125000000,image403.jpg,80639.6382690000
4,50.8636935000,-0.0944726667,57.4000000000,4.3125000000,1.1875000000,317.1250000000,image404.jpg,80839.5830370000
4,50.8636936667,-0.0944743333,57.4000000000,5.5625000000,0.0000000000,318.5625000000,image405.jpg,81039.5268670000
4,50.8636940000,-0.0944761667,57.4000000000,5.5000000000,1.3750000000,319.0625000000,image406.jpg,81239.9048800000
4,50.8636943333,-0.0944778333,57.4000000000,3.8750000000,-0.2500000000,319.3125000000,image407.jpg,81439.6147440000
4,50.8636943333,-0.0944796667,57.5000000000,6.5625000000,0.6875000000,319.7500000000,image408.jpg,81639.0882970000
4,50.8636946667,-0.0944815000,57.5000000000,5.5000000000,-0.3125000000,321.9375000000,image409.jpg,81839.1645800000
4,50.8636951667,-0.0944831667,57.5000000000,5.2500000000,-0.4375000000,324.1250000000,image410.jpg,82039.6507740000
4,50.8636955000,-0.0944848333,57.5000000000,5.5625000000,-1.0625000000,325.3125000000,image411.jpg,82240.4739590000
4,50.8636958333,-0.0944866667,57.5000000000,5.3125000000,0.0000000000,325.7500000000,image412.jpg,82440.4208630000
4,50.8636961667,-0.0944883333,57.5000000000,4.9375000000,-0.5625000000,326.1875000000,image413.jpg,82640.4926140000
4,50.8636966667,-0.0944900000,57.5000000000,4.6250000000,-1.0625000000,326.5625000000,image414.jpg,82840.6065030000
4,50.8636971667,-0.0944918333,57.5000000000,5.7500000000,-1.0000000000,327.9375000000,image415.jpg,83039.5561830000
4,50.8636975000,-0.0944933333,57.5000000000,4.5625000000,-0.3750000000,329.2500000000,image416.jpg,83239.5992360000
4,50.8636980000,-0.0944950000,57.5000000000,5.0000000000,-0.7500000000,329.1875000000,image417.jpg,83439.6801540000
4,50.8636983333,-0.0944966667,57.5000000000,7.8750000000,0.1250000000,330.6250000000,image418.jpg,83640.4600050000
4,50.8636986667,-0.0944981667,57.5000000000,7.3750000000,0.8125000000,331.4375000000,image419.jpg,83840.9927630000
4,50.8636993333,-0.0944998333,57.5000000000,7.1250000000,-0.3125000000,332.6250000000,image420.jpg,84040.7978380000
4,50.8636996667,-0.0945015000,57.5000000000,8.3125000000,-0.3750000000,334.0000000000,image421.jpg,84240.9243310000
4,50.8637003333,-0.0945031667,57.5000000000,5.6875000000,0.0625000000,334.0625000000,image422.jpg,84440.8125870000
4,50.8637006667,-0.0945046667,57.5000000000,6.0625000000,-0.1250000000,332.6875000000,image423.jpg,84640.0860810000
4,50.8637011667,-0.0945065000,57.5000000000,6.0000000000,0.7500000000,331.7500000000,image424.jpg,84840.1289770000
4,50.8637018333,-0.0945081667,57.5000000000,4.6875000000,-0.2500000000,332.5000000000,image425.jpg,85040.3963090000
4,50.8637023333,-0.0945098333,57.5000000000,6.1875000000,-0.3125000000,334.0000000000,image426.jpg,85240.1655500000
4,50.8637028333,-0.0945116667,57.5000000000,5.4375000000,-0.8125000000,334.3750000000,image427.jpg,85440.7629460000
4,50.8637036667,-0.0945135000,57.5000000000,5.6250000000,0.1875000000,334.0000000000,image428.jpg,85640.8095920000
4,50.8637040000,-0.0945151667,57.5000000000,7.1250000000,-0.3125000000,333.3125000000,image429.jpg,85840.9879100000
4,50.8637046667,-0.0945168333,57.5000000000,5.9375000000,1.1250000000,333.8125000000,image430.jpg,86040.9992950000
4,50.8637051667,-0.0945188333,57.5000000000,8.3125000000,0.0000000000,334.0000000000,image431.jpg,86240.9671890000
4,50.8637056667,-0.0945205000,57.5000000000,8.5625000000,1.7500000000,334.8750000000,image432.jpg,86441.1483200000
4,50.8637063333,-0.0945221667,57.5000000000,5.5625000000,0.0000000000,336.8750000000,image433.jpg,86641.7374860000
4,50.8637071667,-0.0945240000,57.5000000000,5.1875000000,0.0625000000,338.1875000000,image434.jpg,86841.5326650000
4,50.8637076667,-0.0945256667,57.5000000000,6.8750000000,-0.9375000000,340.2500000000,image435.jpg,87041.5855620000
4,50.8637085000,-0.0945270000,57.5000000000,5.1250000000,0.0625000000,346.5625000000,image436.jpg,87241.6292920000
4,50.8637095000,-0.0945285000,57.5000000000,4.7500000000,1.2500000000,348.0625000000,image437.jpg,87441.7725570000
4,50.8637103333,-0.0945298333,57.5000000000,5.1250000000,-0.1875000000,351.2500000000,image438.jpg,87641.8803520000
4,50.8637113333,-0.0945313333,57.5000000000,3.5000000000,-1.7500000000,351.4375000000,image439.jpg,87842.2025810000
4,50.8637123333,-0.0945328333,57.5000000000,3.7500000000,-1.1875000000,352.0000000000,image440.jpg,88042.0629710000
4,50.8637133333,-0.0945341667,57.6000000000,3.0000000000,0.1250000000,353.3750000000,image441.jpg,88242.6877640000
4,50.8637143333,-0.0945355000,57.5000000000,4.0000000000,0.1250000000,356.8125000000,image442.jpg,88442.9543660000
4,50.8637153333,-0.0945366667,57.6000000000,1.8125000000,0.5625000000,357.5625000000,image443.jpg,88643.2898780000
4,50.8637161667,-0.0945378333,57.6000000000,3.4375000000,0.1875000000,357.3125000000,image444.jpg,88843.3979850000
4,50.8637173333,-0.0945393333,57.6000000000,4.5625000000,-2.3125000000,357.3750000000,image445.jpg,89043.4607260000
4,50.8637183333,-0.0945405000,57.6000000000,2.6250000000,-1.1250000000,358.1875000000,image446.jpg,89242.5366080000
4,50.8637193333,-0.0945418333,57.6000000000,3.8750000000,0.5000000000,358.8750000000,image447.jpg,89442.6010160000
4,50.8637203333,-0.0945431667,57.6000000000,3.9375000000,-0.5625000000,359.0000000000,image448.jpg,89642.6417770000
4,50.8637213333,-0.0945445000,57.6000000000,4.1875000000,-0.3750000000,359.9375000000,image449.jpg,89843.3454270000
4,50.8637223333,-0.0945458333,57.6000000000,4.8125000000,-0.9375000000,359.9375000000,image450.jpg,90043.6517700000
4,50.8637235000,-0.0945471667,57.6000000000,4.6250000000,0.2500000000,0.6875000000,image451.jpg,90243.6718010000
4,50.8637241667,-0.0945475000,57.6000000000,2.0000000000,-1.3125000000,0.8125000000,image452.jpg,90443.7142810000
4,50.8637238333,-0.0945473333,57.6000000000,2.8750000000,-0.6250000000,0.8125000000,image453.jpg,90642.9269910000
4,50.8637240000,-0.0945475000,57.6000000000,4.0625000000,-1.1875000000,0.8125000000,image454.jpg,90843.0059830000
4,50.8637240000,-0.0945473333,57.6000000000,4.5000000000,-1.3125000000,0.8125000000,image455.jpg,91043.1061730000
4,50.8637238333,-0.0945475000,57.6000000000,4.8750000000,-1.4375000000,0.8125000000,image456.jpg,91243.7681550000
4,50.8637238333,-0.0945475000,57.6000000000,5.0625000000,-1.5000000000,0.8125000000,image457.jpg,91444.3378410000
4,50.8637238333,-0.0945475000,57.6000000000,5.2500000000,-1.5000000000,0.8125000000,image458.jpg,91644.4403230000
4,50.8637238333,-0.0945475000,57.6000000000,5.3750000000,-1.5625000000,0.8125000000,image459.jpg,91844.6951540000
4,50.8637238333,-0.0945475000,57.6000000000,5.4375000000,-1.6250000000,0.8125000000,image460.jpg,92044.8642010000
4,50.8637238333,-0.0945475000,57.6000000000,5.5625000000,-1.6250000000,0.8125000000,image461.jpg,92243.7478370000
4,50.8637238333,-0.0945475000,57.6000000000,5.6250000000,-1.6250000000,0.8125000000,image462.jpg,92443.7276590000
4,50.8637238333,-0.0945475000,57.6000000000,5.6875000000,-1.6250000000,0.8125000000,image463.jpg,92643.8057650000
4,50.8637238333,-0.0945475000,57.6000000000,5.6875000000,-1.6875000000,0.8125000000,image464.jpg,92844.6635870000
4,50.8637238333,-0.0945475000,57.6000000000,5.6875000000,-1.6875000000,0.8125000000,image465.jpg,93045.0684750000
4,50.8637238333,-0.0945475000,57.6000000000,5.6875000000,-1.6875000000,0.8125000000,image466.jpg,93244.9208960000
4,50.8637238333,-0.0945475000,57.6000000000,5.6875000000,-1.6875000000,0.8125000000,image467.jpg,93445.0815050000
4,50.8637238333,-0.0945475000,57.6000000000,5.6875000000,-1.6875000000,0.8125000000,image468.jpg,93644.8178800000
4,50.8637238333,-0.0945475000,57.6000000000,5.6875000000,-1.6875000000,0.8125000000,image469.jpg,93844.3485710000
4,50.8637238333,-0.0945475000,57.6000000000,5.6875000000,-1.6875000000,0.8125000000,image470.jpg,94044.4326670000
4,50.8637238333,-0.0945475000,57.6000000000,5.6875000000,-1.6875000000,0.8125000000,image471.jpg,94245.0816790000
4,50.8637238333,-0.0945475000,57.6000000000,5.6875000000,-1.6875000000,0.8125000000,image472.jpg,94446.7594260000
4,50.8637238333,-0.0945475000,57.6000000000,5.6875000000,-1.6875000000,0.8125000000,image473.jpg,94646.2861060000
4,50.8637238333,-0.0945475000,57.6000000000,5.6875000000,-1.6875000000,0.8125000000,image474.jpg,94845.1076050000
4,50.8637238333,-0.0945475000,57.6000000000,5.6875000000,-1.6875000000,0.8125000000,image475.jpg,95045.2781100000
4,50.8637238333,-0.0945475000,57.6000000000,5.6875000000,-1.6875000000,0.8125000000,image476.jpg,95246.0497310000
4,50.8637238333,-0.0945475000,57.6000000000,5.6875000000,-1.6875000000,0.8125000000,image477.jpg,95445.5188040000
4,50.8637238333,-0.0945475000,57.6000000000,5.6875000000,-1.6875000000,0.8125000000,image478.jpg,95645.6536310000
4,50.8637238333,-0.0945475000,57.6000000000,5.6875000000,-1.6875000000,0.8125000000,image479.jpg,95846.2113900000
4,50.8637238333,-0.0945475000,57.6000000000,5.6875000000,-1.6875000000,0.8125000000,image480.jpg,96047.1667150000
4,50.8637238333,-0.0945475000,57.6000000000,5.6875000000,-1.6875000000,0.8125000000,image481.jpg,96247.4707150000
4,50.8637238333,-0.0945475000,57.6000000000,5.6875000000,-1.6875000000,0.8125000000,image482.jpg,96447.4865800000
4,50.8637238333,-0.0945475000,57.6000000000,5.6875000000,-1.6875000000,0.8125000000,image483.jpg,96647.6718250000
4,50.8637238333,-0.0945475000,57.6000000000,5.6875000000,-1.6875000000,0.8125000000,image484.jpg,96847.6091970000
4,50.8637238333,-0.0945475000,57.6000000000,5.6875000000,-1.6875000000,0.8125000000,image485.jpg,97046.8972220000
4,50.8637238333,-0.0945475000,57.6000000000,5.6875000000,-1.6875000000,0.8125000000,image486.jpg,97247.0015270000
4,50.8637238333,-0.0945475000,57.6000000000,5.6875000000,-1.6875000000,0.8125000000,image487.jpg,97448.2312380000
4,50.8637238333,-0.0945475000,57.6000000000,5.6875000000,-1.6875000000,0.8125000000,image488.jpg,97647.9011000000
4,50.8637238333,-0.0945475000,57.6000000000,5.6875000000,-1.6875000000,0.8125000000,image489.jpg,97848.2035890000
4,50.8637238333,-0.0945475000,57.6000000000,5.6875000000,-1.6875000000,0.8125000000,image490.jpg,98048.2520590000
4,50.8637238333,-0.0945475000,57.6000000000,5.6875000000,-1.6875000000,0.8125000000,image491.jpg,98248.2838090000
4,50.8637238333,-0.0945475000,57.6000000000,5.6875000000,-1.6875000000,0.8125000000,image492.jpg,98447.8031970000
4,50.8637238333,-0.0945475000,57.5000000000,5.6875000000,-1.6875000000,0.8125000000,image493.jpg,98647.5450410000
4,50.8637238333,-0.0945475000,57.6000000000,5.6875000000,-1.6875000000,0.8125000000,image494.jpg,98847.6270020000
4,50.8637238333,-0.0945475000,57.6000000000,5.6875000000,-1.6875000000,0.8125000000,image495.jpg,99048.0000140000
4,50.8637238333,-0.0945475000,57.6000000000,5.6875000000,-1.6875000000,0.8125000000,image496.jpg,99248.9071090000
4,50.8637238333,-0.0945475000,57.6000000000,5.6875000000,-1.6875000000,0.8125000000,image497.jpg,99448.8014580000
4,50.8637238333,-0.0945475000,57.6000000000,5.6875000000,-1.6875000000,0.8125000000,image498.jpg,99648.8914400000
4,50.8637238333,-0.0945475000,57.6000000000,5.6875000000,-1.6875000000,0.8125000000,image499.jpg,99848.7225060000
4,50.8637238333,-0.0945475000,57.6000000000,5.6875000000,-1.6875000000,0.8125000000,image500.jpg,100048.1718910000
4,50.8637238333,-0.0945475000,57.6000000000,5.6875000000,-1.6875000000,0.8125000000,image501.jpg,100248.1290030000
4,50.8637238333,-0.0945475000,57.6000000000,5.6875000000,-1.6875000000,0.8125000000,image502.jpg,100448.2788830000
4,50.8637238333,-0.0945475000,57.6000000000,5.6875000000,-1.6875000000,0.8125000000,image503.jpg,100648.8972690000
4,50.8637238333,-0.0945475000,57.6000000000,5.6875000000,-1.6875000000,0.8125000000,image504.jpg,100849.3060640000
4,50.8637238333,-0.0945475000,57.6000000000,5.6875000000,-1.6875000000,0.8125000000,image505.jpg,101049.4224010000
4,50.8637238333,-0.0945475000,57.6000000000,5.6875000000,-1.6875000000,0.8125000000,image506.jpg,101249.3943570000
4,50.8637238333,-0.0945475000,57.6000000000,5.6875000000,-1.6875000000,0.8125000000,image507.jpg,101448.9196830000
4,50.8637238333,-0.0945475000,57.6000000000,5.6875000000,-1.6875000000,0.8125000000,image508.jpg,101648.5890770000
4,50.8637238333,-0.0945475000,57.6000000000,5.6875000000,-1.6875000000,0.8125000000,image509.jpg,101848.8115630000
4,50.8637238333,-0.0945475000,57.6000000000,5.6875000000,-1.6875000000,0.8125000000,image510.jpg,102049.3262470000
4,50.8637238333,-0.0945475000,57.6000000000,5.6875000000,-1.6875000000,0.8125000000,image511.jpg,102249.8136390000
4,50.8637238333,-0.0945475000,57.6000000000,5.6875000000,-1.6875000000,0.8125000000,image512.jpg,102448.9786390000
4,50.8637238333,-0.0945475000,57.6000000000,5.6875000000,-1.6875000000,0.8125000000,image513.jpg,102649.0315880000
4,50.8637238333,-0.0945475000,57.6000000000,5.6875000000,-1.6875000000,0.8125000000,image514.jpg,102849.0819850000
4,50.8637238333,-0.0945475000,57.6000000000,5.6875000000,-1.6875000000,0.8125000000,image515.jpg,103049.1853010000
4,50.8637238333,-0.0945475000,57.6000000000,5.6875000000,-1.6875000000,0.8125000000,image516.jpg,103249.1783000000
4,50.8637238333,-0.0945475000,57.6000000000,5.6875000000,-1.6875000000,0.8125000000,image517.jpg,103449.8973140000
4,50.8637238333,-0.0945475000,57.6000000000,5.6875000000,-1.6875000000,0.8125000000,image518.jpg,103650.6459650000
4,50.8637238333,-0.0945475000,57.6000000000,5.6875000000,-1.6875000000,0.8125000000,image519.jpg,103850.5937020000
4,50.8637238333,-0.0945475000,57.6000000000,5.6875000000,-1.6875000000,0.8125000000,image520.jpg,104050.7316540000
