speed,steering angle,gps quality,lat,lon,altitude,roll,pitch,yaw,image name,timestamp
0.0549019612,0.0000000000,5,50.8680400000,-0.0982058333,68.9000000000,4.5000000000,-3.1250000000,359.9375000000,image0.jpg,103.7947400000
0.0078431377,0.0000000000,nan,nan,nan,nan,4.5000000000,-3.1250000000,359.9375000000,image1.jpg,165.4207820000
0.0392156877,0.0000000000,5,50.8680398333,-0.0982058333,68.9000000000,4.5000000000,-3.1250000000,359.9375000000,image2.jpg,231.6282820000
0.0078431377,0.0000000000,5,50.8680398333,-0.0982058333,68.9000000000,4.5000000000,-3.1250000000,359.9375000000,image3.jpg,364.9383860000
0.0392156877,0.0000000000,5,50.8680398333,-0.0982058333,68.9000000000,4.5000000000,-3.1250000000,359.9375000000,image4.jpg,431.0229690000
0.0549019612,1.0000000000,5,50.8680398333,-0.0982058333,68.9000000000,4.5000000000,-3.1250000000,359.9375000000,image5.jpg,563.1698440000
0.0235294122,0.0000000000,5,50.8680398333,-0.0982058333,68.9000000000,4.5000000000,-3.1250000000,359.9375000000,image6.jpg,631.2398960000
0.0392156877,1.0000000000,5,50.8680398333,-0.0982058333,68.9000000000,4.5000000000,-3.1250000000,359.9375000000,image7.jpg,763.6103130000
0.0392156877,0.0000000000,5,50.8680398333,-0.0982058333,68.9000000000,4.5000000000,-3.1250000000,359.9375000000,image8.jpg,831.3662500000
0.0392156877,0.0000000000,5,50.8680398333,-0.0982058333,68.9000000000,4.5000000000,-3.1250000000,359.9375000000,image9.jpg,973.5778650000
0.0470588244,1.0000000000,5,50.8680398333,-0.0982058333,68.9000000000,4.5000000000,-3.1250000000,359.9375000000,image10.jpg,1033.1860940000
0.0549019612,0.0000000000,5,50.8680398333,-0.0982058333,68.9000000000,4.5000000000,-3.1250000000,359.9375000000,image11.jpg,1169.1240100000
0.0470588244,0.0000000000,5,50.8680400000,-0.0982058333,68.9000000000,4.5000000000,-3.1250000000,359.9375000000,image12.jpg,1231.8919270000
-0.0078431377,0.0000000000,5,50.8680398333,-0.0982058333,68.9000000000,4.5000000000,-3.1250000000,359.9375000000,image13.jpg,1366.9201560000
0.0549019612,0.0000000000,5,50.8680400000,-0.0982058333,68.9000000000,4.5000000000,-3.1250000000,359.9375000000,image14.jpg,1432.1614060000
0.0156862754,0.0000000000,5,50.8680400000,-0.0982058333,68.9000000000,4.5000000000,-3.1250000000,359.9375000000,image15.jpg,1567.5949480000
0.0627451017,0.0000000000,5,50.8680398333,-0.0982058333,68.9000000000,4.5000000000,-3.1250000000,359.9375000000,image16.jpg,1632.1639580000
0.1333333403,1.0000000000,5,50.8680398333,-0.0982058333,68.9000000000,4.5000000000,-3.1250000000,359.9375000000,image17.jpg,1767.4551560000
0.0627451017,0.0000000000,5,50.8680398333,-0.0982058333,68.9000000000,4.5000000000,-3.1250000000,359.9375000000,image18.jpg,1831.2734370000
0.1098039225,1.0000000000,5,50.8680398333,-0.0982058333,68.9000000000,4.5000000000,-3.1250000000,359.9375000000,image19.jpg,1968.1864060000
0.1098039225,0.0000000000,5,50.8680398333,-0.0982058333,68.9000000000,4.5000000000,-3.1250000000,359.9375000000,image20.jpg,2031.0681770000
0.1019607857,0.0000000000,5,50.8680398333,-0.0982058333,68.9000000000,4.5000000000,-3.1250000000,359.9375000000,image21.jpg,2168.1626560000
0.1098039225,1.0000000000,5,50.8680398333,-0.0982060000,68.9000000000,4.5000000000,-3.1250000000,359.9375000000,image22.jpg,2231.1706250000
0.1411764771,0.0000000000,5,50.8680398333,-0.0982060000,68.9000000000,4.5000000000,-3.1250000000,359.9375000000,image23.jpg,2368.4264580000
0.1490196139,0.0000000000,5,50.8680398333,-0.0982060000,68.9000000000,4.5000000000,-3.1250000000,359.9375000000,image24.jpg,2435.8087500000
0.1176470593,1.0000000000,5,50.8680398333,-0.0982060000,68.9000000000,4.5000000000,-3.1250000000,359.9375000000,image25.jpg,2567.8947910000
0.1803921610,0.0000000000,5,50.8680398333,-0.0982060000,68.9000000000,4.5000000000,-3.1250000000,359.9375000000,image26.jpg,2634.9681770000
0.1411764771,0.0000000000,5,50.8680398333,-0.0982058333,68.9000000000,4.5000000000,-3.1250000000,359.9375000000,image27.jpg,2769.2596870000
0.1960784346,0.0000000000,5,50.8680398333,-0.0982058333,68.9000000000,4.5000000000,-3.1250000000,359.9375000000,image28.jpg,2834.9580200000
0.1803921610,0.0000000000,5,50.8680398333,-0.0982060000,68.9000000000,4.5000000000,-3.1250000000,359.9375000000,image29.jpg,2967.4489060000
0.0941176489,1.0000000000,5,50.8680398333,-0.0982060000,68.9000000000,4.5000000000,-3.1250000000,359.9375000000,image30.jpg,3035.3042180000
0.1882352978,0.0000000000,5,50.8680398333,-0.0982058333,68.9000000000,4.5000000000,-3.1250000000,359.9375000000,image31.jpg,3169.0957800000
0.2039215714,0.0000000000,5,50.8680398333,-0.0982058333,68.9000000000,4.5000000000,-3.1250000000,359.9375000000,image32.jpg,3238.5302600000
0.2745098174,0.0000000000,5,50.8680398333,-0.0982058333,68.9000000000,4.5000000000,-3.1250000000,359.9375000000,image33.jpg,3368.0938530000
0.2901960909,0.0000000000,5,50.8680398333,-0.0982060000,68.9000000000,4.5000000000,-3.0625000000,359.8125000000,image34.jpg,3436.7784890000
0.2745098174,0.0000000000,5,50.8680398333,-0.0982058333,68.9000000000,4.7500000000,-3.0000000000,359.6875000000,image35.jpg,3567.4915090000
0.2823529541,0.0000000000,5,50.8680398333,-0.0982060000,68.9000000000,4.8750000000,-3.0000000000,359.6875000000,image36.jpg,3635.9687490000
0.2745098174,1.0000000000,5,50.8680398333,-0.0982060000,68.9000000000,4.9375000000,-3.0000000000,359.6250000000,image37.jpg,3767.5368740000
0.4313725531,0.0000000000,5,50.8680398333,-0.0982060000,68.9000000000,5.0000000000,-3.0000000000,359.5625000000,image38.jpg,3836.3946340000
0.3294117749,0.0000000000,5,50.8680398333,-0.0982060000,68.9000000000,5.6250000000,-2.8750000000,359.3750000000,image39.jpg,3967.5355200000
0.3450980484,0.0000000000,5,50.8680396667,-0.0982060000,68.9000000000,6.0000000000,-2.9375000000,359.3750000000,image40.jpg,4035.6481240000
0.3294117749,0.0000000000,5,50.8680396667,-0.0982061667,68.9000000000,6.3750000000,-3.1250000000,359.1875000000,image41.jpg,4166.8765090000
0.2980392277,1.0000000000,5,50.8680395000,-0.0982061667,68.9000000000,6.4375000000,-3.1250000000,359.1250000000,image42.jpg,4234.9901030000
0.3372549117,0.0000000000,5,50.8680393333,-0.0982063333,68.9000000000,6.5000000000,-3.1875000000,359.2500000000,image43.jpg,4367.3920820000
0.3529411852,0.0000000000,5,50.8680393333,-0.0982063333,68.9000000000,6.4375000000,-3.3750000000,359.3125000000,image44.jpg,4434.9608840000
0.3294117749,0.0000000000,5,50.8680393333,-0.0982063333,68.9000000000,6.6250000000,-3.5000000000,359.4375000000,image45.jpg,4566.9889050000
0.3529411852,0.0000000000,5,50.8680391667,-0.0982065000,68.9000000000,6.9375000000,-3.6250000000,359.4375000000,image46.jpg,4635.0412490000
0.3529411852,0.0000000000,5,50.8680390000,-0.0982066667,68.9000000000,7.3125000000,-3.6875000000,359.3750000000,image47.jpg,4767.0123940000
0.4156862795,0.0000000000,5,50.8680386667,-0.0982065000,68.9000000000,7.3750000000,-3.6250000000,359.4375000000,image48.jpg,4835.8829150000
0.3921568692,2.0000000000,5,50.8680386667,-0.0982066667,68.9000000000,7.6250000000,-3.0625000000,359.5625000000,image49.jpg,4970.9169780000
0.3921568692,0.0000000000,5,50.8680386667,-0.0982070000,68.9000000000,7.5625000000,-2.5000000000,359.5000000000,image50.jpg,5035.1558320000
0.3843137324,-2.0000000000,5,50.8680385000,-0.0982071667,68.9000000000,5.8750000000,-2.6250000000,359.4375000000,image51.jpg,5171.9838010000
0.4156862795,-7.0000000000,5,50.8680383333,-0.0982076667,68.9000000000,5.0000000000,-2.8750000000,359.2500000000,image52.jpg,5234.8910400000
0.4078431427,-10.0000000000,5,50.8680381667,-0.0982081667,68.9000000000,4.0000000000,-2.1250000000,358.7500000000,image53.jpg,5371.0156750000
0.3764705956,-10.0000000000,5,50.8680380000,-0.0982086667,68.9000000000,4.3125000000,-1.8750000000,358.2500000000,image54.jpg,5435.0615610000
0.4078431427,-13.0000000000,5,50.8680380000,-0.0982090000,68.9000000000,5.3125000000,-0.9375000000,357.5625000000,image55.jpg,5571.5777590000
0.4156862795,-13.0000000000,5,50.8680376667,-0.0982090000,68.9000000000,5.8125000000,-1.0000000000,356.9375000000,image56.jpg,5635.1348940000
0.3764705956,-13.0000000000,5,50.8680375000,-0.0982091667,68.9000000000,6.1250000000,-1.4375000000,356.6875000000,image57.jpg,5771.8254670000
0.4156862795,-12.0000000000,5,50.8680373333,-0.0982091667,68.9000000000,6.1250000000,-1.5625000000,356.0625000000,image58.jpg,5836.7800500000
0.4235294163,-11.0000000000,5,50.8680370000,-0.0982095000,68.9000000000,4.8125000000,-2.7500000000,355.1875000000,image59.jpg,5978.2238520000
0.4627451003,-12.0000000000,nan,nan,nan,nan,4.6250000000,-3.2500000000,355.0000000000,image60.jpg,6035.0652590000
0.4627451003,-12.0000000000,5,50.8680366667,-0.0982096667,68.9000000000,5.0625000000,-3.6875000000,354.5000000000,image61.jpg,6102.8895810000
0.4784313738,-9.0000000000,5,50.8680365000,-0.0982096667,68.9000000000,4.8125000000,-5.0625000000,353.3125000000,image62.jpg,6239.0592170000
0.5098039508,-3.0000000000,5,50.8680361667,-0.0982100000,68.9000000000,3.1875000000,-5.3750000000,352.9375000000,image63.jpg,6303.3247380000
0.4862745106,0.0000000000,5,50.8680358333,-0.0982105000,68.9000000000,2.3125000000,-5.8125000000,352.8125000000,image64.jpg,6440.2452060000
0.4470588267,0.0000000000,5,50.8680355000,-0.0982110000,68.8000000000,4.1250000000,-5.8750000000,353.1875000000,image65.jpg,6503.8420290000
0.4705882370,3.0000000000,5,50.8680351667,-0.0982111667,68.9000000000,6.1875000000,-5.8750000000,352.6250000000,image66.jpg,6639.4492170000
0.4000000060,0.0000000000,5,50.8680350000,-0.0982113333,68.8000000000,5.9375000000,-6.3750000000,352.2500000000,image67.jpg,6703.7861440000
0.4784313738,0.0000000000,5,50.8680346667,-0.0982120000,68.8000000000,3.3750000000,-8.0625000000,352.0000000000,image68.jpg,6840.0776540000
0.4705882370,1.0000000000,5,50.8680343333,-0.0982123333,68.8000000000,2.3750000000,-8.7500000000,351.9375000000,image69.jpg,6903.6357790000
0.4705882370,0.0000000000,5,50.8680340000,-0.0982126667,68.8000000000,4.2500000000,-5.8125000000,352.1875000000,image70.jpg,7040.5216120000
0.4705882370,0.0000000000,5,50.8680336667,-0.0982130000,68.8000000000,5.8125000000,-5.5625000000,351.7500000000,image71.jpg,7102.8884350000
0.4705882370,0.0000000000,5,50.8680335000,-0.0982131667,68.8000000000,6.4375000000,-3.8125000000,351.3125000000,image72.jpg,7240.1909870000
0.4862745106,0.0000000000,2,50.8680333333,-0.0982135000,68.8000000000,6.3125000000,-4.4375000000,351.2500000000,image73.jpg,7303.8821330000
0.4156862795,0.0000000000,2,50.8680330000,-0.0982138333,68.8000000000,5.4375000000,-5.9375000000,351.1875000000,image74.jpg,7440.0349460000
0.4627451003,0.0000000000,2,50.8680326667,-0.0982141667,68.8000000000,3.5625000000,-7.4375000000,351.6250000000,image75.jpg,7502.8711430000
0.4549019635,0.0000000000,2,50.8680325000,-0.0982146667,68.8000000000,0.6875000000,-6.8750000000,352.0000000000,image76.jpg,7639.5605700000
0.4000000060,0.0000000000,5,50.8680321667,-0.0982150000,68.8000000000,1.1875000000,-5.7500000000,351.6250000000,image77.jpg,7706.5691120000
0.4705882370,1.0000000000,5,50.8680318333,-0.0982151667,68.8000000000,3.0625000000,-5.0000000000,351.9375000000,image78.jpg,7840.1370290000
0.4156862795,0.0000000000,5,50.8680315000,-0.0982155000,68.8000000000,4.4375000000,-5.3750000000,352.3125000000,image79.jpg,7906.8140600000
0.4549019635,0.0000000000,5,50.8680311667,-0.0982156667,68.8000000000,4.9375000000,-5.8125000000,352.8750000000,image80.jpg,8039.8448410000
0.4549019635,1.0000000000,5,50.8680310000,-0.0982158333,68.8000000000,4.3125000000,-6.0625000000,353.2500000000,image81.jpg,8106.5639560000
0.4705882370,0.0000000000,5,50.8680308333,-0.0982160000,68.8000000000,3.6875000000,-6.6875000000,353.2500000000,image82.jpg,8242.5622890000
0.4784313738,1.0000000000,5,50.8680305000,-0.0982163333,68.8000000000,2.8750000000,-5.7500000000,353.3750000000,image83.jpg,8307.6177060000
0.4862745106,1.0000000000,5,50.8680303333,-0.0982166667,68.7000000000,1.3750000000,-4.1875000000,352.0625000000,image84.jpg,8439.9291640000
0.4784313738,0.0000000000,5,50.8680301667,-0.0982171667,68.7000000000,-0.5625000000,-3.5625000000,351.5000000000,image85.jpg,8506.7574970000
0.4156862795,0.0000000000,5,50.8680298333,-0.0982178333,68.7000000000,-0.8750000000,-3.0625000000,352.8750000000,image86.jpg,8640.0594760000
0.4705882370,0.0000000000,5,50.8680296667,-0.0982181667,68.7000000000,0.8125000000,-2.6875000000,353.0000000000,image87.jpg,8706.5622370000
0.4705882370,0.0000000000,5,50.8680295000,-0.0982180000,68.7000000000,1.4375000000,-2.7500000000,353.3750000000,image88.jpg,8840.3555700000
0.3843137324,1.0000000000,5,50.8680293333,-0.0982183333,68.8000000000,1.1875000000,-3.0000000000,353.3125000000,image89.jpg,8907.8608820000
0.4941176474,0.0000000000,5,50.8680290000,-0.0982185000,68.7000000000,1.0000000000,-2.5625000000,353.8125000000,image90.jpg,9040.5931220000
0.3921568692,0.0000000000,5,50.8680288333,-0.0982188333,68.7000000000,1.8750000000,-1.5000000000,353.1875000000,image91.jpg,9106.7895800000
0.4784313738,0.0000000000,5,50.8680286667,-0.0982190000,68.7000000000,2.8125000000,-0.8125000000,352.5000000000,image92.jpg,9241.4350490000
0.4784313738,0.0000000000,5,50.8680285000,-0.0982193333,68.7000000000,2.1250000000,-1.2500000000,352.5625000000,image93.jpg,9307.0716640000
0.4784313738,0.0000000000,5,50.8680281667,-0.0982196667,68.7000000000,0.8125000000,-0.8125000000,353.5000000000,image94.jpg,9442.0889550000
0.4941176474,0.0000000000,5,50.8680278333,-0.0982200000,68.7000000000,1.9375000000,-0.1250000000,353.3750000000,image95.jpg,9506.7606740000
0.4784313738,0.0000000000,5,50.8680278333,-0.0982201667,68.7000000000,4.1875000000,0.5625000000,353.0000000000,image96.jpg,9640.2451010000
0.4784313738,0.0000000000,5,50.8680275000,-0.0982201667,68.7000000000,4.8750000000,0.8750000000,352.8125000000,image97.jpg,9706.8187470000
0.4470588267,0.0000000000,5,50.8680273333,-0.0982203333,68.7000000000,5.8750000000,1.0625000000,352.6250000000,image98.jpg,9839.7390070000
0.4862745106,0.0000000000,5,50.8680270000,-0.0982203333,68.7000000000,5.8125000000,1.0000000000,353.0000000000,image99.jpg,9907.0286950000
0.4862745106,0.0000000000,5,50.8680268333,-0.0982205000,68.7000000000,5.3125000000,0.9375000000,352.9375000000,image100.jpg,10040.0570800000
0.4784313738,1.0000000000,5,50.8680265000,-0.0982206667,68.7000000000,4.6875000000,1.1875000000,352.7500000000,image101.jpg,10106.9897880000
0.5647059083,0.0000000000,5,50.8680263333,-0.0982208333,68.7000000000,4.3750000000,-0.2500000000,353.2500000000,image102.jpg,10244.9028610000
0.5568627715,0.0000000000,5,50.8680261667,-0.0982211667,68.7000000000,5.8750000000,-2.0625000000,353.3750000000,image103.jpg,10306.8119240000
0.5254902244,0.0000000000,5,50.8680256667,-0.0982215000,68.7000000000,5.6250000000,-4.0000000000,352.0625000000,image104.jpg,10443.2899440000
0.5568627715,0.0000000000,5,50.8680251667,-0.0982218333,68.7000000000,3.5000000000,-4.3750000000,351.6250000000,image105.jpg,10506.6514550000
0.5411764979,0.0000000000,5,50.8680250000,-0.0982225000,68.7000000000,6.0625000000,-5.4375000000,353.0625000000,image106.jpg,10644.1628090000
0.5725490451,1.0000000000,5,50.8680246667,-0.0982226667,68.7000000000,8.6875000000,-5.8125000000,352.9375000000,image107.jpg,10706.8052570000
0.5568627715,4.0000000000,5,50.8680241667,-0.0982225000,68.7000000000,6.4375000000,-5.6875000000,352.1875000000,image108.jpg,10843.8472880000
0.5176470876,4.0000000000,5,50.8680240000,-0.0982228333,68.7000000000,5.2500000000,-5.0625000000,352.1250000000,image109.jpg,10907.4908820000
0.5176470876,4.0000000000,5,50.8680238333,-0.0982233333,68.7000000000,6.6250000000,-4.6875000000,352.1250000000,image110.jpg,11049.6740070000
0.5568627715,1.0000000000,5,50.8680235000,-0.0982236667,68.7000000000,7.3750000000,-3.7500000000,352.0625000000,image111.jpg,11108.2477570000
0.5725490451,0.0000000000,5,50.8680230000,-0.0982240000,68.7000000000,7.5000000000,-1.1250000000,352.3125000000,image112.jpg,11245.3448920000
0.5333333611,1.0000000000,5,50.8680228333,-0.0982243333,68.7000000000,6.8125000000,-0.8125000000,351.6875000000,image113.jpg,11308.0312460000
0.5568627715,0.0000000000,5,50.8680225000,-0.0982248333,68.7000000000,4.6875000000,0.5625000000,351.5625000000,image114.jpg,11445.9524960000
0.5254902244,0.0000000000,5,50.8680221667,-0.0982251667,68.7000000000,4.8750000000,1.8125000000,352.0000000000,image115.jpg,11512.1865060000
0.5254902244,3.0000000000,5,50.8680220000,-0.0982253333,68.7000000000,5.1250000000,0.5625000000,350.8750000000,image116.jpg,11645.8316630000
0.5568627715,4.0000000000,5,50.8680216667,-0.0982255000,68.7000000000,5.1250000000,-0.1875000000,350.8125000000,image117.jpg,11711.9821310000
0.5176470876,5.0000000000,5,50.8680215000,-0.0982260000,68.7000000000,6.1250000000,-0.3750000000,350.9375000000,image118.jpg,11846.4497880000
0.5568627715,7.0000000000,5,50.8680211667,-0.0982265000,68.7000000000,6.1875000000,-0.0625000000,351.1875000000,image119.jpg,11912.5703600000
0.5568627715,9.0000000000,5,50.8680208333,-0.0982265000,68.7000000000,6.6250000000,0.8750000000,351.1875000000,image120.jpg,12046.2173920000
0.5254902244,8.0000000000,5,50.8680206667,-0.0982268333,68.7000000000,6.1875000000,1.4375000000,351.1875000000,image121.jpg,12112.7486420000
0.5568627715,8.0000000000,5,50.8680203333,-0.0982271667,68.7000000000,5.3125000000,2.3125000000,351.1875000000,image122.jpg,12245.3701000000
0.5490196347,7.0000000000,5,50.8680201667,-0.0982275000,68.7000000000,5.8125000000,2.5625000000,351.1875000000,image123.jpg,12312.3561940000
0.5490196347,1.0000000000,5,50.8680200000,-0.0982278333,68.7000000000,5.7500000000,1.8750000000,351.4375000000,image124.jpg,12444.5918190000
0.5490196347,3.0000000000,5,50.8680196667,-0.0982285000,68.7000000000,5.0000000000,2.1250000000,351.8125000000,image125.jpg,12512.9578600000
0.5490196347,0.0000000000,5,50.8680193333,-0.0982286667,68.7000000000,5.9375000000,3.8125000000,351.6875000000,image126.jpg,12646.2729120000
0.5490196347,0.0000000000,5,50.8680190000,-0.0982290000,68.7000000000,6.0625000000,3.2500000000,351.6250000000,image127.jpg,12711.7174960000
0.4705882370,2.0000000000,5,50.8680188333,-0.0982291667,68.7000000000,3.3750000000,2.3125000000,351.6875000000,image128.jpg,12844.9188500000
0.5647059083,3.0000000000,5,50.8680185000,-0.0982296667,68.7000000000,2.5625000000,2.5000000000,351.4375000000,image129.jpg,12911.4319230000
0.5490196347,4.0000000000,5,50.8680183333,-0.0982300000,68.7000000000,3.5000000000,2.0625000000,351.0000000000,image130.jpg,13045.3801520000
0.5568627715,5.0000000000,5,50.8680180000,-0.0982300000,68.7000000000,3.8125000000,1.6250000000,350.8750000000,image131.jpg,13111.7703600000
0.5490196347,7.0000000000,5,50.8680176667,-0.0982305000,68.7000000000,5.2500000000,1.8750000000,350.8750000000,image132.jpg,13247.2801000000
0.5019608140,6.0000000000,5,50.8680173333,-0.0982306667,68.7000000000,5.4375000000,2.7500000000,350.6875000000,image133.jpg,13313.7620270000
0.5647059083,6.0000000000,5,50.8680171667,-0.0982306667,68.7000000000,4.1250000000,4.3125000000,350.8750000000,image134.jpg,13444.9243180000
0.5647059083,6.0000000000,5,50.8680170000,-0.0982311667,68.7000000000,3.3125000000,4.1875000000,351.0000000000,image135.jpg,13511.0249430000
0.5568627715,6.0000000000,5,50.8680168333,-0.0982315000,68.7000000000,4.6875000000,0.7500000000,351.7500000000,image136.jpg,13645.9235370000
0.5647059083,8.0000000000,5,50.8680163333,-0.0982318333,68.7000000000,3.8125000000,0.3750000000,351.3125000000,image137.jpg,13710.9029120000
0.5647059083,10.0000000000,5,50.8680160000,-0.0982320000,68.7000000000,3.0625000000,0.0000000000,351.4375000000,image138.jpg,13843.7556720000
0.5647059083,11.0000000000,5,50.8680155000,-0.0982325000,68.7000000000,2.9375000000,0.1250000000,351.6875000000,image139.jpg,13911.5269740000
0.5254902244,14.0000000000,5,50.8680153333,-0.0982326667,68.7000000000,4.1250000000,0.1875000000,352.3125000000,image140.jpg,14043.8352550000
0.5647059083,15.0000000000,5,50.8680150000,-0.0982330000,68.7000000000,4.8125000000,0.3750000000,352.4375000000,image141.jpg,14111.9509850000
0.5098039508,19.0000000000,5,50.8680146667,-0.0982331667,68.7000000000,4.6875000000,-0.2500000000,352.4375000000,image142.jpg,14249.1121300000
0.5647059083,22.0000000000,5,50.8680143333,-0.0982335000,68.7000000000,3.7500000000,-0.5000000000,352.7500000000,image143.jpg,14311.9670260000
0.5647059083,24.0000000000,5,50.8680143333,-0.0982340000,68.7000000000,1.5625000000,-0.6875000000,354.8125000000,image144.jpg,14448.0871300000
0.4784313738,25.0000000000,5,50.8680140000,-0.0982346667,68.7000000000,2.2500000000,1.8750000000,356.3750000000,image145.jpg,14511.7189010000
0.5803921819,23.0000000000,5,50.8680138333,-0.0982346667,68.7000000000,3.7500000000,2.8750000000,358.3750000000,image146.jpg,14647.5913490000
0.5803921819,21.0000000000,5,50.8680136667,-0.0982350000,68.7000000000,4.5625000000,2.1875000000,359.3750000000,image147.jpg,14712.0735890000
0.5803921819,1.0000000000,5,50.8680131667,-0.0982355000,68.7000000000,0.6875000000,2.6250000000,0.6250000000,image148.jpg,14847.3527030000
0.5803921819,-1.0000000000,5,50.8680130000,-0.0982363333,68.7000000000,-1.3125000000,3.0000000000,1.6250000000,image149.jpg,14911.3297860000
0.5803921819,0.0000000000,5,50.8680130000,-0.0982366667,68.7000000000,-3.6875000000,2.1875000000,1.2500000000,image150.jpg,15048.8087970000
0.5803921819,0.0000000000,5,50.8680128333,-0.0982368333,68.7000000000,-4.7500000000,2.0625000000,1.2500000000,image151.jpg,15111.2942650000
0.5019608140,1.0000000000,5,50.8680125000,-0.0982373333,68.7000000000,-1.3750000000,1.8125000000,1.1250000000,image152.jpg,15247.5896820000
0.5960784554,0.0000000000,5,50.8680121667,-0.0982380000,68.7000000000,1.3750000000,1.1875000000,0.2500000000,image153.jpg,15310.9412450000
0.5960784554,9.0000000000,5,50.8680116667,-0.0982383333,68.7000000000,1.1875000000,0.4375000000,0.4375000000,image154.jpg,15447.7477030000
0.5960784554,15.0000000000,5,50.8680115000,-0.0982388333,68.7000000000,0.6875000000,0.6875000000,0.5000000000,image155.jpg,15511.5345780000
0.6274510026,22.0000000000,5,50.8680111667,-0.0982391667,68.7000000000,-0.0625000000,2.5625000000,1.0000000000,image156.jpg,15648.0820780000
0.6039215922,24.0000000000,5,50.8680111667,-0.0982395000,68.7000000000,-0.3750000000,2.1875000000,1.0625000000,image157.jpg,15714.7501510000
0.6274510026,23.0000000000,5,50.8680108333,-0.0982398333,68.7000000000,-0.5000000000,-0.2500000000,1.3750000000,image158.jpg,15848.3931710000
0.6274510026,23.0000000000,5,50.8680105000,-0.0982403333,68.7000000000,-2.0625000000,0.7500000000,2.1875000000,image159.jpg,15914.6081710000
0.5882353187,25.0000000000,5,50.8680103333,-0.0982408333,68.7000000000,-1.7500000000,3.3750000000,5.9375000000,image160.jpg,16052.0024940000
0.6274510026,25.0000000000,5,50.8680101667,-0.0982411667,68.7000000000,1.6875000000,3.0625000000,7.2500000000,image161.jpg,16115.6650460000
0.6274510026,22.0000000000,5,50.8680098333,-0.0982416667,68.7000000000,2.0625000000,4.8125000000,8.8750000000,image162.jpg,16250.1892130000
0.6274510026,18.0000000000,5,50.8680096667,-0.0982421667,68.7000000000,2.5000000000,5.3750000000,10.1875000000,image163.jpg,16316.7985360000
0.5882353187,12.0000000000,5,50.8680095000,-0.0982423333,68.7000000000,3.1250000000,4.2500000000,11.1875000000,image164.jpg,16447.8339000000
0.5960784554,11.0000000000,5,50.8680091667,-0.0982428333,68.7000000000,2.0000000000,2.1250000000,12.1875000000,image165.jpg,16516.3731710000
0.6274510026,14.0000000000,5,50.8680091667,-0.0982433333,68.7000000000,1.0625000000,-0.4375000000,11.7500000000,image166.jpg,16647.7953070000
0.6274510026,18.0000000000,5,50.8680088333,-0.0982441667,68.7000000000,0.6250000000,0.1875000000,11.9375000000,image167.jpg,16716.5371290000
0.6352941394,19.0000000000,5,50.8680086667,-0.0982446667,68.7000000000,1.1875000000,0.4375000000,13.0625000000,image168.jpg,16848.3248900000
0.5882353187,21.0000000000,5,50.8680083333,-0.0982453333,68.7000000000,1.6250000000,0.9375000000,13.5625000000,image169.jpg,16916.1439520000
0.6274510026,19.0000000000,5,50.8680081667,-0.0982458333,68.7000000000,0.8125000000,0.7500000000,14.0625000000,image170.jpg,17048.6870250000
0.6274510026,17.0000000000,5,50.8680080000,-0.0982460000,68.7000000000,0.6875000000,0.3125000000,15.0000000000,image171.jpg,17115.7945770000
0.5882353187,14.0000000000,5,50.8680076667,-0.0982465000,68.7000000000,2.2500000000,0.6875000000,17.8125000000,image172.jpg,17248.0976500000
0.6274510026,12.0000000000,5,50.8680073333,-0.0982468333,68.7000000000,4.0000000000,1.5625000000,18.9375000000,image173.jpg,17316.3269730000
0.6274510026,10.0000000000,5,50.8680071667,-0.0982476667,68.7000000000,4.6250000000,1.0625000000,19.5625000000,image174.jpg,17449.0001500000
0.6274510026,14.0000000000,5,50.8680070000,-0.0982485000,68.7000000000,3.8125000000,1.0000000000,19.1250000000,image175.jpg,17515.1007750000
0.6274510026,19.0000000000,5,50.8680068333,-0.0982491667,68.7000000000,2.5625000000,-0.3750000000,21.1250000000,image176.jpg,17647.6666080000
0.5882353187,17.0000000000,5,50.8680065000,-0.0982503333,68.7000000000,2.4375000000,-0.6250000000,19.9375000000,image177.jpg,17715.4002540000
0.6274510026,16.0000000000,5,50.8680063333,-0.0982513333,68.7000000000,-0.3125000000,0.0000000000,21.1250000000,image178.jpg,17847.7050460000
0.6274510026,18.0000000000,5,50.8680063333,-0.0982521667,68.7000000000,0.5000000000,0.4375000000,22.3750000000,image179.jpg,17916.1227540000
0.6274510026,18.0000000000,5,50.8680061667,-0.0982531667,68.7000000000,3.8750000000,0.3125000000,24.4375000000,image180.jpg,18048.0872850000
0.6274510026,21.0000000000,5,50.8680058333,-0.0982538333,68.7000000000,3.7500000000,1.0000000000,25.3750000000,image181.jpg,18115.2359310000
0.6274510026,19.0000000000,5,50.8680056667,-0.0982545000,68.7000000000,2.6875000000,0.8125000000,26.2500000000,image182.jpg,18252.9580140000
0.6274510026,19.0000000000,5,50.8680056667,-0.0982553333,68.7000000000,2.2500000000,1.8125000000,27.3125000000,image183.jpg,18317.3293160000
0.5882353187,14.0000000000,5,50.8680056667,-0.0982561667,68.7000000000,1.6250000000,0.0000000000,27.8750000000,image184.jpg,18451.3645250000
0.6352941394,12.0000000000,5,50.8680055000,-0.0982566667,68.7000000000,1.1250000000,1.1250000000,28.5000000000,image185.jpg,18514.0690560000
0.6274510026,-1.0000000000,5,50.8680055000,-0.0982573333,68.7000000000,1.4375000000,2.4375000000,29.8125000000,image186.jpg,18653.0789520000
0.5411764979,-2.0000000000,5,50.8680053333,-0.0982580000,68.7000000000,1.4375000000,2.2500000000,30.1250000000,image187.jpg,18715.2985870000
0.6274510026,-4.0000000000,5,50.8680051667,-0.0982586667,68.7000000000,1.4375000000,3.0000000000,29.7500000000,image188.jpg,18852.4901490000
0.5725490451,-4.0000000000,5,50.8680050000,-0.0982591667,68.7000000000,1.3125000000,3.3125000000,28.3125000000,image189.jpg,18915.2230660000
0.6352941394,0.0000000000,5,50.8680050000,-0.0982596667,68.7000000000,1.0000000000,3.0000000000,28.3750000000,image190.jpg,19053.3205660000
0.6274510026,1.0000000000,5,50.8680048333,-0.0982605000,68.7000000000,2.0625000000,2.5625000000,27.8750000000,image191.jpg,19115.5593160000
0.6274510026,0.0000000000,5,50.8680045000,-0.0982610000,68.7000000000,2.7500000000,3.7500000000,27.7500000000,image192.jpg,19251.9922330000
0.6352941394,4.0000000000,5,50.8680045000,-0.0982615000,68.7000000000,3.9375000000,4.3125000000,27.7500000000,image193.jpg,19315.6939510000
0.6666666865,10.0000000000,5,50.8680043333,-0.0982621667,68.8000000000,2.2500000000,5.1250000000,27.1250000000,image194.jpg,19453.4357740000
0.6666666865,16.0000000000,5,50.8680043333,-0.0982625000,68.8000000000,0.9375000000,5.1875000000,27.7500000000,image195.jpg,19515.0400970000
0.6352941394,21.0000000000,5,50.8680041667,-0.0982631667,68.8000000000,1.8750000000,3.8750000000,28.4375000000,image196.jpg,19650.5216600000
0.6745098233,22.0000000000,5,50.8680038333,-0.0982638333,68.8000000000,2.6875000000,4.1875000000,29.3750000000,image197.jpg,19719.5856180000
0.6666666865,24.0000000000,5,50.8680036667,-0.0982643333,68.8000000000,4.8125000000,4.5625000000,31.0000000000,image198.jpg,19855.1516070000
0.6745098233,25.0000000000,5,50.8680035000,-0.0982651667,68.8000000000,4.0625000000,3.8750000000,32.1250000000,image199.jpg,19919.7864510000
0.6745098233,26.0000000000,5,50.8680033333,-0.0982658333,68.8000000000,2.5000000000,2.0000000000,35.7500000000,image200.jpg,20053.0849930000
0.6196078658,25.0000000000,5,50.8680033333,-0.0982666667,68.8000000000,2.6250000000,1.6250000000,35.9375000000,image201.jpg,20120.0569720000
0.6901960969,24.0000000000,5,50.8680035000,-0.0982671667,68.8000000000,2.0625000000,4.0625000000,38.5000000000,image202.jpg,20253.2028570000
0.6745098233,24.0000000000,5,50.8680035000,-0.0982680000,68.8000000000,0.8125000000,3.6875000000,39.0000000000,image203.jpg,20319.1419720000
0.6745098233,21.0000000000,5,50.8680033333,-0.0982688333,68.8000000000,-0.5625000000,3.5625000000,40.2500000000,image204.jpg,20453.1405660000
0.6745098233,16.0000000000,5,50.8680035000,-0.0982691667,68.8000000000,-0.3125000000,3.8750000000,41.0000000000,image205.jpg,20520.7622320000
0.6745098233,12.0000000000,5,50.8680035000,-0.0982695000,68.8000000000,0.8750000000,3.4375000000,42.5000000000,image206.jpg,20652.5159820000
0.6666666865,8.0000000000,5,50.8680033333,-0.0982703333,68.8000000000,0.0625000000,4.5000000000,43.4375000000,image207.jpg,20719.5139510000
0.5803921819,8.0000000000,5,50.8680033333,-0.0982710000,68.8000000000,-0.5625000000,4.6250000000,44.3125000000,image208.jpg,20853.0969200000
0.6666666865,7.0000000000,5,50.8680035000,-0.0982715000,68.8000000000,0.0625000000,5.0625000000,44.9375000000,image209.jpg,20919.5075450000
0.6588235497,14.0000000000,5,50.8680033333,-0.0982721667,68.8000000000,1.0000000000,3.8125000000,45.6875000000,image210.jpg,21053.5911900000
0.6588235497,18.0000000000,5,50.8680035000,-0.0982726667,68.8000000000,2.3125000000,4.0000000000,45.6250000000,image211.jpg,21119.7334820000
0.6588235497,21.0000000000,2,50.8680033333,-0.0982733333,68.8000000000,1.4375000000,4.3125000000,46.7500000000,image212.jpg,21253.2639510000
0.5803921819,22.0000000000,2,50.8680033333,-0.0982738333,68.8000000000,2.1875000000,4.3750000000,47.8750000000,image213.jpg,21321.0896800000
0.6509804130,20.0000000000,2,50.8680033333,-0.0982745000,68.8000000000,4.6250000000,4.0625000000,48.6250000000,image214.jpg,21454.5220230000
0.6509804130,17.0000000000,2,50.8680033333,-0.0982751667,68.8000000000,4.9375000000,4.3750000000,49.5000000000,image215.jpg,21520.1677530000
0.6588235497,9.0000000000,2,50.8680033333,-0.0982758333,68.8000000000,1.6250000000,4.3125000000,50.8125000000,image216.jpg,21651.8765030000
0.6588235497,12.0000000000,5,50.8680033333,-0.0982765000,68.8000000000,1.1250000000,4.3125000000,51.6250000000,image217.jpg,21719.8658250000
0.6666666865,22.0000000000,5,50.8680035000,-0.0982771667,68.8000000000,3.5625000000,3.2500000000,53.5625000000,image218.jpg,21852.2008250000
0.6588235497,27.0000000000,5,50.8680035000,-0.0982780000,68.8000000000,4.2500000000,2.0000000000,54.0000000000,image219.jpg,21920.2433250000
0.6196078658,31.0000000000,5,50.8680033333,-0.0982786667,68.8000000000,3.2500000000,2.3750000000,55.6875000000,image220.jpg,22052.0824400000
0.6509804130,33.0000000000,5,50.8680035000,-0.0982795000,68.8000000000,2.1875000000,3.3750000000,56.8750000000,image221.jpg,22120.5333250000
0.6588235497,33.0000000000,5,50.8680036667,-0.0982801667,68.8000000000,2.1250000000,4.1250000000,59.5000000000,image222.jpg,22255.5804610000
0.6588235497,34.0000000000,5,50.8680038333,-0.0982806667,68.8000000000,3.3125000000,3.7500000000,60.8750000000,image223.jpg,22320.3173880000
0.6666666865,34.0000000000,5,50.8680036667,-0.0982813333,68.8000000000,3.8125000000,5.1875000000,62.2500000000,image224.jpg,22455.3256690000
0.6274510026,33.0000000000,5,50.8680038333,-0.0982820000,68.8000000000,3.7500000000,6.3125000000,63.1875000000,image225.jpg,22520.3950960000
0.6274510026,34.0000000000,5,50.8680041667,-0.0982821667,68.8000000000,4.6250000000,4.7500000000,66.6250000000,image226.jpg,22655.7698880000
0.6588235497,34.0000000000,5,50.8680041667,-0.0982830000,68.8000000000,2.9375000000,4.0000000000,67.8125000000,image227.jpg,22719.3039500000
0.6274510026,31.0000000000,5,50.8680045000,-0.0982836667,68.8000000000,3.2500000000,3.1250000000,70.5000000000,image228.jpg,22857.0528040000
0.6588235497,24.0000000000,5,50.8680048333,-0.0982841667,68.8000000000,4.7500000000,4.0000000000,72.2500000000,image229.jpg,22919.4656690000
0.6588235497,21.0000000000,5,50.8680048333,-0.0982845000,68.8000000000,5.0000000000,4.1250000000,73.5625000000,image230.jpg,23057.2381170000
0.6274510026,16.0000000000,5,50.8680048333,-0.0982846667,68.8000000000,2.8750000000,3.0000000000,75.2500000000,image231.jpg,23119.6085330000
0.6431372762,19.0000000000,5,50.8680051667,-0.0982853333,68.8000000000,4.5625000000,0.8125000000,78.6875000000,image232.jpg,23259.0430120000
0.6588235497,19.0000000000,5,50.8680053333,-0.0982861667,68.8000000000,5.3750000000,1.1250000000,78.7500000000,image233.jpg,23321.9593140000
0.6588235497,21.0000000000,5,50.8680055000,-0.0982865000,68.8000000000,1.0000000000,2.6875000000,80.4375000000,image234.jpg,23455.5671270000
0.6588235497,23.0000000000,5,50.8680058333,-0.0982866667,68.8000000000,-0.1875000000,2.3125000000,81.3125000000,image235.jpg,23520.3609810000
0.6509804130,21.0000000000,5,50.8680063333,-0.0982875000,68.8000000000,-0.5000000000,2.4375000000,83.7500000000,image236.jpg,23657.4696270000
0.6509804130,21.0000000000,5,50.8680066667,-0.0982881667,68.8000000000,0.6875000000,2.6250000000,84.4375000000,image237.jpg,23723.5221790000
0.6274510026,21.0000000000,5,50.8680068333,-0.0982886667,68.8000000000,0.7500000000,3.1875000000,85.8750000000,image238.jpg,23855.9455640000
0.6509804130,22.0000000000,5,50.8680071667,-0.0982890000,68.8000000000,0.3125000000,2.7500000000,86.8125000000,image239.jpg,23923.6830640000
0.6196078658,22.0000000000,5,50.8680076667,-0.0982898333,68.8000000000,0.8125000000,2.1250000000,88.8750000000,image240.jpg,24055.2517100000
0.6666666865,22.0000000000,5,50.8680080000,-0.0982905000,68.8000000000,0.0625000000,1.6875000000,89.2500000000,image241.jpg,24124.3284810000
0.6509804130,23.0000000000,5,50.8680083333,-0.0982908333,68.8000000000,0.6250000000,3.4375000000,90.9375000000,image242.jpg,24255.7958250000
0.6196078658,21.0000000000,5,50.8680085000,-0.0982913333,68.8000000000,-1.4375000000,2.8750000000,91.8125000000,image243.jpg,24324.3636370000
0.6509804130,23.0000000000,5,50.8680090000,-0.0982916667,68.8000000000,-1.0625000000,2.4375000000,94.5625000000,image244.jpg,24456.4587410000
0.6509804130,20.0000000000,5,50.8680095000,-0.0982925000,68.8000000000,0.0000000000,1.3750000000,95.8750000000,image245.jpg,24524.3813970000
0.6666666865,18.0000000000,5,50.8680096667,-0.0982930000,68.8000000000,2.5625000000,0.3125000000,97.2500000000,image246.jpg,24655.3892100000
0.6509804130,19.0000000000,5,50.8680101667,-0.0982938333,68.8000000000,1.4375000000,1.1875000000,98.3125000000,image247.jpg,24724.5132720000
0.6509804130,19.0000000000,5,50.8680106667,-0.0982941667,68.8000000000,0.7500000000,0.0625000000,99.8125000000,image248.jpg,24856.0929600000
0.6509804130,19.0000000000,5,50.8680110000,-0.0982943333,68.8000000000,0.3750000000,0.6875000000,100.7500000000,image249.jpg,24924.2578030000
0.5960784554,21.0000000000,5,50.8680111667,-0.0982948333,68.8000000000,1.6875000000,2.1875000000,101.8125000000,image250.jpg,25055.5080640000
0.6509804130,21.0000000000,5,50.8680115000,-0.0982951667,68.8000000000,1.6250000000,2.6875000000,103.3125000000,image251.jpg,25123.4084280000
0.6039215922,20.0000000000,5,50.8680120000,-0.0982956667,68.8000000000,2.5625000000,3.6875000000,105.0625000000,image252.jpg,25254.7969180000
0.6509804130,20.0000000000,5,50.8680125000,-0.0982960000,68.8000000000,3.1875000000,3.3750000000,106.0000000000,image253.jpg,25323.4945740000
0.6509804130,21.0000000000,5,50.8680128333,-0.0982963333,68.8000000000,2.0625000000,3.6250000000,107.5625000000,image254.jpg,25455.4203030000
0.6039215922,19.0000000000,5,50.8680131667,-0.0982966667,68.8000000000,1.3125000000,3.3750000000,108.4375000000,image255.jpg,25523.5700430000
0.6509804130,18.0000000000,5,50.8680138333,-0.0982968333,68.8000000000,-0.8125000000,2.6250000000,110.2500000000,image256.jpg,25655.9650430000
0.6509804130,16.0000000000,5,50.8680141667,-0.0982971667,68.8000000000,0.1250000000,3.1875000000,111.3125000000,image257.jpg,25724.3476990000
0.6509804130,15.0000000000,5,50.8680145000,-0.0982971667,68.8000000000,1.4375000000,2.2500000000,112.3750000000,image258.jpg,25856.0196780000
0.6509804130,16.0000000000,5,50.8680148333,-0.0982976667,68.8000000000,2.0625000000,2.1250000000,113.5625000000,image259.jpg,25924.4565530000
0.6509804130,14.0000000000,5,50.8680153333,-0.0982978333,68.8000000000,3.6875000000,2.6875000000,114.3750000000,image260.jpg,26056.4613450000
0.6588235497,14.0000000000,5,50.8680156667,-0.0982983333,68.8000000000,2.8125000000,3.4375000000,114.8750000000,image261.jpg,26124.6311880000
0.6039215922,15.0000000000,5,50.8680161667,-0.0982985000,68.8000000000,-0.8125000000,3.8125000000,116.0625000000,image262.jpg,26259.1813970000
0.6666666865,13.0000000000,5,50.8680166667,-0.0982981667,68.8000000000,0.1875000000,5.2500000000,117.1250000000,image263.jpg,26324.4198860000
0.5647059083,13.0000000000,5,50.8680170000,-0.0982986667,68.8000000000,2.5625000000,5.3125000000,117.5000000000,image264.jpg,26458.8722300000
0.6588235497,10.0000000000,5,50.8680175000,-0.0982991667,68.8000000000,2.3750000000,5.8125000000,117.8125000000,image265.jpg,26524.3001990000
0.6588235497,8.0000000000,5,50.8680176667,-0.0982991667,68.8000000000,2.9375000000,4.8125000000,119.3125000000,image266.jpg,26659.3993650000
0.5725490451,7.0000000000,5,50.8680183333,-0.0982995000,68.8000000000,2.0625000000,4.3750000000,119.5625000000,image267.jpg,26723.2063440000
0.6588235497,1.0000000000,5,50.8680188333,-0.0982996667,68.8000000000,0.5625000000,2.9375000000,119.1875000000,image268.jpg,26860.1745210000
0.6745098233,0.0000000000,5,50.8680193333,-0.0982998333,68.8000000000,0.5625000000,2.9375000000,120.1875000000,image269.jpg,26923.3332190000
0.6666666865,-1.0000000000,5,50.8680198333,-0.0983000000,68.8000000000,0.8750000000,1.4375000000,120.4375000000,image270.jpg,27059.2104590000
0.6588235497,-2.0000000000,5,50.8680201667,-0.0983005000,68.8000000000,1.5000000000,2.2500000000,119.8750000000,image271.jpg,27123.7286360000
0.6588235497,-2.0000000000,5,50.8680205000,-0.0983006667,68.8000000000,0.5625000000,2.0625000000,118.9375000000,image272.jpg,27259.8270210000
0.6588235497,-1.0000000000,5,50.8680210000,-0.0983008333,68.8000000000,-0.2500000000,2.1875000000,119.5000000000,image273.jpg,27324.1566050000
0.5803921819,1.0000000000,5,50.8680215000,-0.0983011667,68.8000000000,0.1875000000,1.3750000000,118.7500000000,image274.jpg,27459.4104070000
0.6588235497,0.0000000000,5,50.8680218333,-0.0983013333,68.8000000000,-0.5000000000,0.8750000000,118.7500000000,image275.jpg,27527.4008750000
0.6274510026,0.0000000000,5,50.8680225000,-0.0983018333,68.8000000000,-0.9375000000,2.5625000000,117.8750000000,image276.jpg,27659.6838440000
0.6588235497,0.0000000000,5,50.8680230000,-0.0983020000,68.8000000000,-1.8750000000,0.9375000000,118.4375000000,image277.jpg,27727.5447820000
0.6588235497,0.0000000000,5,50.8680233333,-0.0983021667,68.7000000000,-0.1250000000,2.0625000000,118.1250000000,image278.jpg,27859.7876460000
0.6274510026,1.0000000000,5,50.8680238333,-0.0983023333,68.7000000000,0.6875000000,2.1875000000,117.8750000000,image279.jpg,27928.1260310000
0.6588235497,-1.0000000000,5,50.8680241667,-0.0983026667,68.7000000000,-1.7500000000,1.7500000000,117.6250000000,image280.jpg,28059.7744170000
0.6509804130,-1.0000000000,5,50.8680245000,-0.0983028333,68.7000000000,-2.5000000000,1.8750000000,118.2500000000,image281.jpg,28127.6379580000
0.6196078658,0.0000000000,5,50.8680248333,-0.0983030000,68.7000000000,0.3750000000,3.5000000000,119.6250000000,image282.jpg,28260.9641040000
0.6588235497,0.0000000000,5,50.8680250000,-0.0983033333,68.7000000000,2.5625000000,1.1250000000,119.0625000000,image283.jpg,28329.6391560000
0.6588235497,1.0000000000,5,50.8680255000,-0.0983038333,68.7000000000,1.1250000000,1.3750000000,118.4375000000,image284.jpg,28460.9587920000
0.6588235497,0.0000000000,5,50.8680260000,-0.0983040000,68.7000000000,0.4375000000,0.5625000000,118.3125000000,image285.jpg,28527.3392080000
0.6274510026,2.0000000000,5,50.8680265000,-0.0983038333,68.7000000000,-1.8125000000,-1.6250000000,118.4375000000,image286.jpg,28660.2533750000
0.6196078658,0.0000000000,5,50.8680270000,-0.0983041667,68.7000000000,-2.1250000000,-1.5000000000,118.1875000000,image287.jpg,28727.3659270000
0.6196078658,2.0000000000,5,50.8680273333,-0.0983045000,68.7000000000,-2.5000000000,-2.1250000000,117.4375000000,image288.jpg,28860.5324370000
0.6588235497,4.0000000000,5,50.8680280000,-0.0983048333,68.7000000000,-0.6875000000,0.6250000000,118.5000000000,image289.jpg,28927.7011350000
0.6588235497,5.0000000000,5,50.8680283333,-0.0983056667,68.7000000000,0.6250000000,0.0625000000,118.3750000000,image290.jpg,29059.0807190000
0.6352941394,8.0000000000,5,50.8680286667,-0.0983058333,68.7000000000,0.8125000000,0.5625000000,117.9375000000,image291.jpg,29127.6675930000
0.6509804130,8.0000000000,5,50.8680291667,-0.0983056667,68.7000000000,-0.5000000000,-0.4375000000,118.1875000000,image292.jpg,29259.5830100000
0.6509804130,8.0000000000,5,50.8680296667,-0.0983058333,68.7000000000,0.0000000000,0.0000000000,118.1250000000,image293.jpg,29327.3774890000
0.6274510026,7.0000000000,5,50.8680303333,-0.0983061667,68.7000000000,-0.6250000000,1.1875000000,118.5000000000,image294.jpg,29459.2722810000
0.6509804130,6.0000000000,5,50.8680306667,-0.0983063333,68.7000000000,0.5000000000,1.1875000000,119.6875000000,image295.jpg,29527.1907180000
0.6588235497,1.0000000000,5,50.8680311667,-0.0983066667,68.7000000000,3.6875000000,1.6875000000,119.1875000000,image296.jpg,29659.5889470000
0.6509804130,0.0000000000,5,50.8680318333,-0.0983070000,68.7000000000,5.0625000000,1.6875000000,119.2500000000,image297.jpg,29727.2742600000
0.6588235497,0.0000000000,5,50.8680321667,-0.0983070000,68.7000000000,6.0625000000,2.1250000000,119.4375000000,image298.jpg,29863.6667080000
0.6588235497,2.0000000000,5,50.8680325000,-0.0983075000,68.7000000000,5.3125000000,0.9375000000,119.3750000000,image299.jpg,29927.7141040000
0.6588235497,-1.0000000000,5,50.8680331667,-0.0983078333,68.7000000000,1.0625000000,0.3750000000,119.0625000000,image300.jpg,30059.8239470000
0.6509804130,-1.0000000000,5,50.8680336667,-0.0983081667,68.7000000000,0.8750000000,1.5000000000,118.6875000000,image301.jpg,30127.3446760000
0.6274510026,0.0000000000,5,50.8680341667,-0.0983081667,68.7000000000,4.4375000000,1.1250000000,118.3750000000,image302.jpg,30263.7775410000
0.6509804130,0.0000000000,5,50.8680343333,-0.0983086667,68.7000000000,4.2500000000,0.8125000000,118.5625000000,image303.jpg,30327.3119160000
0.6666666865,0.0000000000,5,50.8680348333,-0.0983091667,68.7000000000,3.0625000000,1.1250000000,119.1250000000,image304.jpg,30464.8495200000
0.6588235497,-1.0000000000,5,50.8680353333,-0.0983096667,68.7000000000,2.9375000000,2.6875000000,118.6250000000,image305.jpg,30527.2342080000
0.6509804130,0.0000000000,5,50.8680358333,-0.0983095000,68.7000000000,2.1250000000,4.0625000000,117.1875000000,image306.jpg,30664.5551450000
0.5647059083,-1.0000000000,5,50.8680363333,-0.0983096667,68.7000000000,-0.8125000000,4.0625000000,117.7500000000,image307.jpg,30731.4539470000
0.6588235497,-1.0000000000,5,50.8680370000,-0.0983095000,68.7000000000,-1.7500000000,3.3125000000,117.5000000000,image308.jpg,30864.3242070000
0.6509804130,0.0000000000,5,50.8680373333,-0.0983095000,68.7000000000,-0.9375000000,2.5625000000,117.4375000000,image309.jpg,30931.6032700000
0.6588235497,0.0000000000,5,50.8680376667,-0.0983098333,68.7000000000,0.0625000000,1.7500000000,116.0625000000,image310.jpg,31068.4526970000
0.6509804130,1.0000000000,5,50.8680383333,-0.0983103333,68.6000000000,-0.5625000000,3.0000000000,115.6875000000,image311.jpg,31129.0366030000
0.6509804130,1.0000000000,5,50.8680390000,-0.0983105000,68.6000000000,2.1875000000,2.9375000000,116.5000000000,image312.jpg,31266.6526450000
0.6509804130,3.0000000000,5,50.8680393333,-0.0983106667,68.7000000000,3.2500000000,2.6875000000,115.5000000000,image313.jpg,31331.9948840000
0.6039215922,7.0000000000,5,50.8680395000,-0.0983113333,68.7000000000,-0.9375000000,0.7500000000,114.8750000000,image314.jpg,31466.0339470000
0.6509804130,8.0000000000,5,50.8680401667,-0.0983113333,68.7000000000,-1.3750000000,0.9375000000,115.5000000000,image315.jpg,31528.2782700000
0.6509804130,5.0000000000,5,50.8680408333,-0.0983113333,68.7000000000,-0.2500000000,2.5000000000,116.0625000000,image316.jpg,31665.6493630000
0.6666666865,2.0000000000,5,50.8680411667,-0.0983118333,68.7000000000,0.9375000000,2.7500000000,116.1250000000,image317.jpg,31733.8089470000
0.6588235497,0.0000000000,5,50.8680416667,-0.0983120000,68.7000000000,2.3750000000,2.4375000000,116.8750000000,image318.jpg,31865.5991030000
0.6509804130,1.0000000000,5,50.8680420000,-0.0983121667,68.7000000000,1.6875000000,2.8750000000,117.0625000000,image319.jpg,31933.8467070000
0.6588235497,3.0000000000,5,50.8680425000,-0.0983125000,68.7000000000,1.6250000000,3.6250000000,117.1875000000,image320.jpg,32064.0775400000
0.6509804130,6.0000000000,5,50.8680428333,-0.0983126667,68.7000000000,2.1250000000,4.7500000000,116.1875000000,image321.jpg,32132.7771240000
0.6039215922,8.0000000000,5,50.8680433333,-0.0983130000,68.7000000000,3.1250000000,3.0625000000,116.7500000000,image322.jpg,32265.5770190000
0.6509804130,4.0000000000,5,50.8680438333,-0.0983133333,68.7000000000,3.6875000000,2.8750000000,117.1250000000,image323.jpg,32333.5558740000
0.6588235497,0.0000000000,5,50.8680443333,-0.0983136667,68.6000000000,3.1875000000,3.0625000000,118.0000000000,image324.jpg,32466.1891550000
0.6588235497,1.0000000000,5,50.8680448333,-0.0983138333,68.7000000000,4.0000000000,3.3750000000,117.8125000000,image325.jpg,32532.3992070000
0.6509804130,1.0000000000,5,50.8680453333,-0.0983141667,68.7000000000,3.2500000000,3.3125000000,117.1875000000,image326.jpg,32664.2551440000
0.5725490451,4.0000000000,5,50.8680456667,-0.0983143333,68.7000000000,3.2500000000,3.4375000000,117.3125000000,image327.jpg,32731.3225920000
0.6666666865,35.0000000000,5,50.8680460000,-0.0983146667,68.7000000000,3.0625000000,4.0625000000,117.1250000000,image328.jpg,32865.1604570000
0.6588235497,8.0000000000,5,50.8680465000,-0.0983150000,68.7000000000,1.1250000000,3.9375000000,117.8750000000,image329.jpg,32931.6211340000
0.6509804130,3.0000000000,5,50.8680470000,-0.0983150000,68.7000000000,-0.4375000000,4.0625000000,118.9375000000,image330.jpg,33063.2520710000
0.6509804130,1.0000000000,5,50.8680473333,-0.0983150000,68.7000000000,-1.3750000000,2.8750000000,119.6250000000,image331.jpg,33132.7950400000
0.6588235497,1.0000000000,5,50.8680480000,-0.0983151667,68.7000000000,-0.3750000000,1.1875000000,120.1875000000,image332.jpg,33269.8239980000
0.6588235497,1.0000000000,5,50.8680483333,-0.0983153333,68.7000000000,-0.5625000000,0.5000000000,119.6250000000,image333.jpg,33333.4469670000
0.5647059083,1.0000000000,5,50.8680490000,-0.0983156667,68.7000000000,-1.2500000000,1.0000000000,120.0625000000,image334.jpg,33468.2058210000
0.6588235497,0.0000000000,5,50.8680493333,-0.0983160000,68.7000000000,-1.6250000000,1.4375000000,119.2500000000,image335.jpg,33532.1720710000
0.6588235497,0.0000000000,5,50.8680496667,-0.0983160000,68.7000000000,-6.2500000000,2.1875000000,119.1250000000,image336.jpg,33663.7506130000
0.6588235497,1.0000000000,5,50.8680501667,-0.0983160000,68.7000000000,-5.8125000000,2.3125000000,119.3125000000,image337.jpg,33732.2219150000
0.6588235497,0.0000000000,5,50.8680505000,-0.0983161667,68.7000000000,-2.3750000000,1.1250000000,117.8125000000,image338.jpg,33867.4787380000
0.6274510026,0.0000000000,5,50.8680508333,-0.0983168333,68.7000000000,-3.1875000000,2.5625000000,118.3125000000,image339.jpg,33933.1610290000
-0.9960784316,0.0000000000,5,50.8680515000,-0.0983170000,68.7000000000,-3.0000000000,3.0625000000,118.6250000000,image340.jpg,34067.5930600000
0.6274510026,0.0000000000,5,50.8680518333,-0.0983171667,68.7000000000,-2.5000000000,3.1250000000,118.8750000000,image341.jpg,34132.8871230000
0.6196078658,0.0000000000,5,50.8680521667,-0.0983173333,68.7000000000,-3.0000000000,3.2500000000,118.4375000000,image342.jpg,34267.8486850000
0.6588235497,0.0000000000,5,50.8680526667,-0.0983175000,68.7000000000,-3.1250000000,3.0625000000,118.5000000000,image343.jpg,34331.3105600000
0.6509804130,0.0000000000,5,50.8680530000,-0.0983176667,68.7000000000,-0.4375000000,2.4375000000,118.4375000000,image344.jpg,34467.5286330000
0.6509804130,2.0000000000,5,50.8680533333,-0.0983181667,68.7000000000,0.2500000000,3.0000000000,117.8125000000,image345.jpg,34531.0853000000
0.6588235497,2.0000000000,5,50.8680538333,-0.0983186667,68.7000000000,-0.9375000000,2.8125000000,117.7500000000,image346.jpg,34667.2634250000
0.6352941394,2.0000000000,5,50.8680541667,-0.0983186667,68.7000000000,0.8750000000,1.7500000000,117.5000000000,image347.jpg,34731.0935290000
0.6588235497,4.0000000000,5,50.8680546667,-0.0983190000,68.6000000000,2.0000000000,2.5000000000,117.0625000000,image348.jpg,34867.1737890000
0.6588235497,7.0000000000,5,50.8680550000,-0.0983193333,68.7000000000,1.5625000000,2.1250000000,117.1875000000,image349.jpg,34935.4383730000
0.6196078658,8.0000000000,5,50.8680555000,-0.0983196667,68.6000000000,0.1875000000,2.0625000000,118.0000000000,image350.jpg,35067.3814450000
0.6588235497,10.0000000000,5,50.8680560000,-0.0983198333,68.6000000000,-0.5000000000,2.8750000000,118.5625000000,image351.jpg,35132.1242580000
0.6666666865,8.0000000000,5,50.8680563333,-0.0983200000,68.6000000000,-3.0625000000,3.8125000000,119.1250000000,image352.jpg,35267.3889970000
0.6274510026,7.0000000000,5,50.8680568333,-0.0983203333,68.6000000000,-1.6250000000,4.3125000000,119.9375000000,image353.jpg,35335.0502990000
0.6588235497,4.0000000000,5,50.8680573333,-0.0983205000,68.6000000000,0.0625000000,2.3750000000,119.8125000000,image354.jpg,35467.3479040000
0.6274510026,1.0000000000,5,50.8680576667,-0.0983208333,68.6000000000,-0.1250000000,1.3125000000,120.0625000000,image355.jpg,35535.4385290000
0.6588235497,0.0000000000,5,50.8680581667,-0.0983213333,68.6000000000,-3.3125000000,1.8125000000,119.5625000000,image356.jpg,35667.9148310000
0.6588235497,2.0000000000,5,50.8680588333,-0.0983215000,68.6000000000,-4.6875000000,3.0000000000,119.4375000000,image357.jpg,35736.0357160000
0.6745098233,0.0000000000,5,50.8680593333,-0.0983213333,68.6000000000,-7.3750000000,4.3125000000,119.8750000000,image358.jpg,35867.7644660000
0.6588235497,0.0000000000,5,50.8680596667,-0.0983215000,68.6000000000,-6.7500000000,3.2500000000,119.6250000000,image359.jpg,35935.9994660000
0.6588235497,0.0000000000,5,50.8680601667,-0.0983218333,68.6000000000,-2.0000000000,2.1250000000,120.0625000000,image360.jpg,36073.5433720000
0.6588235497,0.0000000000,5,50.8680606667,-0.0983223333,68.6000000000,0.3750000000,4.0625000000,120.3750000000,image361.jpg,36137.1681120000
0.6588235497,1.0000000000,5,50.8680608333,-0.0983226667,68.6000000000,3.0625000000,5.6250000000,119.6875000000,image362.jpg,36269.6088930000
0.6274510026,0.0000000000,5,50.8680611667,-0.0983226667,68.6000000000,2.5000000000,4.8750000000,119.4375000000,image363.jpg,36336.3400910000
0.6509804130,0.0000000000,5,50.8680615000,-0.0983228333,68.6000000000,-1.0625000000,2.1250000000,118.8125000000,image364.jpg,36467.7852990000
0.6588235497,3.0000000000,5,50.8680621667,-0.0983231667,68.6000000000,-2.3125000000,1.8125000000,118.5000000000,image365.jpg,36535.7099340000
0.6509804130,0.0000000000,5,50.8680626667,-0.0983233333,68.6000000000,-5.2500000000,2.3750000000,118.9375000000,image366.jpg,36667.4136320000
0.6588235497,0.0000000000,5,50.8680631667,-0.0983236667,68.6000000000,-5.3125000000,3.3125000000,119.1250000000,image367.jpg,36735.0054550000
0.6509804130,0.0000000000,5,50.8680635000,-0.0983240000,68.6000000000,-3.9375000000,1.5625000000,120.1250000000,image368.jpg,36870.0846220000
0.6588235497,0.0000000000,5,50.8680638333,-0.0983241667,68.6000000000,-3.0625000000,1.0625000000,119.8125000000,image369.jpg,36938.0120180000
0.6039215922,0.0000000000,5,50.8680643333,-0.0983246667,68.6000000000,-3.6875000000,0.8125000000,119.0625000000,image370.jpg,37071.2313930000
0.6666666865,0.0000000000,5,50.8680648333,-0.0983250000,68.6000000000,-4.8750000000,0.6250000000,118.5625000000,image371.jpg,37135.5422780000
0.6588235497,0.0000000000,5,50.8680655000,-0.0983253333,68.6000000000,-3.5000000000,0.1875000000,118.0625000000,image372.jpg,37271.0156630000
0.6039215922,0.0000000000,5,50.8680660000,-0.0983258333,68.6000000000,-3.9375000000,-0.3750000000,117.8750000000,image373.jpg,37337.0143090000
0.6509804130,1.0000000000,5,50.8680665000,-0.0983260000,68.6000000000,-6.4375000000,0.1875000000,118.3750000000,image374.jpg,37471.6979030000
0.6588235497,0.0000000000,5,50.8680666667,-0.0983260000,68.5000000000,-5.9375000000,0.1875000000,118.4375000000,image375.jpg,37534.7354030000
0.6666666865,0.0000000000,5,50.8680671667,-0.0983263333,68.5000000000,-4.8750000000,0.9375000000,118.0625000000,image376.jpg,37671.5778510000
0.6666666865,2.0000000000,5,50.8680678333,-0.0983265000,68.5000000000,-5.3750000000,1.5625000000,118.0625000000,image377.jpg,37734.8983190000
0.6745098233,2.0000000000,5,50.8680681667,-0.0983268333,68.5000000000,-8.8750000000,4.0625000000,118.3125000000,image378.jpg,37871.0063400000
0.6745098233,3.0000000000,5,50.8680686667,-0.0983270000,68.5000000000,-8.6250000000,5.4375000000,118.5000000000,image379.jpg,37935.0431630000
0.6980392337,3.0000000000,5,50.8680690000,-0.0983270000,68.5000000000,-5.5625000000,3.8125000000,118.2500000000,image380.jpg,38071.8976940000
0.6980392337,2.0000000000,5,50.8680693333,-0.0983273333,68.5000000000,-3.6875000000,2.3125000000,118.2500000000,image381.jpg,38134.9379550000
0.6509804130,2.0000000000,5,50.8680698333,-0.0983278333,68.5000000000,-1.1250000000,1.3125000000,118.6250000000,image382.jpg,38267.6715480000
0.6980392337,1.0000000000,5,50.8680703333,-0.0983285000,68.5000000000,-2.3750000000,-0.0625000000,118.6250000000,image383.jpg,38338.9945170000
0.6666666865,3.0000000000,5,50.8680710000,-0.0983286667,68.5000000000,-4.5625000000,-1.0000000000,117.2500000000,image384.jpg,38471.8134750000
0.6039215922,6.0000000000,5,50.8680716667,-0.0983288333,68.5000000000,-6.3125000000,-4.8750000000,117.4375000000,image385.jpg,38535.1754540000
0.6509804130,7.0000000000,5,50.8680723333,-0.0983290000,68.5000000000,-4.1875000000,-4.6250000000,120.5625000000,image386.jpg,38671.4582150000
0.5647059083,7.0000000000,5,50.8680730000,-0.0983293333,68.5000000000,-2.0000000000,-5.5000000000,120.3125000000,image387.jpg,38739.3744130000
0.6509804130,6.0000000000,5,50.8680733333,-0.0983300000,68.5000000000,-5.6875000000,-3.3125000000,121.3750000000,image388.jpg,38873.3200900000
0.6509804130,4.0000000000,5,50.8680741667,-0.0983298333,68.5000000000,-6.5000000000,-4.5625000000,122.4375000000,image389.jpg,38939.3531110000
0.6509804130,1.0000000000,5,50.8680746667,-0.0983293333,68.5000000000,-3.2500000000,-2.7500000000,122.6250000000,image390.jpg,39071.0774330000
0.6509804130,0.0000000000,5,50.8680751667,-0.0983301667,68.5000000000,-6.3125000000,-4.8750000000,122.5625000000,image391.jpg,39139.1516520000
0.6509804130,0.0000000000,5,50.8680760000,-0.0983305000,68.5000000000,-6.2500000000,-3.9375000000,122.9375000000,image392.jpg,39270.9252980000
0.6509804130,-3.0000000000,5,50.8680766667,-0.0983303333,68.5000000000,-6.1250000000,-3.2500000000,122.3125000000,image393.jpg,39340.0744130000
0.5647059083,-3.0000000000,5,50.8680771667,-0.0983305000,68.5000000000,-7.5000000000,-0.1875000000,123.6250000000,image394.jpg,39471.6042040000
0.6509804130,-2.0000000000,5,50.8680776667,-0.0983305000,68.5000000000,-6.0000000000,-0.1875000000,122.9375000000,image395.jpg,39538.9302980000
0.6509804130,0.0000000000,5,50.8680778333,-0.0983305000,68.5000000000,-6.5625000000,-0.5625000000,121.0000000000,image396.jpg,39671.4442040000
0.6196078658,2.0000000000,5,50.8680785000,-0.0983310000,68.5000000000,-7.7500000000,0.0625000000,120.1875000000,image397.jpg,39739.5902460000
0.6509804130,0.0000000000,5,50.8680791667,-0.0983311667,68.5000000000,-7.4375000000,2.3125000000,121.6250000000,image398.jpg,39872.2019120000
0.6509804130,0.0000000000,5,50.8680798333,-0.0983311667,68.5000000000,-5.1875000000,3.2500000000,122.0000000000,image399.jpg,39940.5291520000
0.6588235497,0.0000000000,5,50.8680800000,-0.0983315000,68.5000000000,-2.6250000000,4.1875000000,121.1250000000,image400.jpg,40072.7235270000
0.6274510026,0.0000000000,5,50.8680803333,-0.0983316667,68.5000000000,-2.2500000000,5.2500000000,121.3125000000,image401.jpg,40139.0302460000
0.6117647290,0.0000000000,5,50.8680806667,-0.0983318333,68.5000000000,-3.4375000000,9.9375000000,121.3750000000,image402.jpg,40272.1698290000
0.6431372762,0.0000000000,5,50.8680810000,-0.0983320000,68.5000000000,-4.0000000000,10.8125000000,121.5000000000,image403.jpg,40339.2080060000
0.6509804130,0.0000000000,5,50.8680813333,-0.0983321667,68.5000000000,-3.5000000000,10.4375000000,120.8750000000,image404.jpg,40473.4512350000
0.6196078658,2.0000000000,5,50.8680816667,-0.0983321667,68.5000000000,-4.5000000000,11.0625000000,120.8750000000,image405.jpg,40538.8737350000
0.6666666865,0.0000000000,5,50.8680821667,-0.0983321667,68.5000000000,-3.8125000000,9.2500000000,121.1250000000,image406.jpg,40671.7795160000
0.6509804130,0.0000000000,5,50.8680830000,-0.0983328333,68.5000000000,-2.8750000000,8.8125000000,120.8750000000,image407.jpg,40739.3050370000
0.6196078658,3.0000000000,5,50.8680835000,-0.0983331667,68.5000000000,-2.1875000000,8.1875000000,121.0625000000,image408.jpg,40870.9675370000
0.6352941394,6.0000000000,5,50.8680840000,-0.0983333333,68.5000000000,-1.5625000000,8.6875000000,121.1875000000,image409.jpg,40939.6524850000
0.6039215922,9.0000000000,5,50.8680846667,-0.0983338333,68.5000000000,0.0000000000,7.5625000000,121.2500000000,image410.jpg,41079.8414430000
0.6352941394,8.0000000000,nan,nan,nan,nan,0.2500000000,7.5000000000,121.5000000000,image411.jpg,41140.6731620000
0.6352941394,4.0000000000,5,50.8680851667,-0.0983340000,68.5000000000,0.6875000000,8.0625000000,121.7500000000,image412.jpg,41206.6950370000
0.6039215922,0.0000000000,5,50.8680853333,-0.0983341667,68.5000000000,-0.5625000000,9.3125000000,122.3125000000,image413.jpg,41340.1864430000
0.6352941394,0.0000000000,5,50.8680858333,-0.0983343333,68.5000000000,-1.1875000000,8.3125000000,123.0000000000,image414.jpg,41407.1290470000
0.6352941394,0.0000000000,5,50.8680863333,-0.0983345000,68.5000000000,0.1875000000,6.1250000000,122.9375000000,image415.jpg,41540.1967550000
0.6352941394,0.0000000000,5,50.8680866667,-0.0983346667,68.5000000000,0.0000000000,5.8750000000,122.5625000000,image416.jpg,41607.3393070000
0.6352941394,2.0000000000,5,50.8680871667,-0.0983350000,68.5000000000,-0.7500000000,4.0625000000,122.9375000000,image417.jpg,41740.9196200000
0.6196078658,0.0000000000,5,50.8680876667,-0.0983350000,68.5000000000,0.3750000000,4.6250000000,122.6875000000,image418.jpg,41807.6385260000
0.6352941394,1.0000000000,5,50.8680881667,-0.0983353333,68.5000000000,-0.5000000000,5.5000000000,122.6875000000,image419.jpg,41940.5217030000
0.6431372762,1.0000000000,5,50.8680885000,-0.0983355000,68.5000000000,-1.6875000000,5.1875000000,122.4375000000,image420.jpg,42008.4413910000
-0.9960784316,2.0000000000,5,50.8680890000,-0.0983355000,68.5000000000,-2.6250000000,5.0625000000,121.9375000000,image421.jpg,42142.8497240000
0.6352941394,3.0000000000,5,50.8680891667,-0.0983355000,68.5000000000,-2.5000000000,4.6875000000,121.9375000000,image422.jpg,42207.0883700000
0.6352941394,8.0000000000,5,50.8680896667,-0.0983358333,68.6000000000,0.0625000000,4.4375000000,121.7500000000,image423.jpg,42339.7313910000
