speed,steering angle,gps quality,lat,lon,altitude,roll,pitch,yaw,image name,timestamp
0.0313725509,0.0000000000,5,50.8680633333,-0.0981913333,69.2000000000,4.3750000000,-7.1250000000,359.9375000000,image0.jpg,104.4045310000
0.0156862754,0.0000000000,nan,nan,nan,nan,4.3750000000,-7.1250000000,359.9375000000,image1.jpg,171.6766150000
0.0470588244,0.0000000000,5,50.8680638333,-0.0981910000,69.3000000000,4.3750000000,-7.1250000000,359.9375000000,image2.jpg,236.8611460000
0.0313725509,0.0000000000,5,50.8680640000,-0.0981910000,69.3000000000,4.3750000000,-7.1250000000,359.9375000000,image3.jpg,369.1220310000
0.0313725509,1.0000000000,5,50.8680640000,-0.0981908333,69.3000000000,4.3750000000,-7.1250000000,359.9375000000,image4.jpg,436.7426560000
0.0313725509,0.0000000000,5,50.8680640000,-0.0981908333,69.3000000000,4.3750000000,-7.1250000000,359.9375000000,image5.jpg,568.8964580000
0.0313725509,0.0000000000,5,50.8680640000,-0.0981908333,69.3000000000,4.3750000000,-7.1250000000,359.9375000000,image6.jpg,636.6863540000
0.0156862754,0.0000000000,5,50.8680640000,-0.0981908333,69.3000000000,4.3750000000,-7.1250000000,359.9375000000,image7.jpg,769.1064580000
0.0470588244,0.0000000000,5,50.8680640000,-0.0981908333,69.3000000000,4.3750000000,-7.1250000000,359.9375000000,image8.jpg,837.1709370000
0.0313725509,0.0000000000,5,50.8680640000,-0.0981908333,69.3000000000,4.3750000000,-7.1250000000,359.9375000000,image9.jpg,972.4324480000
0.0392156877,0.0000000000,5,50.8680640000,-0.0981908333,69.3000000000,4.3750000000,-7.1250000000,359.9375000000,image10.jpg,1035.7088540000
0.0392156877,2.0000000000,5,50.8680640000,-0.0981908333,69.3000000000,4.3750000000,-7.1250000000,359.9375000000,image11.jpg,1168.5386980000
0.0156862754,0.0000000000,5,50.8680640000,-0.0981908333,69.3000000000,4.3750000000,-7.1250000000,359.9375000000,image12.jpg,1236.7230720000
0.0627451017,0.0000000000,5,50.8680640000,-0.0981908333,69.3000000000,4.3750000000,-7.1250000000,359.9375000000,image13.jpg,1367.5011450000
0.0784313753,0.0000000000,5,50.8680641667,-0.0981906667,69.3000000000,4.3750000000,-7.1875000000,0.0000000000,image14.jpg,1435.8535930000
0.1568627506,0.0000000000,5,50.8680640000,-0.0981908333,69.3000000000,4.3750000000,-7.1875000000,0.0000000000,image15.jpg,1568.0383330000
0.2274509817,2.0000000000,5,50.8680640000,-0.0981906667,69.3000000000,4.3750000000,-7.1250000000,0.0000000000,image16.jpg,1636.4611450000
0.2117647082,0.0000000000,5,50.8680640000,-0.0981906667,69.3000000000,4.3750000000,-7.1250000000,0.0000000000,image17.jpg,1767.9047390000
0.2117647082,0.0000000000,5,50.8680640000,-0.0981908333,69.3000000000,4.3750000000,-7.1250000000,0.0000000000,image18.jpg,1837.5372910000
0.1490196139,0.0000000000,5,50.8680640000,-0.0981906667,69.3000000000,4.3750000000,-7.1250000000,0.0000000000,image19.jpg,1972.6983850000
0.3294117749,0.0000000000,5,50.8680640000,-0.0981906667,69.3000000000,4.3750000000,-7.1250000000,0.0000000000,image20.jpg,2036.6881240000
0.4156862795,0.0000000000,5,50.8680640000,-0.0981906667,69.3000000000,4.8125000000,-6.8125000000,0.0625000000,image21.jpg,2171.7285410000
0.4392156899,-1.0000000000,5,50.8680640000,-0.0981906667,69.3000000000,5.3750000000,-6.3750000000,0.0625000000,image22.jpg,2235.8343740000
0.4392156899,1.0000000000,5,50.8680638333,-0.0981906667,69.3000000000,7.3125000000,-5.9375000000,0.0000000000,image23.jpg,2371.6289050000
0.3843137324,0.0000000000,5,50.8680636667,-0.0981908333,69.3000000000,7.9375000000,-5.6250000000,359.8750000000,image24.jpg,2435.3338010000
0.4470588267,0.0000000000,5,50.8680635000,-0.0981910000,69.3000000000,8.6250000000,-5.0000000000,359.3750000000,image25.jpg,2572.5095820000
0.4392156899,0.0000000000,5,50.8680636667,-0.0981911667,69.3000000000,8.6250000000,-4.8125000000,359.4375000000,image26.jpg,2635.6457800000
0.4392156899,0.0000000000,5,50.8680633333,-0.0981915000,69.3000000000,7.3750000000,-5.3750000000,359.3750000000,image27.jpg,2773.0159360000
0.4392156899,1.0000000000,5,50.8680631667,-0.0981920000,69.3000000000,6.9375000000,-6.3750000000,358.8750000000,image28.jpg,2836.5818740000
0.4156862795,0.0000000000,5,50.8680628333,-0.0981923333,69.3000000000,2.5625000000,-5.6875000000,359.7500000000,image29.jpg,2972.9340090000
0.4156862795,0.0000000000,5,50.8680626667,-0.0981928333,69.2000000000,2.3125000000,-4.0625000000,359.8750000000,image30.jpg,3037.1378630000
0.3764705956,1.0000000000,5,50.8680626667,-0.0981931667,69.2000000000,4.0000000000,-2.8125000000,358.7500000000,image31.jpg,3173.3333840000
0.4156862795,0.0000000000,5,50.8680623333,-0.0981931667,69.2000000000,3.2500000000,-4.1250000000,358.9375000000,image32.jpg,3239.6093740000
0.4156862795,0.0000000000,5,50.8680620000,-0.0981936667,69.2000000000,6.8750000000,-7.2500000000,0.5000000000,image33.jpg,3372.7328110000
0.4156862795,2.0000000000,5,50.8680618333,-0.0981941667,69.2000000000,10.2500000000,-8.5000000000,359.8750000000,image34.jpg,3439.6994780000
0.4156862795,2.0000000000,5,50.8680613333,-0.0981941667,69.3000000000,11.0625000000,-7.2500000000,359.5000000000,image35.jpg,3571.4255200000
0.3450980484,2.0000000000,5,50.8680610000,-0.0981943333,69.3000000000,10.5625000000,-6.6250000000,359.9375000000,image36.jpg,3640.1693220000
0.4078431427,0.0000000000,5,50.8680610000,-0.0981945000,69.3000000000,8.0000000000,-5.6250000000,358.8125000000,image37.jpg,3772.2638010000
0.4156862795,0.0000000000,5,50.8680610000,-0.0981950000,69.3000000000,6.3125000000,-4.8125000000,359.3750000000,image38.jpg,3840.7391130000
0.4235294163,0.0000000000,5,50.8680606667,-0.0981951667,69.3000000000,1.3750000000,-5.6250000000,359.6250000000,image39.jpg,3972.1642170000
0.4549019635,1.0000000000,5,50.8680601667,-0.0981955000,69.2000000000,1.3750000000,-6.0000000000,359.0000000000,image40.jpg,4040.4423940000
0.5019608140,1.0000000000,5,50.8680601667,-0.0981958333,69.2000000000,6.5625000000,-6.9375000000,359.6875000000,image41.jpg,4172.5764050000
0.4941176474,1.0000000000,5,50.8680598333,-0.0981958333,69.2000000000,8.6250000000,-6.4375000000,359.6875000000,image42.jpg,4241.0103110000
0.3686274588,1.0000000000,5,50.8680598333,-0.0981960000,69.2000000000,10.3750000000,-3.5000000000,359.6250000000,image43.jpg,4373.7361960000
0.4470588267,0.0000000000,5,50.8680595000,-0.0981961667,69.2000000000,9.8125000000,-3.3750000000,359.6875000000,image44.jpg,4440.6796860000
0.4470588267,0.0000000000,5,50.8680593333,-0.0981965000,69.2000000000,9.0625000000,-4.8750000000,0.6875000000,image45.jpg,4572.8182800000
0.4470588267,1.0000000000,5,50.8680591667,-0.0981970000,69.2000000000,9.5000000000,-6.0625000000,0.1250000000,image46.jpg,4642.1136440000
0.4627451003,0.0000000000,5,50.8680588333,-0.0981976667,69.2000000000,7.5625000000,-6.2500000000,359.5625000000,image47.jpg,4772.4526020000
0.4156862795,-1.0000000000,5,50.8680588333,-0.0981980000,69.2000000000,6.0625000000,-5.0625000000,359.0000000000,image48.jpg,4840.0244770000
0.4470588267,-15.0000000000,5,50.8680586667,-0.0981981667,69.2000000000,3.0625000000,-4.2500000000,359.0000000000,image49.jpg,4972.5080710000
0.4392156899,-24.0000000000,5,50.8680585000,-0.0981985000,69.2000000000,4.5625000000,-3.9375000000,359.6250000000,image50.jpg,5039.7347900000
0.4392156899,-29.0000000000,5,50.8680581667,-0.0981986667,69.2000000000,8.1875000000,-3.2500000000,359.6875000000,image51.jpg,5173.1233310000
0.4392156899,-30.0000000000,5,50.8680580000,-0.0981986667,69.2000000000,9.4375000000,-3.1875000000,359.1875000000,image52.jpg,5240.6543730000
0.4627451003,-14.0000000000,5,50.8680576667,-0.0981990000,69.2000000000,9.1875000000,-2.2500000000,357.7500000000,image53.jpg,5372.1280190000
0.4313725531,-9.0000000000,5,50.8680576667,-0.0981991667,69.2000000000,9.2500000000,-2.4375000000,357.3125000000,image54.jpg,5440.9724980000
0.4000000060,-3.0000000000,5,50.8680575000,-0.0981993333,69.2000000000,10.1250000000,-2.5000000000,355.8125000000,image55.jpg,5572.2503100000
0.4078431427,-4.0000000000,5,50.8680573333,-0.0981995000,69.2000000000,9.9375000000,-2.0000000000,355.3750000000,image56.jpg,5639.2636960000
0.4392156899,-1.0000000000,5,50.8680570000,-0.0981998333,69.2000000000,5.6250000000,0.8750000000,353.8750000000,image57.jpg,5776.4610920000
0.4784313738,1.0000000000,5,50.8680571667,-0.0982003333,69.2000000000,5.1875000000,1.5000000000,354.0000000000,image58.jpg,5840.8330710000
0.5333333611,-2.0000000000,5,50.8680570000,-0.0982005000,69.2000000000,4.1250000000,1.6875000000,354.5625000000,image59.jpg,5979.9799980000
0.4862745106,-1.0000000000,5,50.8680568333,-0.0982005000,69.2000000000,3.6875000000,1.3750000000,354.5000000000,image60.jpg,6040.6644770000
0.5019608140,-10.0000000000,5,50.8680566667,-0.0982008333,69.2000000000,3.3125000000,0.5625000000,354.5000000000,image61.jpg,6178.8123940000
0.5019608140,-17.0000000000,5,50.8680565000,-0.0982015000,69.2000000000,4.6250000000,0.3125000000,354.6250000000,image62.jpg,6240.0247890000
0.4627451003,-22.0000000000,5,50.8680563333,-0.0982018333,69.2000000000,6.1250000000,-1.1875000000,353.0000000000,image63.jpg,6377.6861960000
0.5098039508,-22.0000000000,5,50.8680560000,-0.0982021667,69.2000000000,5.0625000000,-1.3125000000,352.3750000000,image64.jpg,6440.2452580000
0.5176470876,-19.0000000000,5,50.8680558333,-0.0982026667,69.2000000000,5.9375000000,-3.3750000000,351.1875000000,image65.jpg,6575.5128620000
0.4941176474,-18.0000000000,5,50.8680553333,-0.0982028333,69.2000000000,7.4375000000,-3.6875000000,350.2500000000,image66.jpg,6640.2748930000
0.4862745106,-5.0000000000,5,50.8680550000,-0.0982031667,69.1000000000,8.5000000000,-3.0625000000,348.8125000000,image67.jpg,6775.7862470000
0.4862745106,-5.0000000000,5,50.8680546667,-0.0982035000,69.1000000000,8.6875000000,-2.3125000000,348.2500000000,image68.jpg,6839.5045290000
0.5176470876,1.0000000000,5,50.8680546667,-0.0982036667,69.1000000000,9.1250000000,-1.7500000000,347.0000000000,image69.jpg,6981.0029660000
0.5333333611,3.0000000000,5,50.8680545000,-0.0982036667,69.2000000000,9.5000000000,-1.8750000000,346.6250000000,image70.jpg,7041.4694240000
0.5254902244,5.0000000000,5,50.8680541667,-0.0982038333,69.2000000000,8.8750000000,-2.0625000000,346.6875000000,image71.jpg,7177.6407790000
0.5254902244,10.0000000000,5,50.8680541667,-0.0982040000,69.2000000000,8.2500000000,-2.2500000000,347.0000000000,image72.jpg,7244.5341120000
0.5333333611,7.0000000000,5,50.8680540000,-0.0982045000,69.2000000000,4.8125000000,-2.5000000000,347.4375000000,image73.jpg,7377.2091120000
0.5333333611,3.0000000000,5,50.8680536667,-0.0982050000,69.1000000000,4.8125000000,-2.1250000000,348.1875000000,image74.jpg,7443.8222370000
0.5176470876,0.0000000000,5,50.8680531667,-0.0982053333,69.2000000000,6.3125000000,-0.3750000000,349.0625000000,image75.jpg,7577.0834870000
0.5333333611,-1.0000000000,nan,nan,nan,nan,7.6250000000,-0.4375000000,348.6875000000,image76.jpg,7645.2435910000
0.5490196347,0.0000000000,5,50.8680530000,-0.0982056667,69.1000000000,8.2500000000,0.6875000000,348.8750000000,image77.jpg,7708.2426530000
0.4705882370,0.0000000000,5,50.8680528333,-0.0982060000,69.1000000000,9.1875000000,0.4375000000,349.1875000000,image78.jpg,7845.8926010000
0.5568627715,0.0000000000,5,50.8680525000,-0.0982063333,69.1000000000,9.6250000000,0.5625000000,348.8125000000,image79.jpg,7913.1388510000
0.5098039508,2.0000000000,5,50.8680521667,-0.0982065000,69.2000000000,8.6875000000,0.6250000000,348.7500000000,image80.jpg,8046.3894240000
0.5803921819,5.0000000000,5,50.8680520000,-0.0982070000,69.2000000000,7.3125000000,1.0000000000,348.2500000000,image81.jpg,8113.6948410000
0.6274510026,8.0000000000,5,50.8680516667,-0.0982075000,69.1000000000,4.0625000000,-0.5000000000,348.6250000000,image82.jpg,8246.4196320000
0.5725490451,6.0000000000,5,50.8680513333,-0.0982083333,69.1000000000,3.8750000000,-0.0625000000,348.5000000000,image83.jpg,8307.7155700000
0.6274510026,6.0000000000,5,50.8680510000,-0.0982088333,69.1000000000,5.3750000000,0.3750000000,349.8750000000,image84.jpg,8445.9604130000
0.6196078658,6.0000000000,5,50.8680510000,-0.0982093333,69.2000000000,5.8750000000,-0.0625000000,349.8750000000,image85.jpg,8511.1946320000
0.6196078658,9.0000000000,5,50.8680503333,-0.0982095000,69.2000000000,7.0000000000,-0.6250000000,349.6250000000,image86.jpg,8644.2735380000
0.6274510026,12.0000000000,5,50.8680500000,-0.0982098333,69.2000000000,6.1250000000,-0.6875000000,349.8125000000,image87.jpg,8711.6869760000
0.6196078658,21.0000000000,5,50.8680496667,-0.0982105000,69.2000000000,5.3750000000,-0.1250000000,350.5625000000,image88.jpg,8843.5301530000
0.6196078658,21.0000000000,5,50.8680496667,-0.0982113333,69.2000000000,4.8125000000,0.5625000000,351.2500000000,image89.jpg,8911.9438510000
0.5647059083,14.0000000000,2,50.8680490000,-0.0982115000,69.2000000000,4.2500000000,0.6250000000,353.0625000000,image90.jpg,9044.4111420000
0.6274510026,7.0000000000,2,50.8680483333,-0.0982118333,69.1000000000,4.4375000000,0.5625000000,353.7500000000,image91.jpg,9113.9183300000
0.6039215922,1.0000000000,2,50.8680481667,-0.0982121667,69.1000000000,5.2500000000,0.7500000000,354.9375000000,image92.jpg,9243.9155690000
0.6352941394,0.0000000000,5,50.8680480000,-0.0982128333,69.1000000000,6.1875000000,1.9375000000,355.6875000000,image93.jpg,9312.1310380000
0.6352941394,1.0000000000,5,50.8680476667,-0.0982131667,69.2000000000,7.6875000000,1.9375000000,355.3750000000,image94.jpg,9443.9507260000
0.5882353187,1.0000000000,5,50.8680471667,-0.0982135000,69.2000000000,7.7500000000,2.4375000000,355.1250000000,image95.jpg,9511.8744240000
0.6352941394,10.0000000000,5,50.8680466667,-0.0982143333,69.1000000000,6.4375000000,4.1875000000,354.5625000000,image96.jpg,9644.5064030000
0.6352941394,14.0000000000,5,50.8680465000,-0.0982148333,69.1000000000,5.8125000000,3.9375000000,354.6875000000,image97.jpg,9711.7051010000
0.6431372762,22.0000000000,5,50.8680460000,-0.0982151667,69.2000000000,7.1875000000,1.3125000000,354.8125000000,image98.jpg,9844.1065070000
0.6431372762,23.0000000000,5,50.8680455000,-0.0982156667,69.2000000000,6.9375000000,1.0000000000,354.9375000000,image99.jpg,9915.1229130000
0.6431372762,-5.0000000000,5,50.8680455000,-0.0982165000,69.2000000000,7.3750000000,2.4375000000,357.3750000000,image100.jpg,10044.3303090000
0.6509804130,-2.0000000000,5,50.8680450000,-0.0982168333,69.2000000000,8.3125000000,1.6875000000,358.7500000000,image101.jpg,10111.2466110000
0.5568627715,1.0000000000,5,50.8680443333,-0.0982173333,69.2000000000,8.2500000000,0.0625000000,359.0625000000,image102.jpg,10245.7903090000
0.6431372762,0.0000000000,5,50.8680441667,-0.0982178333,69.2000000000,7.8750000000,0.0000000000,358.9375000000,image103.jpg,10311.8610900000
0.5568627715,10.0000000000,5,50.8680438333,-0.0982186667,69.2000000000,7.5625000000,-0.1250000000,358.8750000000,image104.jpg,10448.2090590000
0.6431372762,25.0000000000,5,50.8680435000,-0.0982191667,69.2000000000,7.8750000000,0.5000000000,358.5000000000,image105.jpg,10511.9515590000
0.6431372762,30.0000000000,5,50.8680435000,-0.0982196667,69.2000000000,7.8125000000,0.3125000000,358.8125000000,image106.jpg,10644.2088500000
0.6039215922,30.0000000000,2,50.8680431667,-0.0982203333,69.2000000000,7.7500000000,0.1875000000,1.0625000000,image107.jpg,10712.0635900000
0.6431372762,20.0000000000,2,50.8680428333,-0.0982206667,69.2000000000,6.1250000000,0.0625000000,3.9375000000,image108.jpg,10844.3221830000
0.6431372762,8.0000000000,2,50.8680423333,-0.0982213333,69.2000000000,7.6875000000,2.0000000000,6.3125000000,image109.jpg,10912.0928600000
0.6431372762,0.0000000000,2,50.8680425000,-0.0982223333,69.2000000000,8.3125000000,1.0000000000,6.6250000000,image110.jpg,11046.5597350000
0.6431372762,0.0000000000,2,50.8680418333,-0.0982230000,69.2000000000,4.2500000000,2.4375000000,6.8125000000,image111.jpg,11111.9656210000
0.6431372762,0.0000000000,2,50.8680416667,-0.0982233333,69.2000000000,3.8750000000,0.0000000000,7.9375000000,image112.jpg,11247.9018190000
0.6431372762,3.0000000000,5,50.8680416667,-0.0982243333,69.2000000000,6.7500000000,-0.1875000000,7.5625000000,image113.jpg,11311.1633810000
0.6039215922,16.0000000000,5,50.8680410000,-0.0982248333,69.2000000000,3.5000000000,0.5000000000,6.5000000000,image114.jpg,11448.8917670000
0.6274510026,21.0000000000,5,50.8680411667,-0.0982256667,69.2000000000,4.3750000000,1.0000000000,6.5000000000,image115.jpg,11517.7204120000
0.6196078658,22.0000000000,5,50.8680410000,-0.0982261667,69.2000000000,8.3125000000,0.7500000000,7.1250000000,image116.jpg,11648.2231730000
0.6509804130,20.0000000000,2,50.8680403333,-0.0982268333,69.2000000000,8.9375000000,0.9375000000,7.0625000000,image117.jpg,11716.0091100000
0.6509804130,18.0000000000,2,50.8680401667,-0.0982276667,69.2000000000,6.5625000000,1.0625000000,9.0000000000,image118.jpg,11848.4846310000
0.6117647290,18.0000000000,2,50.8680398333,-0.0982286667,69.3000000000,7.0625000000,3.3750000000,10.8750000000,image119.jpg,11911.9269230000
0.6666666865,12.0000000000,2,50.8680398333,-0.0982293333,69.3000000000,5.7500000000,3.8125000000,11.8750000000,image120.jpg,12048.3657770000
0.6509804130,11.0000000000,2,50.8680400000,-0.0982303333,69.3000000000,4.0625000000,2.2500000000,12.5000000000,image121.jpg,12111.2602040000
0.6196078658,10.0000000000,2,50.8680396667,-0.0982311667,69.3000000000,9.5625000000,0.9375000000,15.2500000000,image122.jpg,12248.0951000000
0.6509804130,10.0000000000,5,50.8680390000,-0.0982316667,69.3000000000,9.8750000000,1.0625000000,15.3125000000,image123.jpg,12311.1928600000
0.6509804130,10.0000000000,5,50.8680390000,-0.0982326667,69.3000000000,8.6875000000,1.5625000000,15.9375000000,image124.jpg,12448.8281200000
0.6509804130,10.0000000000,5,50.8680386667,-0.0982331667,69.3000000000,10.1250000000,0.0000000000,15.8750000000,image125.jpg,12515.7583290000
0.6666666865,15.0000000000,5,50.8680383333,-0.0982338333,69.4000000000,6.6875000000,-0.4375000000,16.8750000000,image126.jpg,12648.7876510000
0.6274510026,17.0000000000,5,50.8680385000,-0.0982346667,69.4000000000,4.3125000000,-1.0625000000,17.9375000000,image127.jpg,12714.9364010000
0.6588235497,28.0000000000,5,50.8680380000,-0.0982358333,69.4000000000,6.1250000000,0.4375000000,19.8125000000,image128.jpg,12848.7884330000
0.6588235497,32.0000000000,5,50.8680378333,-0.0982366667,69.4000000000,5.6250000000,0.0625000000,20.3750000000,image129.jpg,12915.2006720000
0.6666666865,33.0000000000,5,50.8680376667,-0.0982373333,69.4000000000,2.8125000000,1.8750000000,23.1875000000,image130.jpg,13049.2749430000
0.6666666865,35.0000000000,2,50.8680378333,-0.0982380000,69.3000000000,2.1875000000,2.1250000000,24.6875000000,image131.jpg,13115.0126510000
0.6666666865,33.0000000000,2,50.8680376667,-0.0982386667,69.4000000000,4.2500000000,1.5000000000,27.2500000000,image132.jpg,13248.9886930000
0.6745098233,33.0000000000,5,50.8680376667,-0.0982396667,69.4000000000,4.5000000000,1.2500000000,29.5000000000,image133.jpg,13315.0744740000
0.6352941394,33.0000000000,5,50.8680375000,-0.0982403333,69.4000000000,3.8125000000,0.2500000000,33.0000000000,image134.jpg,13449.2753070000
0.6666666865,32.0000000000,5,50.8680378333,-0.0982415000,69.4000000000,3.2500000000,2.1250000000,33.8125000000,image135.jpg,13515.2598910000
0.6745098233,31.0000000000,5,50.8680380000,-0.0982420000,69.4000000000,1.5625000000,2.4375000000,35.9375000000,image136.jpg,13649.0079640000
0.6823529601,31.0000000000,5,50.8680380000,-0.0982426667,69.4000000000,1.5625000000,3.4375000000,38.0000000000,image137.jpg,13715.2617660000
0.6666666865,29.0000000000,5,50.8680376667,-0.0982435000,69.4000000000,1.5000000000,4.5625000000,41.0000000000,image138.jpg,13849.9009840000
0.5882353187,25.0000000000,5,50.8680380000,-0.0982445000,69.4000000000,1.3750000000,5.1875000000,42.3125000000,image139.jpg,13915.3223910000
0.6745098233,22.0000000000,5,50.8680383333,-0.0982450000,69.4000000000,2.9375000000,5.6875000000,45.4375000000,image140.jpg,14053.2571300000
0.6745098233,24.0000000000,5,50.8680381667,-0.0982453333,69.4000000000,2.0625000000,6.5000000000,46.1250000000,image141.jpg,14114.9786400000
0.6823529601,31.0000000000,5,50.8680383333,-0.0982458333,69.4000000000,3.6875000000,7.0625000000,48.0000000000,image142.jpg,14248.4957760000
0.6980392337,35.0000000000,5,50.8680381667,-0.0982466667,69.4000000000,3.9375000000,6.7500000000,49.2500000000,image143.jpg,14315.1289010000
0.6901960969,33.0000000000,5,50.8680383333,-0.0982476667,69.4000000000,2.1875000000,6.0000000000,51.8750000000,image144.jpg,14452.8147340000
0.6901960969,34.0000000000,2,50.8680386667,-0.0982486667,69.4000000000,1.8750000000,5.8750000000,54.4375000000,image145.jpg,14515.2699950000
0.6352941394,33.0000000000,2,50.8680388333,-0.0982493333,69.4000000000,2.7500000000,7.3125000000,56.6875000000,image146.jpg,14652.3427030000
0.6901960969,34.0000000000,2,50.8680390000,-0.0982498333,69.4000000000,2.9375000000,6.8125000000,58.0000000000,image147.jpg,14715.1718690000
0.7058823705,33.0000000000,2,50.8680390000,-0.0982501667,69.4000000000,2.3125000000,4.5000000000,61.3750000000,image148.jpg,14852.0517650000
0.6980392337,34.0000000000,2,50.8680390000,-0.0982511667,69.4000000000,3.3125000000,3.2500000000,62.9375000000,image149.jpg,14916.1385360000
0.7058823705,35.0000000000,2,50.8680395000,-0.0982523333,69.4000000000,3.2500000000,5.3750000000,67.0000000000,image150.jpg,15054.0203590000
0.6196078658,33.0000000000,2,50.8680396667,-0.0982528333,69.4000000000,2.8750000000,5.5000000000,69.0000000000,image151.jpg,15116.2810880000
0.7058823705,34.0000000000,2,50.8680393333,-0.0982526667,69.4000000000,0.8750000000,3.6250000000,72.0625000000,image152.jpg,15253.6039530000
0.7058823705,34.0000000000,5,50.8680398333,-0.0982536667,69.4000000000,1.5625000000,4.6250000000,73.1250000000,image153.jpg,15315.1642130000
0.7058823705,33.0000000000,5,50.8680403333,-0.0982543333,69.4000000000,2.9375000000,4.7500000000,76.6250000000,image154.jpg,15453.1514520000
0.7058823705,33.0000000000,5,50.8680405000,-0.0982545000,69.4000000000,2.5000000000,5.1875000000,78.3125000000,image155.jpg,15518.9670770000
0.7058823705,33.0000000000,5,50.8680408333,-0.0982548333,69.4000000000,3.1250000000,5.5625000000,81.3750000000,image156.jpg,15653.7707230000
0.7058823705,33.0000000000,5,50.8680413333,-0.0982556667,69.4000000000,2.8125000000,5.8750000000,83.0000000000,image157.jpg,15716.1819210000
0.6196078658,35.0000000000,5,50.8680420000,-0.0982563333,69.4000000000,3.6875000000,4.9375000000,86.2500000000,image158.jpg,15853.6400460000
0.7058823705,34.0000000000,5,50.8680423333,-0.0982568333,69.4000000000,1.4375000000,5.1250000000,86.6250000000,image159.jpg,15919.0945250000
0.7058823705,34.0000000000,5,50.8680428333,-0.0982571667,69.4000000000,-0.5000000000,4.1875000000,91.6250000000,image160.jpg,16054.1056190000
0.7058823705,35.0000000000,5,50.8680428333,-0.0982571667,69.4000000000,1.1250000000,3.8125000000,93.1250000000,image161.jpg,16115.9295250000
0.7058823705,33.0000000000,5,50.8680431667,-0.0982578333,69.4000000000,0.0625000000,2.3125000000,94.9375000000,image162.jpg,16253.1206710000
0.6196078658,34.0000000000,5,50.8680438333,-0.0982581667,69.5000000000,-0.0625000000,2.5000000000,96.0625000000,image163.jpg,16319.9851500000
0.7058823705,34.0000000000,5,50.8680441667,-0.0982588333,69.5000000000,2.5000000000,0.0625000000,100.4375000000,image164.jpg,16451.9966080000
0.7215686440,19.0000000000,2,50.8680446667,-0.0982595000,69.4000000000,0.2500000000,0.2500000000,101.5000000000,image165.jpg,16519.9947330000
0.7058823705,4.0000000000,2,50.8680455000,-0.0982598333,69.4000000000,-1.1875000000,2.3750000000,105.7500000000,image166.jpg,16652.8315040000
0.7058823705,-6.0000000000,2,50.8680463333,-0.0982600000,69.4000000000,-2.1875000000,2.8750000000,106.9375000000,image167.jpg,16720.1257230000
0.7058823705,-10.0000000000,2,50.8680471667,-0.0982606667,69.4000000000,-3.7500000000,2.0000000000,106.9375000000,image168.jpg,16853.3082750000
0.7058823705,-6.0000000000,2,50.8680478333,-0.0982610000,69.4000000000,-2.8750000000,2.8125000000,105.9375000000,image169.jpg,16921.4353060000
0.6745098233,0.0000000000,2,50.8680480000,-0.0982616667,69.4000000000,-1.5625000000,6.6875000000,104.9375000000,image170.jpg,17052.7840040000
0.7215686440,0.0000000000,2,50.8680485000,-0.0982616667,69.4000000000,-1.4375000000,6.8125000000,104.4375000000,image171.jpg,17119.8180140000
0.7058823705,0.0000000000,2,50.8680491667,-0.0982625000,69.4000000000,-2.5000000000,5.6875000000,103.2500000000,image172.jpg,17252.4973890000
0.7137255073,0.0000000000,5,50.8680496667,-0.0982625000,69.4000000000,-2.5625000000,5.5625000000,102.8125000000,image173.jpg,17319.1326500000
0.7058823705,0.0000000000,5,50.8680498333,-0.0982628333,69.4000000000,-4.0625000000,5.5000000000,103.1250000000,image174.jpg,17452.9834310000
0.6745098233,0.0000000000,5,50.8680500000,-0.0982633333,69.4000000000,-3.8750000000,3.8125000000,102.9375000000,image175.jpg,17519.2977540000
0.7294117808,0.0000000000,5,50.8680506667,-0.0982638333,69.4000000000,-2.8750000000,4.0625000000,102.6875000000,image176.jpg,17653.4468160000
0.7137255073,0.0000000000,5,50.8680515000,-0.0982643333,69.4000000000,-3.1875000000,3.0000000000,102.4375000000,image177.jpg,17719.4690040000
0.6823529601,0.0000000000,5,50.8680518333,-0.0982646667,69.4000000000,-1.1250000000,3.1250000000,102.1875000000,image178.jpg,17851.9873890000
0.7137255073,9.0000000000,5,50.8680520000,-0.0982653333,69.4000000000,-0.9375000000,3.6875000000,101.7500000000,image179.jpg,17920.0215560000
0.7215686440,24.0000000000,5,50.8680521667,-0.0982656667,69.4000000000,-3.4375000000,2.0000000000,101.1875000000,image180.jpg,18052.4472850000
0.6980392337,28.0000000000,2,50.8680528333,-0.0982661667,69.4000000000,-5.7500000000,2.7500000000,101.9375000000,image181.jpg,18120.1946290000
0.6980392337,12.0000000000,2,50.8680536667,-0.0982661667,69.4000000000,0.3125000000,3.5625000000,107.1250000000,image182.jpg,18258.2808260000
0.7294117808,0.0000000000,5,50.8680543333,-0.0982663333,69.4000000000,2.2500000000,3.8125000000,107.7500000000,image183.jpg,18319.9996280000
0.7294117808,0.0000000000,5,50.8680548333,-0.0982671667,69.4000000000,-2.6250000000,2.1875000000,109.1875000000,image184.jpg,18455.1604620000
0.7294117808,1.0000000000,5,50.8680555000,-0.0982676667,69.4000000000,-4.0625000000,3.1250000000,109.8125000000,image185.jpg,18519.9661910000
0.7294117808,10.0000000000,5,50.8680560000,-0.0982676667,69.4000000000,-5.5625000000,2.7500000000,108.0625000000,image186.jpg,18656.7458260000
0.7294117808,15.0000000000,5,50.8680563333,-0.0982678333,69.4000000000,-5.7500000000,2.9375000000,108.5000000000,image187.jpg,18719.8570240000
0.7372549176,21.0000000000,2,50.8680570000,-0.0982678333,69.4000000000,-2.7500000000,0.8750000000,109.0625000000,image188.jpg,18856.4692120000
0.7372549176,11.0000000000,2,50.8680575000,-0.0982683333,69.4000000000,-1.8125000000,1.5625000000,110.3750000000,image189.jpg,18919.2510340000
0.7058823705,0.0000000000,2,50.8680581667,-0.0982685000,69.4000000000,-1.9375000000,3.8750000000,112.9375000000,image190.jpg,19055.5467640000
0.7372549176,0.0000000000,2,50.8680583333,-0.0982686667,69.4000000000,-0.1875000000,4.8125000000,113.8125000000,image191.jpg,19119.1772320000
0.7372549176,0.0000000000,2,50.8680586667,-0.0982691667,69.4000000000,-3.0000000000,6.6250000000,112.9375000000,image192.jpg,19255.8527530000
0.6980392337,0.0000000000,5,50.8680595000,-0.0982688333,69.4000000000,-4.2500000000,7.8125000000,113.1250000000,image193.jpg,19323.6367110000
0.7372549176,2.0000000000,5,50.8680600000,-0.0982688333,69.4000000000,-5.6875000000,3.6875000000,114.0625000000,image194.jpg,19456.3997840000
0.7372549176,0.0000000000,5,50.8680603333,-0.0982690000,69.5000000000,-1.8125000000,1.3125000000,113.3750000000,image195.jpg,19523.0002010000
0.7372549176,0.0000000000,5,50.8680606667,-0.0982700000,69.5000000000,-3.1875000000,1.6250000000,112.4375000000,image196.jpg,19655.1384820000
0.7372549176,1.0000000000,5,50.8680615000,-0.0982700000,69.5000000000,-2.0000000000,0.3125000000,113.7500000000,image197.jpg,19723.0941590000
0.7372549176,0.0000000000,5,50.8680625000,-0.0982701667,69.5000000000,3.3750000000,2.3750000000,111.1250000000,image198.jpg,19856.4696800000
0.7372549176,0.0000000000,5,50.8680628333,-0.0982706667,69.5000000000,1.5000000000,4.6875000000,110.7500000000,image199.jpg,19923.6916070000
0.7372549176,0.0000000000,5,50.8680633333,-0.0982705000,69.5000000000,-6.9375000000,9.3750000000,111.8750000000,image200.jpg,20055.5020240000
0.7372549176,0.0000000000,5,50.8680638333,-0.0982705000,69.5000000000,-4.2500000000,7.8750000000,112.0000000000,image201.jpg,20123.8486380000
0.6823529601,0.0000000000,5,50.8680648333,-0.0982706667,69.5000000000,-5.8750000000,7.5000000000,111.4375000000,image202.jpg,20256.1397840000
0.7372549176,0.0000000000,5,50.8680651667,-0.0982711667,69.5000000000,-3.6875000000,3.9375000000,113.0000000000,image203.jpg,20324.0713460000
0.7529411912,1.0000000000,5,50.8680653333,-0.0982716667,69.5000000000,3.5000000000,3.5625000000,111.3750000000,image204.jpg,20455.1003570000
0.6823529601,0.0000000000,5,50.8680656667,-0.0982721667,69.5000000000,-0.8125000000,1.9375000000,109.6875000000,image205.jpg,20523.8597320000
0.7372549176,1.0000000000,5,50.8680663333,-0.0982721667,69.5000000000,-5.6875000000,2.6875000000,111.2500000000,image206.jpg,20657.6020760000
0.7372549176,0.0000000000,5,50.8680671667,-0.0982720000,69.5000000000,-5.8750000000,2.0625000000,110.9375000000,image207.jpg,20723.9056690000
0.7372549176,0.0000000000,5,50.8680678333,-0.0982725000,69.5000000000,-4.3125000000,3.1875000000,111.5000000000,image208.jpg,20855.2687940000
0.7372549176,1.0000000000,5,50.8680683333,-0.0982731667,69.5000000000,-2.2500000000,5.1250000000,110.7500000000,image209.jpg,20923.8886900000
0.7372549176,0.0000000000,5,50.8680686667,-0.0982735000,69.5000000000,-5.7500000000,5.7500000000,110.3125000000,image210.jpg,21058.2307210000
0.7372549176,0.0000000000,5,50.8680693333,-0.0982735000,69.5000000000,-7.7500000000,4.5625000000,111.2500000000,image211.jpg,21124.4559820000
0.7372549176,1.0000000000,5,50.8680703333,-0.0982740000,69.5000000000,-1.9375000000,3.6250000000,110.6250000000,image212.jpg,21259.1197320000
0.7450980544,35.0000000000,5,50.8680708333,-0.0982750000,69.5000000000,1.6250000000,3.9375000000,110.1875000000,image213.jpg,21324.2262420000
0.7450980544,1.0000000000,5,50.8680711667,-0.0982753333,69.5000000000,-0.3125000000,2.4375000000,110.0625000000,image214.jpg,21459.1217110000
0.7450980544,0.0000000000,2,50.8680715000,-0.0982758333,69.5000000000,-3.7500000000,3.2500000000,109.8750000000,image215.jpg,21524.0799400000
0.7372549176,0.0000000000,2,50.8680730000,-0.0982758333,69.5000000000,-7.6875000000,5.6875000000,109.8750000000,image216.jpg,21656.7053560000
0.7450980544,1.0000000000,2,50.8680733333,-0.0982756667,69.5000000000,-7.8750000000,7.0000000000,110.9375000000,image217.jpg,21723.4778560000
0.7372549176,-1.0000000000,2,50.8680733333,-0.0982761667,69.5000000000,0.6250000000,2.0625000000,111.0625000000,image218.jpg,21855.7050440000
0.7372549176,-2.0000000000,2,50.8680741667,-0.0982770000,69.5000000000,2.5625000000,2.8125000000,110.2500000000,image219.jpg,21923.0724920000
0.7372549176,-1.0000000000,2,50.8680753333,-0.0982778333,69.5000000000,-2.3125000000,1.9375000000,109.7500000000,image220.jpg,22060.2975960000
0.7372549176,-2.0000000000,2,50.8680758333,-0.0982776667,69.5000000000,-4.6875000000,2.5000000000,108.8125000000,image221.jpg,22123.4491060000
0.6509804130,-3.0000000000,2,50.8680766667,-0.0982780000,69.5000000000,-4.4375000000,4.3750000000,109.0000000000,image222.jpg,22259.5167100000
0.7529411912,-2.0000000000,2,50.8680770000,-0.0982783333,69.5000000000,-1.4375000000,4.2500000000,109.5000000000,image223.jpg,22323.5175440000
0.7372549176,0.0000000000,2,50.8680776667,-0.0982785000,69.5000000000,3.1250000000,4.0000000000,108.6875000000,image224.jpg,22460.2429600000
0.6509804130,1.0000000000,2,50.8680778333,-0.0982793333,69.5000000000,0.2500000000,4.6250000000,108.0000000000,image225.jpg,22523.2930640000
0.7372549176,0.0000000000,2,50.8680786667,-0.0982791667,69.5000000000,-2.6250000000,4.8125000000,108.4375000000,image226.jpg,22660.2336890000
0.7450980544,0.0000000000,2,50.8680793333,-0.0982793333,69.5000000000,-0.9375000000,5.0625000000,107.8750000000,image227.jpg,22723.3278040000
0.7372549176,1.0000000000,2,50.8680796667,-0.0982800000,69.6000000000,-1.5625000000,8.0000000000,108.3125000000,image228.jpg,22859.5060850000
0.7372549176,3.0000000000,2,50.8680798333,-0.0982793333,69.5000000000,2.0625000000,6.1875000000,109.0625000000,image229.jpg,22923.1659290000
0.7215686440,12.0000000000,2,50.8680806667,-0.0982801667,69.5000000000,1.1875000000,5.8125000000,108.3125000000,image230.jpg,23062.3308250000
0.7372549176,18.0000000000,2,50.8680815000,-0.0982806667,69.6000000000,-2.0625000000,6.0625000000,108.3125000000,image231.jpg,23123.3037930000
0.7372549176,20.0000000000,2,50.8680826667,-0.0982813333,69.6000000000,-2.7500000000,1.3750000000,110.0625000000,image232.jpg,23260.6737410000
0.7058823705,19.0000000000,2,50.8680830000,-0.0982811667,69.6000000000,-3.0000000000,2.0000000000,110.9375000000,image233.jpg,23323.6598870000
0.7450980544,17.0000000000,2,50.8680833333,-0.0982815000,69.6000000000,1.5625000000,4.4375000000,114.3125000000,image234.jpg,23461.3886890000
0.7372549176,17.0000000000,2,50.8680841667,-0.0982816667,69.6000000000,4.0000000000,4.4375000000,114.8750000000,image235.jpg,23528.1660330000
0.7058823705,9.0000000000,2,50.8680846667,-0.0982821667,69.6000000000,-3.3125000000,1.6875000000,116.1250000000,image236.jpg,23659.6341580000
0.7372549176,5.0000000000,2,50.8680853333,-0.0982821667,69.6000000000,-4.6250000000,4.0000000000,117.7500000000,image237.jpg,23727.6341580000
0.7372549176,1.0000000000,2,50.8680853333,-0.0982816667,69.6000000000,-2.9375000000,4.0625000000,118.7500000000,image238.jpg,23860.1982720000
0.7372549176,0.0000000000,2,50.8680860000,-0.0982825000,69.6000000000,-3.8125000000,4.6875000000,119.6250000000,image239.jpg,23927.5906160000
0.7372549176,2.0000000000,2,50.8680868333,-0.0982828333,69.6000000000,-0.7500000000,2.4375000000,120.8125000000,image240.jpg,24060.1903030000
0.7058823705,0.0000000000,2,50.8680876667,-0.0982836667,69.6000000000,-0.9375000000,3.8125000000,120.3125000000,image241.jpg,24127.4510330000
0.7058823705,0.0000000000,2,50.8680885000,-0.0982838333,69.6000000000,-1.5000000000,5.0000000000,120.6250000000,image242.jpg,24260.0232200000
0.7450980544,0.0000000000,5,50.8680891667,-0.0982840000,69.6000000000,-0.8125000000,3.0625000000,119.8125000000,image243.jpg,24327.7655640000
0.7372549176,0.0000000000,5,50.8680898333,-0.0982843333,69.6000000000,-2.3750000000,3.6875000000,119.4375000000,image244.jpg,24459.2777510000
0.7137255073,-5.0000000000,2,50.8680903333,-0.0982846667,69.6000000000,-2.3750000000,4.8125000000,119.4375000000,image245.jpg,24527.6612930000
0.7372549176,-18.0000000000,2,50.8680906667,-0.0982850000,69.5000000000,-3.1875000000,5.1250000000,119.5625000000,image246.jpg,24660.8713450000
0.7372549176,-18.0000000000,2,50.8680913333,-0.0982850000,69.5000000000,-4.1250000000,3.1875000000,118.6250000000,image247.jpg,24727.6443140000
0.7058823705,-19.0000000000,2,50.8680921667,-0.0982853333,69.5000000000,-2.1875000000,5.6250000000,115.8125000000,image248.jpg,24860.0502510000
0.7372549176,-19.0000000000,2,50.8680923333,-0.0982866667,69.5000000000,-2.4375000000,3.7500000000,113.3750000000,image249.jpg,24928.2974380000
0.7372549176,-12.0000000000,2,50.8680931667,-0.0982866667,69.6000000000,2.0625000000,0.3750000000,110.6875000000,image250.jpg,25059.8299380000
0.7372549176,-9.0000000000,2,50.8680935000,-0.0982871667,69.6000000000,0.9375000000,1.8750000000,109.2500000000,image251.jpg,25127.5790010000
0.7529411912,-4.0000000000,2,50.8680941667,-0.0982876667,69.5000000000,-1.8125000000,1.6250000000,109.5000000000,image252.jpg,25259.4406670000
0.7058823705,0.0000000000,2,50.8680945000,-0.0982881667,69.5000000000,-0.9375000000,1.4375000000,108.4375000000,image253.jpg,25328.7653030000
0.7372549176,0.0000000000,2,50.8680955000,-0.0982888333,69.5000000000,-2.5625000000,3.1250000000,107.1250000000,image254.jpg,25460.0838970000
0.7372549176,0.0000000000,2,50.8680958333,-0.0982891667,69.5000000000,0.3750000000,4.0625000000,107.5000000000,image255.jpg,25528.3716050000
0.7372549176,4.0000000000,2,50.8680961667,-0.0982900000,69.5000000000,-0.1875000000,3.0625000000,107.1250000000,image256.jpg,25660.2232190000
0.7372549176,11.0000000000,2,50.8680973333,-0.0982905000,69.5000000000,-1.4375000000,3.0000000000,106.9375000000,image257.jpg,25728.8260320000
0.7529411912,11.0000000000,2,50.8680973333,-0.0982901667,69.5000000000,-1.3750000000,4.4375000000,107.7500000000,image258.jpg,25859.9808760000
0.7372549176,10.0000000000,2,50.8680978333,-0.0982905000,69.5000000000,-2.1250000000,2.0000000000,108.2500000000,image259.jpg,25928.1106150000
0.6901960969,10.0000000000,2,50.8680988333,-0.0982910000,69.5000000000,0.0000000000,1.4375000000,109.0625000000,image260.jpg,26063.1845210000
0.7372549176,10.0000000000,2,50.8680996667,-0.0982920000,69.5000000000,0.0000000000,1.5625000000,109.5625000000,image261.jpg,26128.4336360000
0.7372549176,10.0000000000,2,50.8681005000,-0.0982921667,69.5000000000,-0.8750000000,0.0625000000,110.4375000000,image262.jpg,26266.7005630000
0.7372549176,9.0000000000,5,50.8681003333,-0.0982918333,69.6000000000,-1.8750000000,-0.1875000000,110.9375000000,image263.jpg,26329.7424900000
0.7372549176,5.0000000000,2,50.8681015000,-0.0982928333,69.5000000000,-2.0625000000,1.0625000000,114.1250000000,image264.jpg,26463.8844170000
0.6823529601,2.0000000000,2,50.8681020000,-0.0982931667,69.5000000000,-0.1875000000,0.8125000000,113.7500000000,image265.jpg,26528.3709800000
0.7372549176,0.0000000000,2,50.8681028333,-0.0982938333,69.5000000000,-1.6250000000,-0.1875000000,114.3750000000,image266.jpg,26665.1170210000
0.7372549176,0.0000000000,2,50.8681035000,-0.0982940000,69.5000000000,-0.5625000000,-0.1250000000,114.0000000000,image267.jpg,26727.6336880000
0.7372549176,0.0000000000,2,50.8681038333,-0.0982938333,69.5000000000,-0.9375000000,1.0625000000,113.3750000000,image268.jpg,26864.4219690000
0.7372549176,1.0000000000,2,50.8681041667,-0.0982941667,69.5000000000,-0.4375000000,2.5000000000,113.2500000000,image269.jpg,26927.5304060000
0.7372549176,0.0000000000,2,50.8681048333,-0.0982941667,69.5000000000,-2.1250000000,4.7500000000,112.6250000000,image270.jpg,27064.0849380000
0.7372549176,0.0000000000,2,50.8681058333,-0.0982950000,69.5000000000,-0.7500000000,2.0000000000,113.5625000000,image271.jpg,27127.9253540000
0.6823529601,1.0000000000,2,50.8681065000,-0.0982958333,69.4000000000,2.6875000000,0.9375000000,113.0625000000,image272.jpg,27265.2102500000
0.7372549176,0.0000000000,5,50.8681066667,-0.0982960000,69.4000000000,3.5625000000,0.0000000000,112.8125000000,image273.jpg,27331.9088960000
0.7372549176,0.0000000000,5,50.8681073333,-0.0982961667,69.4000000000,3.6250000000,-0.3750000000,110.8750000000,image274.jpg,27464.0608750000
0.7450980544,1.0000000000,5,50.8681076667,-0.0982968333,69.4000000000,2.3750000000,1.3750000000,110.8125000000,image275.jpg,27531.3544170000
0.7372549176,7.0000000000,5,50.8681086667,-0.0982973333,69.5000000000,5.5625000000,6.1875000000,110.5625000000,image276.jpg,27663.6785310000
0.6509804130,21.0000000000,5,50.8681085000,-0.0982973333,69.4000000000,6.6250000000,7.3125000000,111.6875000000,image277.jpg,27731.7398850000
0.7450980544,28.0000000000,5,50.8681090000,-0.0982978333,69.4000000000,4.1875000000,8.3125000000,112.4375000000,image278.jpg,27863.9478540000
0.7372549176,29.0000000000,2,50.8681096667,-0.0982980000,69.4000000000,5.0625000000,10.0625000000,114.4375000000,image279.jpg,27932.6906660000
0.7529411912,27.0000000000,2,50.8681098333,-0.0982981667,69.4000000000,5.0625000000,10.1250000000,115.7500000000,image280.jpg,28064.1849890000
0.7450980544,26.0000000000,2,50.8681106667,-0.0982981667,69.4000000000,6.6875000000,8.2500000000,118.0625000000,image281.jpg,28132.9403020000
0.7372549176,15.0000000000,2,50.8681111667,-0.0982988333,69.4000000000,4.0625000000,5.8750000000,121.3125000000,image282.jpg,28263.5346250000
0.7372549176,14.0000000000,5,50.8681118333,-0.0982986667,69.4000000000,3.0625000000,4.1875000000,122.3750000000,image283.jpg,28332.2979580000
0.6509804130,8.0000000000,5,50.8681121667,-0.0982986667,69.4000000000,2.3750000000,4.6875000000,124.1250000000,image284.jpg,28463.9766560000
0.7450980544,3.0000000000,5,50.8681128333,-0.0982991667,69.4000000000,1.9375000000,2.6250000000,123.8125000000,image285.jpg,28532.6875930000
0.7529411912,0.0000000000,5,50.8681135000,-0.0982991667,69.4000000000,-2.1250000000,2.6875000000,125.4375000000,image286.jpg,28663.6313430000
0.7450980544,-1.0000000000,5,50.8681140000,-0.0982993333,69.5000000000,-0.6875000000,2.1875000000,124.8750000000,image287.jpg,28732.5786350000
0.7372549176,-12.0000000000,5,50.8681141667,-0.0982991667,69.5000000000,1.3750000000,4.3750000000,124.5625000000,image288.jpg,28863.8057180000
0.7058823705,-14.0000000000,5,50.8681146667,-0.0982993333,69.5000000000,5.1250000000,3.0625000000,124.9375000000,image289.jpg,28931.6330620000
0.7372549176,-11.0000000000,5,50.8681151667,-0.0982995000,69.4000000000,0.0000000000,4.6250000000,121.2500000000,image290.jpg,29063.3444160000
0.7372549176,-4.0000000000,5,50.8681153333,-0.0982996667,69.4000000000,-0.4375000000,4.7500000000,120.1250000000,image291.jpg,29131.5919160000
0.7058823705,0.0000000000,5,50.8681161667,-0.0982998333,69.5000000000,0.9375000000,6.0000000000,118.4375000000,image292.jpg,29265.6300410000
0.7372549176,0.0000000000,5,50.8681166667,-0.0983008333,69.5000000000,0.6250000000,4.6875000000,119.0625000000,image293.jpg,29332.9546240000
0.7372549176,0.0000000000,5,50.8681173333,-0.0983008333,69.5000000000,4.9375000000,4.0000000000,118.1875000000,image294.jpg,29463.2982180000
0.7058823705,0.0000000000,2,50.8681178333,-0.0983015000,69.5000000000,3.0000000000,3.5625000000,116.8750000000,image295.jpg,29532.5336350000
0.7058823705,2.0000000000,2,50.8681178333,-0.0983010000,69.4000000000,-0.0625000000,3.6875000000,118.3750000000,image296.jpg,29663.8753530000
0.7215686440,1.0000000000,2,50.8681180000,-0.0983011667,69.5000000000,0.0625000000,2.8125000000,118.3125000000,image297.jpg,29732.6602490000
0.7372549176,0.0000000000,2,50.8681181667,-0.0983013333,69.4000000000,-0.4375000000,4.4375000000,117.6875000000,image298.jpg,29863.5830090000
0.7372549176,1.0000000000,2,50.8681185000,-0.0983018333,69.4000000000,-1.1875000000,4.6875000000,118.0625000000,image299.jpg,29932.7849370000
0.7372549176,-17.0000000000,2,50.8681190000,-0.0983018333,69.4000000000,0.0000000000,4.8750000000,117.3125000000,image300.jpg,30067.2685300000
0.6980392337,-22.0000000000,2,50.8681191667,-0.0983018333,69.5000000000,-0.9375000000,4.5625000000,116.3125000000,image301.jpg,30132.3791030000
0.7372549176,-27.0000000000,2,50.8681188333,-0.0983018333,69.5000000000,0.0000000000,4.3750000000,115.7500000000,image302.jpg,30268.2486860000
0.7450980544,-25.0000000000,5,50.8681198333,-0.0983025000,69.4000000000,0.7500000000,5.5000000000,114.5000000000,image303.jpg,30332.4362910000
0.7058823705,1.0000000000,2,50.8681208333,-0.0983035000,69.4000000000,-2.0625000000,4.3750000000,109.4375000000,image304.jpg,30468.6209260000
0.7372549176,0.0000000000,2,50.8681211667,-0.0983038333,69.4000000000,-0.8750000000,3.4375000000,107.5000000000,image305.jpg,30531.5384260000
0.7372549176,0.0000000000,2,50.8681215000,-0.0983045000,69.4000000000,2.2500000000,3.3125000000,106.4375000000,image306.jpg,30667.7291550000
0.7372549176,22.0000000000,2,50.8681220000,-0.0983046667,69.4000000000,4.1875000000,3.4375000000,106.9375000000,image307.jpg,30731.5862900000
0.7294117808,4.0000000000,2,50.8681223333,-0.0983053333,69.4000000000,3.5625000000,2.1250000000,107.0000000000,image308.jpg,30868.0862900000
0.7294117808,15.0000000000,2,50.8681230000,-0.0983058333,69.4000000000,1.5000000000,2.1875000000,106.9375000000,image309.jpg,30931.7728530000
0.7372549176,11.0000000000,2,50.8681236667,-0.0983058333,69.4000000000,1.8125000000,4.1250000000,107.8125000000,image310.jpg,31070.8326440000
0.7372549176,1.0000000000,2,50.8681245000,-0.0983061667,69.5000000000,1.1250000000,5.3125000000,108.7500000000,image311.jpg,31132.3338940000
0.6980392337,0.0000000000,2,50.8681250000,-0.0983061667,69.4000000000,2.0625000000,4.0000000000,110.5625000000,image312.jpg,31269.5128530000
0.7294117808,0.0000000000,5,50.8681255000,-0.0983068333,69.5000000000,3.9375000000,4.3750000000,110.4375000000,image313.jpg,31333.9741030000
0.7294117808,0.0000000000,5,50.8681261667,-0.0983068333,69.5000000000,5.2500000000,6.5000000000,110.3125000000,image314.jpg,31468.1572800000
0.6980392337,0.0000000000,2,50.8681268333,-0.0983071667,69.5000000000,6.3125000000,7.5625000000,109.0000000000,image315.jpg,31535.4591030000
0.7294117808,2.0000000000,2,50.8681271667,-0.0983075000,69.5000000000,4.0625000000,2.8750000000,108.5000000000,image316.jpg,31671.3883730000
0.6431372762,0.0000000000,2,50.8681275000,-0.0983076667,69.5000000000,1.1250000000,3.1250000000,108.1875000000,image317.jpg,31736.2604050000
0.7294117808,0.0000000000,2,50.8681276667,-0.0983078333,69.5000000000,0.0000000000,4.0625000000,108.8125000000,image318.jpg,31870.1896750000
0.7294117808,1.0000000000,2,50.8681278333,-0.0983080000,69.5000000000,1.2500000000,4.8750000000,109.3125000000,image319.jpg,31935.5376440000
0.7294117808,0.0000000000,2,50.8681280000,-0.0983085000,69.5000000000,6.5625000000,3.2500000000,110.2500000000,image320.jpg,32068.7386860000
0.7294117808,2.0000000000,2,50.8681281667,-0.0983088333,69.5000000000,9.6875000000,4.8750000000,109.6875000000,image321.jpg,32135.4510820000
0.7294117808,2.0000000000,2,50.8681283333,-0.0983091667,69.5000000000,2.2500000000,5.3750000000,108.1875000000,image322.jpg,32268.8416020000
0.7294117808,6.0000000000,2,50.8681285000,-0.0983088333,69.5000000000,1.0625000000,6.0000000000,109.5000000000,image323.jpg,32335.6704040000
0.6745098233,11.0000000000,2,50.8681291667,-0.0983091667,69.6000000000,0.2500000000,4.5625000000,108.5625000000,image324.jpg,32468.7322270000
0.7294117808,9.0000000000,2,50.8681296667,-0.0983093333,69.5000000000,3.4375000000,3.4375000000,109.4375000000,image325.jpg,32535.8830610000
0.7294117808,1.0000000000,2,50.8681300000,-0.0983103333,69.6000000000,8.8750000000,0.4375000000,111.3125000000,image326.jpg,32669.3000920000
0.6901960969,0.0000000000,2,50.8681305000,-0.0983110000,69.6000000000,5.3750000000,3.1250000000,250.8750000000,image327.jpg,32735.7923830000
0.7294117808,1.0000000000,2,50.8681308333,-0.0983105000,69.5000000000,3.0000000000,1.3125000000,251.2500000000,image328.jpg,32869.4123830000
0.6745098233,0.0000000000,2,50.8681306667,-0.0983108333,69.5000000000,3.1875000000,2.6250000000,251.7500000000,image329.jpg,32935.7196230000
0.7294117808,0.0000000000,2,50.8681306667,-0.0983110000,69.6000000000,4.4375000000,3.8750000000,251.8750000000,image330.jpg,33067.7604040000
0.7294117808,1.0000000000,2,50.8681310000,-0.0983111667,69.5000000000,5.5625000000,4.6875000000,251.8125000000,image331.jpg,33135.6217060000
0.7372549176,0.0000000000,2,50.8681320000,-0.0983113333,69.6000000000,4.0625000000,4.3750000000,250.8750000000,image332.jpg,33268.5360290000
0.7215686440,1.0000000000,2,50.8681326667,-0.0983111667,69.6000000000,3.8125000000,4.0625000000,251.0625000000,image333.jpg,33335.9563940000
0.7294117808,1.0000000000,2,50.8681330000,-0.0983113333,69.6000000000,2.8750000000,2.6875000000,250.6250000000,image334.jpg,33467.6402480000
0.7294117808,1.0000000000,2,50.8681333333,-0.0983113333,69.6000000000,2.1250000000,4.1875000000,250.5000000000,image335.jpg,33535.6170190000
0.6745098233,4.0000000000,2,50.8681338333,-0.0983115000,69.6000000000,3.6875000000,5.5625000000,250.9375000000,image336.jpg,33668.1948830000
0.7294117808,3.0000000000,2,50.8681348333,-0.0983123333,69.5000000000,4.0000000000,5.3125000000,251.0000000000,image337.jpg,33735.9107680000
0.7294117808,0.0000000000,2,50.8681355000,-0.0983130000,69.6000000000,4.0625000000,5.3125000000,251.1875000000,image338.jpg,33868.5256640000
0.6431372762,1.0000000000,2,50.8681361667,-0.0983133333,69.5000000000,3.4375000000,4.5000000000,250.8750000000,image339.jpg,33936.0744660000
0.7294117808,0.0000000000,2,50.8681358333,-0.0983138333,69.5000000000,2.3125000000,4.5000000000,250.3125000000,image340.jpg,34069.8705080000
0.7294117808,0.0000000000,2,50.8681363333,-0.0983141667,69.5000000000,1.3125000000,3.5000000000,250.2500000000,image341.jpg,34135.9347270000
0.7294117808,1.0000000000,2,50.8681375000,-0.0983150000,69.5000000000,0.2500000000,3.9375000000,249.6875000000,image342.jpg,34272.2233720000
0.7294117808,0.0000000000,2,50.8681378333,-0.0983150000,69.5000000000,-0.1250000000,4.0000000000,249.6250000000,image343.jpg,34335.9009770000
0.6431372762,1.0000000000,2,50.8681381667,-0.0983153333,69.5000000000,0.5625000000,3.8750000000,249.7500000000,image344.jpg,34473.0640490000
0.7294117808,0.0000000000,2,50.8681395000,-0.0983155000,69.5000000000,1.1250000000,4.8750000000,250.1875000000,image345.jpg,34535.6260810000
0.7372549176,0.0000000000,2,50.8681395000,-0.0983160000,69.6000000000,1.6250000000,7.9375000000,249.6875000000,image346.jpg,34673.2412370000
0.6980392337,1.0000000000,2,50.8681396667,-0.0983166667,69.5000000000,0.6875000000,8.9375000000,249.1250000000,image347.jpg,34735.7458200000
0.7372549176,-1.0000000000,2,50.8681398333,-0.0983171667,69.5000000000,-1.2500000000,9.3750000000,249.1250000000,image348.jpg,34876.0200910000
0.6980392337,0.0000000000,2,50.8681398333,-0.0983176667,69.5000000000,0.1875000000,9.1875000000,249.1875000000,image349.jpg,34939.1255600000
0.6980392337,0.0000000000,2,50.8681401667,-0.0983185000,69.5000000000,-1.9375000000,8.0000000000,248.0000000000,image350.jpg,35074.3698300000
0.7450980544,0.0000000000,2,50.8681405000,-0.0983190000,69.5000000000,-2.4375000000,6.9375000000,247.6250000000,image351.jpg,35137.8228510000
0.6980392337,-1.0000000000,2,50.8681413333,-0.0983193333,69.6000000000,-0.1250000000,4.8125000000,247.0625000000,image352.jpg,35275.2291530000
0.7294117808,0.0000000000,2,50.8681420000,-0.0983203333,69.5000000000,-0.8750000000,3.5625000000,246.8750000000,image353.jpg,35337.1666010000
0.7215686440,0.0000000000,2,50.8681430000,-0.0983213333,69.5000000000,2.2500000000,3.6875000000,246.3125000000,image354.jpg,35472.7330590000
0.6823529601,0.0000000000,2,50.8681436667,-0.0983218333,69.5000000000,2.8750000000,3.9375000000,245.5625000000,image355.jpg,35540.2655070000
0.6745098233,6.0000000000,2,50.8681443333,-0.0983221667,69.5000000000,-0.1250000000,5.8750000000,244.9375000000,image356.jpg,35671.9785280000
0.7215686440,6.0000000000,2,50.8681448333,-0.0983216667,69.5000000000,-0.4375000000,6.3125000000,244.8125000000,image357.jpg,35740.7999860000
0.7137255073,11.0000000000,2,50.8681451667,-0.0983216667,69.5000000000,0.5000000000,7.6875000000,245.1250000000,image358.jpg,35872.1611840000
0.6823529601,13.0000000000,2,50.8681455000,-0.0983233333,69.5000000000,2.8750000000,7.2500000000,246.3750000000,image359.jpg,35940.6572780000
0.7215686440,9.0000000000,2,50.8681461667,-0.0983243333,69.5000000000,2.1250000000,7.0625000000,246.8125000000,image360.jpg,36078.6875900000
0.6901960969,5.0000000000,2,50.8681470000,-0.0983251667,69.5000000000,1.3750000000,6.8125000000,246.3750000000,image361.jpg,36140.4023820000
0.7137255073,0.0000000000,2,50.8681470000,-0.0983246667,69.6000000000,-0.4375000000,6.0625000000,247.0625000000,image362.jpg,36272.8110800000
0.7294117808,0.0000000000,2,50.8681476667,-0.0983246667,69.6000000000,-0.8125000000,6.6250000000,247.2500000000,image363.jpg,36340.9457150000
0.6901960969,0.0000000000,2,50.8681478333,-0.0983245000,69.6000000000,-0.1250000000,7.2500000000,247.3750000000,image364.jpg,36473.6721220000
0.7215686440,0.0000000000,2,50.8681483333,-0.0983248333,69.6000000000,1.0625000000,6.8750000000,246.9375000000,image365.jpg,36539.4317050000
0.7215686440,2.0000000000,2,50.8681488333,-0.0983256667,69.5000000000,-1.0625000000,5.5625000000,246.3750000000,image366.jpg,36673.4773300000
0.6901960969,0.0000000000,2,50.8681491667,-0.0983256667,69.6000000000,-0.7500000000,5.0000000000,245.6250000000,image367.jpg,36739.3872260000
0.7215686440,1.0000000000,2,50.8681495000,-0.0983263333,69.6000000000,-1.7500000000,5.3125000000,244.8125000000,image368.jpg,36873.5883710000
0.7215686440,0.0000000000,2,50.8681500000,-0.0983263333,69.7000000000,-3.5625000000,4.6250000000,244.6875000000,image369.jpg,36939.5719130000
0.7215686440,0.0000000000,2,50.8681506667,-0.0983263333,69.7000000000,-2.1875000000,7.1875000000,245.6875000000,image370.jpg,37071.8314440000
0.7215686440,1.0000000000,2,50.8681506667,-0.0983266667,69.7000000000,-0.6250000000,7.4375000000,244.7500000000,image371.jpg,37139.9905070000
0.7215686440,0.0000000000,2,50.8681510000,-0.0983275000,69.7000000000,-2.2500000000,6.1875000000,244.6875000000,image372.jpg,37271.6331630000
0.7372549176,0.0000000000,2,50.8681515000,-0.0983280000,69.7000000000,-4.0625000000,6.1250000000,244.7500000000,image373.jpg,37340.7600900000
0.6901960969,8.0000000000,2,50.8681520000,-0.0983285000,69.7000000000,0.0000000000,5.5000000000,243.6250000000,image374.jpg,37471.8354020000
0.7215686440,12.0000000000,2,50.8681528333,-0.0983293333,69.7000000000,0.0000000000,5.0000000000,243.2500000000,image375.jpg,37540.9802980000
0.6745098233,3.0000000000,2,50.8681536667,-0.0983300000,69.7000000000,-1.4375000000,2.8750000000,244.2500000000,image376.jpg,37672.9635790000
0.7215686440,0.0000000000,2,50.8681536667,-0.0983303333,69.8000000000,-1.3125000000,5.6875000000,245.2500000000,image377.jpg,37741.0648290000
0.7215686440,1.0000000000,2,50.8681540000,-0.0983310000,69.7000000000,-2.8125000000,5.2500000000,245.5625000000,image378.jpg,37871.5961310000
0.6431372762,0.0000000000,2,50.8681545000,-0.0983315000,69.7000000000,-0.6875000000,5.1250000000,245.5000000000,image379.jpg,37941.1406630000
0.7137255073,1.0000000000,2,50.8681540000,-0.0983320000,69.6000000000,-2.0625000000,7.6875000000,245.0625000000,image380.jpg,38076.4804540000
0.7137255073,-1.0000000000,2,50.8681548333,-0.0983323333,69.7000000000,-3.9375000000,8.7500000000,245.3750000000,image381.jpg,38140.2780060000
0.7137255073,-5.0000000000,2,50.8681555000,-0.0983326667,69.7000000000,-3.0625000000,8.2500000000,245.0625000000,image382.jpg,38276.4811830000
0.7137255073,-5.0000000000,2,50.8681561667,-0.0983325000,69.7000000000,-2.2500000000,7.1250000000,244.8750000000,image383.jpg,38339.6260790000
0.7137255073,-11.0000000000,2,50.8681568333,-0.0983330000,69.7000000000,3.1250000000,9.5625000000,244.9375000000,image384.jpg,38475.6458710000
0.7137255073,-11.0000000000,2,50.8681571667,-0.0983336667,69.8000000000,5.0000000000,9.4375000000,242.3750000000,image385.jpg,38540.1098810000
0.6666666865,-7.0000000000,2,50.8681576667,-0.0983341667,69.8000000000,2.0000000000,8.6250000000,237.8125000000,image386.jpg,38675.6927980000
0.7137255073,-3.0000000000,2,50.8681581667,-0.0983345000,69.8000000000,0.6875000000,6.3125000000,236.1875000000,image387.jpg,38740.0320690000
0.6666666865,4.0000000000,2,50.8681586667,-0.0983346667,69.8000000000,0.3750000000,4.7500000000,236.8125000000,image388.jpg,38877.1340480000
0.7137255073,7.0000000000,2,50.8681596667,-0.0983358333,69.9000000000,0.3750000000,5.0625000000,236.1875000000,image389.jpg,38940.3869640000
0.7137255073,4.0000000000,2,50.8681605000,-0.0983366667,70.0000000000,-2.0000000000,7.3750000000,236.1250000000,image390.jpg,39076.6271210000
0.6588235497,0.0000000000,2,50.8681611667,-0.0983371667,70.1000000000,-1.4375000000,6.1875000000,236.6250000000,image391.jpg,39140.6684750000
0.7058823705,0.0000000000,2,50.8681615000,-0.0983375000,70.1000000000,-0.6250000000,5.3750000000,237.1250000000,image392.jpg,39276.8243600000
0.7137255073,-2.0000000000,5,50.8681628333,-0.0983375000,70.1000000000,0.0000000000,6.0625000000,237.1875000000,image393.jpg,39340.5436830000
0.7058823705,-8.0000000000,5,50.8681635000,-0.0983370000,70.1000000000,3.0000000000,5.3750000000,236.7500000000,image394.jpg,39476.2264430000
0.7137255073,-9.0000000000,5,50.8681643333,-0.0983373333,70.1000000000,2.5000000000,5.0625000000,235.8125000000,image395.jpg,39544.1855060000
0.7215686440,-9.0000000000,5,50.8681651667,-0.0983378333,70.1000000000,-0.4375000000,5.0625000000,235.2500000000,image396.jpg,39675.9726930000
0.7058823705,-6.0000000000,2,50.8681656667,-0.0983380000,70.1000000000,-1.3750000000,4.8125000000,234.7500000000,image397.jpg,39744.6229540000
0.6196078658,1.0000000000,2,50.8681658333,-0.0983386667,70.1000000000,-0.6250000000,3.4375000000,233.1250000000,image398.jpg,39878.7188390000
0.6980392337,0.0000000000,2,50.8681663333,-0.0983395000,70.1000000000,0.0625000000,2.4375000000,232.5625000000,image399.jpg,39946.7300890000
0.6196078658,0.0000000000,2,50.8681665000,-0.0983395000,70.1000000000,0.9375000000,2.5000000000,232.2500000000,image400.jpg,40076.5410790000
0.7137255073,0.0000000000,2,50.8681670000,-0.0983406667,70.1000000000,0.3750000000,1.5625000000,232.0000000000,image401.jpg,40146.7339950000
0.6980392337,0.0000000000,2,50.8681675000,-0.0983411667,70.1000000000,-0.1875000000,3.1875000000,231.7500000000,image402.jpg,40277.8055060000
0.6196078658,1.0000000000,2,50.8681681667,-0.0983415000,70.1000000000,1.1875000000,4.7500000000,231.8125000000,image403.jpg,40346.8776410000
0.7058823705,-1.0000000000,2,50.8681686667,-0.0983423333,70.1000000000,0.1875000000,4.7500000000,231.1875000000,image404.jpg,40477.8106100000
0.7137255073,-1.0000000000,2,50.8681686667,-0.0983430000,70.1000000000,0.1250000000,5.1250000000,230.9375000000,image405.jpg,40543.6290990000
0.7058823705,-3.0000000000,2,50.8681688333,-0.0983438333,70.1000000000,-0.1875000000,4.7500000000,230.8750000000,image406.jpg,40676.7999320000
0.7215686440,-5.0000000000,2,50.8681691667,-0.0983441667,70.1000000000,0.2500000000,4.6250000000,230.7500000000,image407.jpg,40743.8823280000
0.7058823705,-9.0000000000,2,50.8681701667,-0.0983445000,70.1000000000,2.8750000000,3.6250000000,230.0000000000,image408.jpg,40876.6222760000
0.7058823705,-9.0000000000,2,50.8681708333,-0.0983451667,70.2000000000,3.6250000000,5.6875000000,229.6250000000,image409.jpg,40943.5714950000
0.6666666865,-10.0000000000,2,50.8681711667,-0.0983453333,70.2000000000,2.0000000000,5.1250000000,227.3125000000,image410.jpg,41081.8936300000
0.6745098233,-9.0000000000,2,50.8681715000,-0.0983456667,70.2000000000,0.5000000000,5.0000000000,225.5625000000,image411.jpg,41144.0891510000
0.6823529601,-5.0000000000,2,50.8681716667,-0.0983465000,70.2000000000,0.3750000000,5.7500000000,225.0625000000,image412.jpg,41278.8628490000
0.7058823705,-2.0000000000,5,50.8681726667,-0.0983475000,70.2000000000,1.7500000000,6.8750000000,224.8750000000,image413.jpg,41344.3108180000
0.7058823705,-1.0000000000,5,50.8681728333,-0.0983480000,70.1000000000,1.2500000000,5.5625000000,224.0000000000,image414.jpg,41476.4872760000
0.6745098233,2.0000000000,5,50.8681733333,-0.0983485000,70.1000000000,1.1250000000,3.8750000000,223.5000000000,image415.jpg,41543.5398280000
0.6980392337,1.0000000000,5,50.8681740000,-0.0983491667,70.1000000000,0.9375000000,2.5000000000,223.5000000000,image416.jpg,41677.2849840000
0.7058823705,-1.0000000000,5,50.8681745000,-0.0983501667,70.0000000000,2.5000000000,3.3750000000,222.5625000000,image417.jpg,41743.6675360000
0.6666666865,-11.0000000000,5,50.8681748333,-0.0983510000,70.0000000000,0.5625000000,3.1250000000,222.8750000000,image418.jpg,41876.8036820000
0.6980392337,-11.0000000000,5,50.8681750000,-0.0983513333,70.0000000000,-0.1875000000,2.7500000000,222.5000000000,image419.jpg,41944.2502970000
0.6980392337,-8.0000000000,5,50.8681755000,-0.0983521667,70.0000000000,-0.8750000000,6.0000000000,221.0625000000,image420.jpg,42076.5742030000
0.6980392337,-8.0000000000,5,50.8681758333,-0.0983528333,70.0000000000,0.6875000000,5.8125000000,220.4375000000,image421.jpg,42143.7403490000
0.6666666865,-1.0000000000,5,50.8681761667,-0.0983536667,70.0000000000,1.2500000000,6.0000000000,219.6250000000,image422.jpg,42280.7601920000
0.6666666865,-2.0000000000,5,50.8681765000,-0.0983543333,69.9000000000,2.5625000000,4.6875000000,219.3125000000,image423.jpg,42343.6522760000
