gps quality,lat,lon,altitude,roll,pitch,yaw,image name,timestamp
4,50.8634193333,-0.0939408333,56.6000000000,6.0000000000,-1.9375000000,359.9375000000,image0.jpg,3.7093680000
4,50.8634193333,-0.0939408333,56.6000000000,6.0000000000,-1.9375000000,359.9375000000,image1.jpg,202.8433820000
4,50.8634193333,-0.0939408333,56.6000000000,6.0000000000,-1.9375000000,359.9375000000,image2.jpg,401.9573950000
4,50.8634195000,-0.0939408333,56.6000000000,6.0000000000,-1.9375000000,359.9375000000,image3.jpg,601.9582190000
4,50.8634193333,-0.0939408333,56.6000000000,6.0000000000,-1.9375000000,359.9375000000,image4.jpg,802.2210340000
4,50.8634195000,-0.0939410000,56.6000000000,6.0000000000,-1.9375000000,359.9375000000,image5.jpg,1003.0442880000
4,50.8634193333,-0.0939408333,56.6000000000,6.0000000000,-1.9375000000,359.9375000000,image6.jpg,1203.1768900000
4,50.8634193333,-0.0939408333,56.6000000000,6.0000000000,-1.9375000000,359.9375000000,image7.jpg,1403.2504790000
4,50.8634195000,-0.0939410000,56.6000000000,7.8125000000,-1.7500000000,359.6250000000,image8.jpg,1602.1978800000
4,50.8634198333,-0.0939415000,56.6000000000,8.9375000000,-2.0000000000,359.9375000000,image9.jpg,1802.1549600000
4,50.8634205000,-0.0939421667,56.6000000000,8.3750000000,-1.7500000000,0.3750000000,image10.jpg,2003.1814050000
4,50.8634215000,-0.0939430000,56.6000000000,8.3750000000,-2.3125000000,0.6875000000,image11.jpg,2203.5854300000
4,50.8634226667,-0.0939440000,56.6000000000,7.8750000000,-2.5000000000,359.3750000000,image12.jpg,2403.5943340000
4,50.8634236667,-0.0939448333,56.6000000000,7.0625000000,-1.8750000000,359.2500000000,image13.jpg,2602.8717550000
4,50.8634246667,-0.0939460000,56.6000000000,7.6250000000,-1.3125000000,359.5000000000,image14.jpg,2802.7833690000
4,50.8634255000,-0.0939470000,56.6000000000,6.9375000000,-1.0625000000,359.4375000000,image15.jpg,3002.9761930000
4,50.8634265000,-0.0939483333,56.6000000000,7.4375000000,-2.4375000000,359.9375000000,image16.jpg,3202.7853040000
4,50.8634273333,-0.0939495000,56.6000000000,9.4375000000,-2.1250000000,359.8750000000,image17.jpg,3402.8905200000
4,50.8634281667,-0.0939503333,56.6000000000,6.8750000000,-1.4375000000,0.1250000000,image18.jpg,3602.8655780000
4,50.8634290000,-0.0939513333,56.6000000000,8.3125000000,-2.0000000000,0.8750000000,image19.jpg,3802.9654870000
4,50.8634300000,-0.0939523333,56.6000000000,9.1250000000,-2.3125000000,1.4375000000,image20.jpg,4003.0371660000
4,50.8634310000,-0.0939533333,56.6000000000,9.4375000000,-2.1875000000,1.7500000000,image21.jpg,4203.1199380000
4,50.8634320000,-0.0939541667,56.6000000000,9.8750000000,-2.3125000000,2.2500000000,image22.jpg,4403.1819810000
4,50.8634330000,-0.0939551667,56.6000000000,8.8750000000,-2.6250000000,3.0000000000,image23.jpg,4603.2273600000
4,50.8634340000,-0.0939561667,56.6000000000,9.2500000000,-2.6250000000,3.3750000000,image24.jpg,4803.2550320000
4,50.8634350000,-0.0939571667,56.6000000000,8.5625000000,-2.0000000000,3.7500000000,image25.jpg,5003.3267160000
4,50.8634361667,-0.0939580000,56.6000000000,8.9375000000,-2.3125000000,4.6250000000,image26.jpg,5203.8804500000
4,50.8634373333,-0.0939590000,56.6000000000,8.5625000000,-3.1250000000,5.1875000000,image27.jpg,5404.5257510000
4,50.8634381667,-0.0939596667,56.6000000000,8.6875000000,-2.2500000000,6.5000000000,image28.jpg,5604.6358250000
4,50.8634393333,-0.0939605000,56.6000000000,9.1250000000,-2.1875000000,7.7500000000,image29.jpg,5804.6529810000
4,50.8634405000,-0.0939613333,56.6000000000,8.0625000000,-1.8125000000,8.5000000000,image30.jpg,6003.7879140000
4,50.8634415000,-0.0939623333,56.6000000000,7.3125000000,-2.0625000000,6.6250000000,image31.jpg,6203.8363220000
4,50.8634425000,-0.0939631667,56.7000000000,7.0625000000,-2.3125000000,4.3125000000,image32.jpg,6404.7019490000
4,50.8634436667,-0.0939640000,56.6000000000,5.6875000000,-2.5000000000,5.1875000000,image33.jpg,6604.9212000000
4,50.8634446667,-0.0939646667,56.7000000000,5.0625000000,-2.0000000000,5.6875000000,image34.jpg,6804.9994050000
4,50.8634456667,-0.0939656667,56.7000000000,5.5625000000,-1.2500000000,4.4375000000,image35.jpg,7004.3201320000
4,50.8634466667,-0.0939666667,56.7000000000,5.3125000000,-1.4375000000,1.6250000000,image36.jpg,7204.2275490000
4,50.8634475000,-0.0939675000,56.7000000000,6.1250000000,-1.3125000000,2.6875000000,image37.jpg,7404.5707130000
4,50.8634485000,-0.0939685000,56.7000000000,6.9375000000,-1.8125000000,3.1250000000,image38.jpg,7605.3080110000
4,50.8634495000,-0.0939695000,56.7000000000,7.4375000000,-2.1875000000,4.5625000000,image39.jpg,7805.3844510000
4,50.8634505000,-0.0939701667,56.7000000000,7.8750000000,-0.8125000000,7.3750000000,image40.jpg,8005.4458890000
4,50.8634515000,-0.0939706667,56.7000000000,8.2500000000,-0.4375000000,10.8750000000,image41.jpg,8204.5468730000
4,50.8634525000,-0.0939713333,56.7000000000,8.3750000000,-0.1250000000,15.0625000000,image42.jpg,8404.6282610000
4,50.8634536667,-0.0939716667,56.7000000000,8.2500000000,-0.0625000000,18.9375000000,image43.jpg,8604.8849190000
4,50.8634546667,-0.0939720000,56.7000000000,7.9375000000,-0.3125000000,19.1250000000,image44.jpg,8804.7400000000
4,50.8634555000,-0.0939723333,56.7000000000,6.8125000000,-0.5625000000,19.2500000000,image45.jpg,9004.8148820000
4,50.8634566667,-0.0939728333,56.7000000000,7.5000000000,-0.5000000000,20.3750000000,image46.jpg,9204.8693470000
4,50.8634576667,-0.0939733333,56.7000000000,9.5625000000,-0.7500000000,19.1250000000,image47.jpg,9404.9637090000
4,50.8634588333,-0.0939736667,56.7000000000,7.5000000000,-0.6875000000,18.9375000000,image48.jpg,9605.2015690000
4,50.8634598333,-0.0939741667,56.7000000000,7.6250000000,-0.8125000000,19.5000000000,image49.jpg,9805.0893650000
4,50.8634608333,-0.0939746667,56.7000000000,9.6875000000,-1.1250000000,20.0625000000,image50.jpg,10005.1246150000
4,50.8634618333,-0.0939748333,56.7000000000,8.5625000000,-0.7500000000,20.4375000000,image51.jpg,10205.1864290000
4,50.8634630000,-0.0939753333,56.7000000000,8.0625000000,-1.9375000000,21.1250000000,image52.jpg,10405.3066820000
4,50.8634640000,-0.0939756667,56.7000000000,8.3750000000,-1.1250000000,22.1875000000,image53.jpg,10605.5291310000
4,50.8634650000,-0.0939760000,56.7000000000,8.1875000000,-0.6250000000,23.0625000000,image54.jpg,10806.5328100000
4,50.8634660000,-0.0939761667,56.7000000000,8.5000000000,-0.4375000000,23.4375000000,image55.jpg,11006.5113440000
4,50.8634670000,-0.0939763333,56.7000000000,8.0000000000,-0.1875000000,23.7500000000,image56.jpg,11206.5063890000
4,50.8634681667,-0.0939766667,56.7000000000,6.9375000000,-0.6875000000,22.9375000000,image57.jpg,11405.6409310000
4,50.8634691667,-0.0939770000,56.7000000000,7.6875000000,-1.1875000000,22.4375000000,image58.jpg,11605.7410870000
4,50.8634701667,-0.0939771667,56.7000000000,6.3125000000,-1.3125000000,22.6250000000,image59.jpg,11806.3566310000
4,50.8634711667,-0.0939773333,56.7000000000,6.6875000000,-2.0625000000,23.5625000000,image60.jpg,12006.7975320000
4,50.8634721667,-0.0939775000,56.7000000000,6.0000000000,-2.1250000000,25.1875000000,image61.jpg,12206.8307080000
4,50.8634731667,-0.0939776667,56.7000000000,7.0000000000,-0.5625000000,25.0625000000,image62.jpg,12406.8321650000
4,50.8634741667,-0.0939780000,56.7000000000,8.3125000000,-0.8750000000,24.0000000000,image63.jpg,12606.0322900000
4,50.8634750000,-0.0939780000,56.7000000000,3.1250000000,0.0625000000,21.8750000000,image64.jpg,12806.0787530000
4,50.8634760000,-0.0939785000,56.7000000000,7.3125000000,-2.0625000000,21.5625000000,image65.jpg,13007.1819250000
4,50.8634770000,-0.0939786667,56.7000000000,6.3750000000,-2.0625000000,22.2500000000,image66.jpg,13207.1825010000
4,50.8634780000,-0.0939790000,56.8000000000,5.1250000000,-2.8125000000,21.8125000000,image67.jpg,13407.1989630000
4,50.8634790000,-0.0939793333,56.8000000000,6.0625000000,-2.4375000000,19.8750000000,image68.jpg,13606.4053950000
4,50.8634800000,-0.0939796667,56.7000000000,4.3125000000,-2.5000000000,16.8750000000,image69.jpg,13806.3850890000
4,50.8634810000,-0.0939801667,56.7000000000,4.2500000000,-2.8125000000,18.0625000000,image70.jpg,14007.0192370000
4,50.8634820000,-0.0939806667,56.7000000000,6.0625000000,-2.1250000000,17.1875000000,image71.jpg,14206.6197490000
4,50.8634830000,-0.0939811667,56.7000000000,5.2500000000,-2.3750000000,15.9375000000,image72.jpg,14406.6406430000
4,50.8634840000,-0.0939815000,56.7000000000,5.6875000000,-2.6250000000,16.5000000000,image73.jpg,14606.7827950000
4,50.8634850000,-0.0939820000,56.7000000000,6.8125000000,-3.6875000000,16.0000000000,image74.jpg,14806.6970230000
4,50.8634860000,-0.0939826667,56.7000000000,6.0000000000,-3.3125000000,15.8750000000,image75.jpg,15006.8622500000
4,50.8634870000,-0.0939831667,56.7000000000,6.3125000000,-3.6250000000,16.1250000000,image76.jpg,15206.9357020000
4,50.8634881667,-0.0939835000,56.7000000000,5.5625000000,-1.9375000000,16.3750000000,image77.jpg,15407.0089470000
4,50.8634890000,-0.0939838333,56.7000000000,6.5625000000,-1.0625000000,16.6875000000,image78.jpg,15607.1002680000
4,50.8634900000,-0.0939845000,56.7000000000,6.3125000000,-2.2500000000,16.8125000000,image79.jpg,15807.1435150000
4,50.8634910000,-0.0939848333,56.7000000000,2.3125000000,-2.2500000000,16.8125000000,image80.jpg,16007.2115040000
4,50.8634920000,-0.0939851667,56.8000000000,1.5000000000,-4.1250000000,15.4375000000,image81.jpg,16208.1621840000
4,50.8634930000,-0.0939856667,56.8000000000,1.5000000000,-4.9375000000,13.3750000000,image82.jpg,16408.4254920000
4,50.8634941667,-0.0939865000,56.7000000000,3.5625000000,-5.2500000000,11.3125000000,image83.jpg,16608.3595200000
4,50.8634948333,-0.0939868333,56.7000000000,4.5000000000,-1.3750000000,12.0000000000,image84.jpg,16808.2649020000
4,50.8634956667,-0.0939871667,56.7000000000,1.4375000000,0.0000000000,9.3125000000,image85.jpg,17007.6404180000
4,50.8634965000,-0.0939881667,56.7000000000,3.5625000000,1.6250000000,8.6250000000,image86.jpg,17207.7415890000
4,50.8634973333,-0.0939886667,56.7000000000,4.8750000000,0.7500000000,12.3125000000,image87.jpg,17408.7615470000
4,50.8634980000,-0.0939891667,56.8000000000,7.1875000000,0.3125000000,14.6250000000,image88.jpg,17608.8225640000
4,50.8634990000,-0.0939893333,56.8000000000,5.2500000000,-1.5625000000,16.6250000000,image89.jpg,17808.9021240000
4,50.8634998333,-0.0939896667,56.8000000000,5.5000000000,-2.3750000000,16.8125000000,image90.jpg,18008.0054470000
4,50.8635006667,-0.0939901667,56.8000000000,4.6875000000,-1.6875000000,19.0625000000,image91.jpg,18208.0987050000
4,50.8635015000,-0.0939903333,56.8000000000,4.4375000000,-1.3750000000,20.6250000000,image92.jpg,18408.6488050000
4,50.8635025000,-0.0939906667,56.8000000000,6.6250000000,-2.1875000000,20.6250000000,image93.jpg,18609.1868240000
4,50.8635033333,-0.0939910000,56.8000000000,5.7500000000,-2.0625000000,20.6250000000,image94.jpg,18809.2348770000
4,50.8635043333,-0.0939913333,56.8000000000,5.3750000000,-0.8125000000,20.0000000000,image95.jpg,19009.3736110000
4,50.8635053333,-0.0939916667,56.8000000000,5.8125000000,-0.5625000000,17.1250000000,image96.jpg,19208.4284980000
4,50.8635061667,-0.0939923333,56.8000000000,6.5000000000,-1.2500000000,16.2500000000,image97.jpg,19408.5046250000
4,50.8635071667,-0.0939926667,56.8000000000,7.0625000000,-1.1875000000,16.3125000000,image98.jpg,19608.5658580000
4,50.8635081667,-0.0939931667,56.8000000000,5.3125000000,-2.3750000000,12.8125000000,image99.jpg,19808.6344370000
4,50.8635090000,-0.0939940000,56.8000000000,7.0000000000,-2.3750000000,10.2500000000,image100.jpg,20008.6966610000
4,50.8635101667,-0.0939945000,56.8000000000,6.1875000000,-2.1875000000,10.3125000000,image101.jpg,20208.7774280000
4,50.8635111667,-0.0939953333,56.8000000000,6.5625000000,-2.4375000000,10.3125000000,image102.jpg,20408.8211090000
4,50.8635121667,-0.0939960000,56.8000000000,6.6250000000,-2.7500000000,10.6875000000,image103.jpg,20609.1119920000
4,50.8635131667,-0.0939968333,56.8000000000,6.6875000000,-3.0000000000,9.9375000000,image104.jpg,20808.9736390000
4,50.8635141667,-0.0939973333,56.8000000000,5.7500000000,-3.3750000000,6.5000000000,image105.jpg,21009.0349300000
4,50.8635151667,-0.0939985000,56.8000000000,6.7500000000,-2.0000000000,2.2500000000,image106.jpg,21209.1185140000
4,50.8635163333,-0.0939996667,56.8000000000,7.1875000000,-2.2500000000,3.1875000000,image107.jpg,21409.1768880000
4,50.8635176667,-0.0940008333,56.8000000000,7.4375000000,-2.0625000000,4.3750000000,image108.jpg,21609.5209010000
4,50.8635190000,-0.0940018333,56.8000000000,6.2500000000,-1.6250000000,7.6250000000,image109.jpg,21810.5979670000
4,50.8635203333,-0.0940028333,56.8000000000,6.5625000000,-3.2500000000,7.8125000000,image110.jpg,22010.3801880000
4,50.8635216667,-0.0940036667,56.8000000000,4.8125000000,-2.9375000000,6.5000000000,image111.jpg,22210.4277330000
4,50.8635228333,-0.0940045000,56.8000000000,3.1250000000,-3.4375000000,2.4375000000,image112.jpg,22409.5204990000
4,50.8635238333,-0.0940058333,56.8000000000,5.3125000000,-3.6250000000,1.0000000000,image113.jpg,22609.6078920000
4,50.8635250000,-0.0940070000,56.8000000000,4.1250000000,-2.1250000000,359.7500000000,image114.jpg,22810.1796800000
4,50.8635260000,-0.0940081667,56.8000000000,5.0000000000,-2.5625000000,356.3750000000,image115.jpg,23010.6983940000
4,50.8635271667,-0.0940096667,56.8000000000,5.7500000000,-3.6250000000,355.5625000000,image116.jpg,23210.8509470000
4,50.8635281667,-0.0940110000,56.8000000000,4.8125000000,-2.4375000000,355.5625000000,image117.jpg,23410.6534860000
4,50.8635291667,-0.0940125000,56.8000000000,5.8750000000,-3.6250000000,352.7500000000,image118.jpg,23609.8872020000
4,50.8635303333,-0.0940138333,56.8000000000,5.5000000000,-4.3125000000,351.5000000000,image119.jpg,23810.2384650000
4,50.8635313333,-0.0940153333,56.8000000000,7.1875000000,-3.8125000000,352.1250000000,image120.jpg,24010.9818270000
4,50.8635323333,-0.0940168333,56.8000000000,5.8125000000,-2.8125000000,350.0625000000,image121.jpg,24211.0747980000
4,50.8635333333,-0.0940183333,56.8000000000,5.7500000000,-3.5000000000,349.3750000000,image122.jpg,24411.1495910000
4,50.8635343333,-0.0940200000,56.8000000000,6.7500000000,-3.3125000000,347.6875000000,image123.jpg,24610.1979910000
4,50.8635351667,-0.0940215000,56.8000000000,5.8750000000,-4.6875000000,348.0000000000,image124.jpg,24810.2669030000
4,50.8635361667,-0.0940230000,56.8000000000,5.0625000000,-4.5000000000,348.8750000000,image125.jpg,25010.9987580000
4,50.8635371667,-0.0940245000,56.8000000000,4.2500000000,-3.6875000000,347.0000000000,image126.jpg,25210.4715520000
4,50.8635380000,-0.0940261667,56.8000000000,4.0000000000,-3.9375000000,342.3750000000,image127.jpg,25410.5256710000
4,50.8635388333,-0.0940276667,56.8000000000,4.1250000000,-1.9375000000,342.8125000000,image128.jpg,25610.6157320000
4,50.8635396667,-0.0940293333,56.8000000000,6.6250000000,-3.3125000000,343.1250000000,image129.jpg,25810.6949090000
4,50.8635405000,-0.0940310000,56.8000000000,5.5625000000,-3.1875000000,343.3125000000,image130.jpg,26010.9116430000
4,50.8635415000,-0.0940328333,56.8000000000,5.0000000000,-1.8125000000,343.6250000000,image131.jpg,26210.8481050000
4,50.8635421667,-0.0940345000,56.8000000000,5.2500000000,-1.3750000000,343.6875000000,image132.jpg,26410.9382200000
4,50.8635430000,-0.0940361667,56.8000000000,5.8125000000,-2.5000000000,343.1875000000,image133.jpg,26611.0503170000
4,50.8635438333,-0.0940378333,56.9000000000,6.9375000000,-3.6875000000,342.6875000000,image134.jpg,26811.0899120000
4,50.8635446667,-0.0940395000,56.9000000000,6.8750000000,-3.1875000000,342.6875000000,image135.jpg,27011.1873740000
4,50.8635455000,-0.0940413333,56.9000000000,6.3125000000,-3.2500000000,343.0000000000,image136.jpg,27212.2095090000
4,50.8635465000,-0.0940430000,56.9000000000,6.7500000000,-3.0625000000,343.1250000000,image137.jpg,27412.2820220000
4,50.8635473333,-0.0940445000,56.9000000000,6.2500000000,-1.9375000000,342.6250000000,image138.jpg,27612.3237550000
4,50.8635481667,-0.0940461667,56.9000000000,5.9375000000,-2.3125000000,342.3125000000,image139.jpg,27811.4657660000
4,50.8635490000,-0.0940480000,56.9000000000,5.9375000000,-2.5000000000,342.3750000000,image140.jpg,28011.5552630000
4,50.8635498333,-0.0940496667,56.9000000000,5.5625000000,-3.5625000000,342.4375000000,image141.jpg,28212.0810790000
4,50.8635506667,-0.0940513333,56.9000000000,6.9375000000,-3.6250000000,341.9375000000,image142.jpg,28412.7105460000
4,50.8635515000,-0.0940530000,56.9000000000,6.3125000000,-3.8125000000,342.1250000000,image143.jpg,28612.6720720000
4,50.8635523333,-0.0940548333,56.9000000000,5.5625000000,-3.6250000000,343.1875000000,image144.jpg,28812.7828750000
4,50.8635533333,-0.0940566667,56.9000000000,5.8750000000,-2.8750000000,343.4375000000,image145.jpg,29011.8658240000
4,50.8635541667,-0.0940583333,56.9000000000,4.1250000000,-2.8125000000,342.9375000000,image146.jpg,29212.0056400000
4,50.8635551667,-0.0940601667,56.9000000000,5.0000000000,-3.9375000000,342.0625000000,image147.jpg,29412.9907500000
4,50.8635560000,-0.0940618333,56.9000000000,5.5000000000,-2.9375000000,341.6250000000,image148.jpg,29613.0472310000
4,50.8635568333,-0.0940636667,56.9000000000,4.1875000000,-3.1875000000,342.7500000000,image149.jpg,29813.1070980000
4,50.8635578333,-0.0940655000,56.9000000000,5.0625000000,-3.3125000000,342.5000000000,image150.jpg,30012.2371360000
4,50.8635586667,-0.0940673333,56.9000000000,4.3125000000,-2.3750000000,341.0000000000,image151.jpg,30212.3045560000
4,50.8635595000,-0.0940691667,56.9000000000,3.4375000000,-2.5625000000,341.2500000000,image152.jpg,30412.8268380000
4,50.8635603333,-0.0940710000,56.9000000000,3.6250000000,-3.1250000000,341.0625000000,image153.jpg,30612.4779940000
4,50.8635611667,-0.0940730000,56.9000000000,6.0625000000,-2.5625000000,341.5000000000,image154.jpg,30812.4909880000
4,50.8635620000,-0.0940745000,56.9000000000,5.6250000000,-3.5625000000,340.8125000000,image155.jpg,31012.5685170000
4,50.8635628333,-0.0940763333,56.9000000000,6.7500000000,-3.1875000000,339.6875000000,image156.jpg,31212.6482850000
4,50.8635636667,-0.0940783333,56.9000000000,4.9375000000,-2.8125000000,337.8750000000,image157.jpg,31412.7137290000
4,50.8635645000,-0.0940803333,56.9000000000,5.1875000000,-4.0625000000,336.1250000000,image158.jpg,31612.7873530000
4,50.8635651667,-0.0940821667,56.9000000000,5.1250000000,-3.2500000000,335.0625000000,image159.jpg,31812.8464990000
4,50.8635658333,-0.0940841667,56.9000000000,5.1875000000,-2.3750000000,334.1875000000,image160.jpg,32012.9108010000
4,50.8635666667,-0.0940861667,56.9000000000,5.2500000000,-2.1250000000,333.4375000000,image161.jpg,32213.0311470000
4,50.8635673333,-0.0940880000,57.0000000000,5.0000000000,-2.9375000000,333.8125000000,image162.jpg,32413.0821670000
4,50.8635680000,-0.0940900000,57.0000000000,5.9375000000,-3.0000000000,335.3125000000,image163.jpg,32613.8727510000
4,50.8635688333,-0.0940918333,57.0000000000,4.5625000000,-2.4375000000,337.1250000000,image164.jpg,32814.1725870000
4,50.8635695000,-0.0940936667,57.0000000000,5.6875000000,-2.9375000000,338.6250000000,image165.jpg,33014.2173610000
4,50.8635703333,-0.0940955000,57.0000000000,7.8125000000,-3.4375000000,340.4375000000,image166.jpg,33214.0750950000
4,50.8635711667,-0.0940973333,57.0000000000,7.7500000000,-2.8750000000,342.6875000000,image167.jpg,33413.4185900000
4,50.8635721667,-0.0940990000,57.0000000000,7.6875000000,-3.1250000000,345.5000000000,image168.jpg,33613.6635310000
4,50.8635731667,-0.0941010000,57.0000000000,8.0000000000,-3.1250000000,346.8125000000,image169.jpg,33814.6793370000
4,50.8635740000,-0.0941025000,57.0000000000,7.4375000000,-2.5625000000,346.2500000000,image170.jpg,34014.6134840000
4,50.8635750000,-0.0941043333,57.0000000000,8.0000000000,-2.3750000000,346.3125000000,image171.jpg,34214.7075340000
4,50.8635758333,-0.0941060000,57.0000000000,7.7500000000,-2.6875000000,346.1250000000,image172.jpg,34413.7738860000
4,50.8635768333,-0.0941075000,57.0000000000,7.7500000000,-2.5000000000,346.4375000000,image173.jpg,34613.8556980000
4,50.8635778333,-0.0941093333,57.0000000000,7.8125000000,-1.8125000000,347.0000000000,image174.jpg,34814.6083190000
4,50.8635788333,-0.0941110000,57.0000000000,6.7500000000,-4.1250000000,347.0625000000,image175.jpg,35014.9321740000
4,50.8635798333,-0.0941130000,57.0000000000,8.1250000000,-4.8125000000,347.1250000000,image176.jpg,35215.0444040000
4,50.8635808333,-0.0941148333,57.0000000000,8.5625000000,-3.5625000000,345.7500000000,image177.jpg,35414.7193260000
4,50.8635820000,-0.0941166667,57.0000000000,8.2500000000,-4.0625000000,344.2500000000,image178.jpg,35614.2241390000
4,50.8635830000,-0.0941186667,57.0000000000,7.3750000000,-4.8750000000,344.6875000000,image179.jpg,35814.5702890000
4,50.8635840000,-0.0941205000,57.0000000000,5.9375000000,-4.3125000000,344.8750000000,image180.jpg,36014.3570930000
4,50.8635850000,-0.0941221667,57.0000000000,7.1250000000,-3.5000000000,344.2500000000,image181.jpg,36214.4303670000
4,50.8635860000,-0.0941241667,57.0000000000,4.6875000000,-4.0625000000,344.0625000000,image182.jpg,36414.5070790000
4,50.8635870000,-0.0941260000,57.0000000000,8.2500000000,-3.3750000000,345.3125000000,image183.jpg,36614.5897840000
4,50.8635878333,-0.0941276667,57.0000000000,7.1875000000,-3.1250000000,344.5625000000,image184.jpg,36814.6206120000
4,50.8635888333,-0.0941296667,57.0000000000,8.0625000000,-3.5625000000,345.9375000000,image185.jpg,37014.7259740000
4,50.8635898333,-0.0941313333,57.0000000000,8.2500000000,-4.0000000000,348.1875000000,image186.jpg,37214.7461760000
4,50.8635908333,-0.0941330000,57.0000000000,7.1250000000,-3.2500000000,351.0625000000,image187.jpg,37414.8360170000
4,50.8635920000,-0.0941345000,57.0000000000,7.3750000000,-3.3125000000,353.8125000000,image188.jpg,37614.9191930000
4,50.8635931667,-0.0941356667,57.0000000000,6.5625000000,-3.3750000000,356.4375000000,image189.jpg,37815.0099750000
4,50.8635943333,-0.0941371667,57.0000000000,7.4375000000,-2.4375000000,356.3125000000,image190.jpg,38015.5422850000
4,50.8635953333,-0.0941385000,57.0000000000,5.1250000000,-4.1250000000,353.3750000000,image191.jpg,38216.1139190000
4,50.8635963333,-0.0941401667,57.0000000000,5.3750000000,-4.3125000000,351.1875000000,image192.jpg,38416.1254270000
4,50.8635973333,-0.0941420000,57.0000000000,6.0625000000,-3.3750000000,350.6875000000,image193.jpg,38616.4677830000
4,50.8635985000,-0.0941433333,57.0000000000,6.3750000000,-3.2500000000,351.7500000000,image194.jpg,38815.4213340000
4,50.8635995000,-0.0941450000,57.0000000000,7.0625000000,-3.4375000000,352.7500000000,image195.jpg,39015.4333650000
4,50.8636005000,-0.0941465000,57.0000000000,7.1875000000,-4.0000000000,354.0625000000,image196.jpg,39216.5416400000
4,50.8636018333,-0.0941480000,57.0000000000,7.5625000000,-2.9375000000,354.7500000000,image197.jpg,39416.5326810000
4,50.8636030000,-0.0941495000,57.0000000000,7.2500000000,-3.1875000000,353.8750000000,image198.jpg,39616.7319100000
4,50.8636041667,-0.0941511667,57.0000000000,6.5625000000,-4.1875000000,353.1250000000,image199.jpg,39815.7094230000
4,50.8636051667,-0.0941526667,57.0000000000,7.6875000000,-4.8125000000,352.7500000000,image200.jpg,40015.7978670000
4,50.8636061667,-0.0941543333,57.0000000000,6.9375000000,-5.0625000000,352.4375000000,image201.jpg,40216.3750810000
4,50.8636073333,-0.0941560000,57.0000000000,7.2500000000,-4.5625000000,353.3750000000,image202.jpg,40417.0618310000
4,50.8636083333,-0.0941573333,57.1000000000,5.1250000000,-2.8125000000,353.2500000000,image203.jpg,40617.0365230000
4,50.8636095000,-0.0941588333,57.1000000000,6.3750000000,-3.0000000000,352.4375000000,image204.jpg,40817.3361760000
4,50.8636105000,-0.0941603333,57.1000000000,4.3125000000,-3.3125000000,351.3125000000,image205.jpg,41016.2295220000
4,50.8636115000,-0.0941618333,57.1000000000,6.7500000000,-3.2500000000,351.0000000000,image206.jpg,41216.3258860000
4,50.8636125000,-0.0941635000,57.1000000000,5.1250000000,-3.2500000000,350.8750000000,image207.jpg,41416.3232360000
4,50.8636135000,-0.0941648333,57.1000000000,6.3125000000,-3.6250000000,351.0625000000,image208.jpg,41616.3512140000
4,50.8636145000,-0.0941665000,57.1000000000,7.6875000000,-3.8750000000,351.1875000000,image209.jpg,41816.3900790000
4,50.8636156667,-0.0941680000,57.1000000000,6.3125000000,-3.6250000000,351.8125000000,image210.jpg,42016.4462360000
4,50.8636166667,-0.0941695000,57.1000000000,7.8750000000,-2.1875000000,353.0000000000,image211.jpg,42216.5426030000
4,50.8636178333,-0.0941711667,57.1000000000,6.6875000000,-1.6250000000,353.1250000000,image212.jpg,42416.8097070000
4,50.8636188333,-0.0941725000,57.1000000000,7.3750000000,-3.5000000000,353.2500000000,image213.jpg,42616.7497160000
4,50.8636200000,-0.0941738333,57.1000000000,5.6250000000,-2.7500000000,353.5000000000,image214.jpg,42816.7206120000
4,50.8636211667,-0.0941755000,57.1000000000,6.1875000000,-3.4375000000,352.3750000000,image215.jpg,43016.8184410000
4,50.8636221667,-0.0941770000,57.1000000000,5.1875000000,-4.0000000000,350.6250000000,image216.jpg,43216.8829350000
4,50.8636233333,-0.0941786667,57.1000000000,6.6250000000,-4.0625000000,349.0625000000,image217.jpg,43417.2807230000
4,50.8636243333,-0.0941803333,57.1000000000,3.7500000000,-4.0625000000,347.6250000000,image218.jpg,43618.3013520000
4,50.8636251667,-0.0941820000,57.1000000000,5.2500000000,-3.7500000000,346.8750000000,image219.jpg,43818.0463050000
4,50.8636260000,-0.0941836667,57.1000000000,5.8750000000,-4.6250000000,346.0625000000,image220.jpg,44018.4875350000
4,50.8636270000,-0.0941853333,57.1000000000,7.1250000000,-3.8125000000,345.8125000000,image221.jpg,44217.2760420000
4,50.8636278333,-0.0941870000,57.1000000000,6.8125000000,-4.1875000000,345.5625000000,image222.jpg,44417.5077330000
4,50.8636288333,-0.0941886667,57.1000000000,6.8125000000,-4.1875000000,345.1875000000,image223.jpg,44618.2175710000
4,50.8636295000,-0.0941903333,57.1000000000,6.8750000000,-4.1250000000,343.6250000000,image224.jpg,44818.5277580000
4,50.8636305000,-0.0941921667,57.1000000000,6.3750000000,-3.3125000000,343.3125000000,image225.jpg,45018.4873580000
4,50.8636313333,-0.0941938333,57.1000000000,8.1875000000,-4.8750000000,343.8125000000,image226.jpg,45218.8834850000
4,50.8636321667,-0.0941951667,57.1000000000,5.0000000000,-4.9375000000,344.6250000000,image227.jpg,45417.8086150000
4,50.8636330000,-0.0941968333,57.1000000000,6.0000000000,-3.5000000000,345.0625000000,image228.jpg,45618.0184360000
4,50.8636336667,-0.0941983333,57.1000000000,5.8125000000,-3.1875000000,344.8125000000,image229.jpg,45818.8503650000
4,50.8636345000,-0.0941998333,57.1000000000,7.4375000000,-2.8125000000,345.1875000000,image230.jpg,46019.1643050000
4,50.8636353333,-0.0942016667,57.1000000000,7.5625000000,-2.7500000000,345.8750000000,image231.jpg,46219.0883330000
4,50.8636363333,-0.0942031667,57.1000000000,7.7500000000,-2.6875000000,347.2500000000,image232.jpg,46418.0817500000
4,50.8636371667,-0.0942048333,57.1000000000,7.1250000000,-3.5000000000,347.8750000000,image233.jpg,46618.1007840000
4,50.8636381667,-0.0942061667,57.1000000000,6.3750000000,-2.6250000000,348.0000000000,image234.jpg,46818.9717280000
4,50.8636390000,-0.0942078333,57.1000000000,6.0625000000,-3.1875000000,347.3125000000,image235.jpg,47018.6549680000
4,50.8636400000,-0.0942093333,57.1000000000,5.9375000000,-2.8125000000,347.5625000000,image236.jpg,47218.7397350000
4,50.8636408333,-0.0942108333,57.1000000000,5.8125000000,-2.0625000000,346.4375000000,image237.jpg,47418.7622590000
4,50.8636416667,-0.0942126667,57.1000000000,4.7500000000,-2.8750000000,344.8125000000,image238.jpg,47618.9325520000
4,50.8636425000,-0.0942141667,57.1000000000,5.2500000000,-2.6875000000,343.1250000000,image239.jpg,47818.9853410000
4,50.8636433333,-0.0942160000,57.1000000000,5.1875000000,-3.6875000000,341.6875000000,image240.jpg,48019.0697460000
4,50.8636441667,-0.0942176667,57.1000000000,4.0000000000,-3.0625000000,340.4375000000,image241.jpg,48219.1058150000
4,50.8636450000,-0.0942193333,57.1000000000,4.6875000000,-3.5000000000,339.5000000000,image242.jpg,48419.1229780000
4,50.8636458333,-0.0942211667,57.1000000000,3.3125000000,-4.0000000000,338.6250000000,image243.jpg,48619.2956690000
4,50.8636465000,-0.0942230000,57.1000000000,3.3125000000,-3.3125000000,336.8750000000,image244.jpg,48819.3522110000
4,50.8636473333,-0.0942248333,57.1000000000,3.3125000000,-2.1250000000,335.8125000000,image245.jpg,49020.1220630000
4,50.8636478333,-0.0942265000,57.1000000000,3.3750000000,-2.3125000000,334.3125000000,image246.jpg,49220.4763780000
4,50.8636486667,-0.0942285000,57.1000000000,1.5625000000,-2.6250000000,331.5625000000,image247.jpg,49420.5668270000
4,50.8636491667,-0.0942305000,57.2000000000,2.5625000000,-2.3750000000,329.6875000000,image248.jpg,49620.5875360000
4,50.8636495000,-0.0942321667,57.2000000000,2.6875000000,-1.8125000000,328.1875000000,image249.jpg,49819.6686760000
4,50.8636501667,-0.0942341667,57.2000000000,1.7500000000,-1.5625000000,327.5625000000,image250.jpg,50019.9975750000
4,50.8636506667,-0.0942360000,57.2000000000,3.5625000000,-3.1250000000,326.8125000000,image251.jpg,50221.0290550000
4,50.8636511667,-0.0942380000,57.2000000000,3.3125000000,-2.1875000000,325.9375000000,image252.jpg,50421.2112820000
4,50.8636515000,-0.0942400000,57.2000000000,3.5000000000,-3.0000000000,325.8750000000,image253.jpg,50621.2854330000
4,50.8636521667,-0.0942418333,57.2000000000,3.4375000000,-2.7500000000,325.7500000000,image254.jpg,50820.5152270000
4,50.8636525000,-0.0942440000,57.2000000000,3.1875000000,-2.7500000000,325.0625000000,image255.jpg,51020.7276140000
4,50.8636530000,-0.0942458333,57.2000000000,2.7500000000,-3.3750000000,324.8125000000,image256.jpg,51221.1572500000
4,50.8636535000,-0.0942475000,57.2000000000,2.8125000000,-3.0000000000,324.1875000000,image257.jpg,51421.9234090000
4,50.8636538333,-0.0942498333,57.2000000000,3.1250000000,-3.1875000000,323.8125000000,image258.jpg,51621.9961050000
4,50.8636543333,-0.0942516667,57.2000000000,3.6875000000,-2.8750000000,324.3750000000,image259.jpg,51821.7894660000
4,50.8636546667,-0.0942533333,57.2000000000,5.2500000000,-3.3125000000,324.1250000000,image260.jpg,52021.0652020000
4,50.8636551667,-0.0942553333,57.2000000000,4.1250000000,-4.0000000000,324.9375000000,image261.jpg,52221.2746750000
4,50.8636555000,-0.0942573333,57.2000000000,5.4375000000,-3.0000000000,326.5625000000,image262.jpg,52421.2942440000
4,50.8636561667,-0.0942591667,57.2000000000,4.5625000000,-2.8750000000,328.1875000000,image263.jpg,52621.8804530000
4,50.8636568333,-0.0942610000,57.2000000000,4.1250000000,-2.6875000000,329.0625000000,image264.jpg,52821.9282540000
4,50.8636573333,-0.0942630000,57.2000000000,4.1250000000,-2.6250000000,328.3125000000,image265.jpg,53021.8178200000
4,50.8636580000,-0.0942650000,57.2000000000,4.0625000000,-2.8750000000,327.5000000000,image266.jpg,53221.9086970000
4,50.8636583333,-0.0942668333,57.2000000000,3.7500000000,-2.6250000000,327.6875000000,image267.jpg,53422.0449920000
4,50.8636590000,-0.0942688333,57.2000000000,3.5000000000,-2.3750000000,327.8125000000,image268.jpg,53621.9213820000
4,50.8636595000,-0.0942706667,57.2000000000,2.6875000000,-2.0625000000,327.8125000000,image269.jpg,53822.2690940000
4,50.8636600000,-0.0942726667,57.2000000000,3.3125000000,-3.2500000000,326.7500000000,image270.jpg,54022.0929310000
4,50.8636605000,-0.0942746667,57.2000000000,2.9375000000,-3.6250000000,325.8125000000,image271.jpg,54222.5570550000
4,50.8636608333,-0.0942766667,57.2000000000,2.4375000000,-3.8750000000,323.8125000000,image272.jpg,54422.6879870000
4,50.8636613333,-0.0942786667,57.3000000000,1.3750000000,-3.0000000000,321.6875000000,image273.jpg,54623.7584920000
4,50.8636616667,-0.0942805000,57.3000000000,1.9375000000,-3.7500000000,319.2500000000,image274.jpg,54824.1576150000
4,50.8636620000,-0.0942826667,57.3000000000,1.3125000000,-5.1250000000,317.2500000000,image275.jpg,55024.6828370000
4,50.8636621667,-0.0942846667,57.3000000000,1.1250000000,-5.0000000000,315.1875000000,image276.jpg,55223.9921760000
4,50.8636623333,-0.0942868333,57.3000000000,1.0625000000,-3.7500000000,313.3125000000,image277.jpg,55423.7107510000
4,50.8636625000,-0.0942888333,57.3000000000,0.0625000000,-3.6250000000,311.1875000000,image278.jpg,55623.6038650000
4,50.8636625000,-0.0942908333,57.3000000000,3.1250000000,-2.3125000000,309.1250000000,image279.jpg,55824.9166220000
4,50.8636626667,-0.0942926667,57.3000000000,3.0000000000,-1.1875000000,309.0000000000,image280.jpg,56025.0617790000
4,50.8636628333,-0.0942946667,57.3000000000,4.0000000000,-1.0000000000,310.8125000000,image281.jpg,56224.7164470000
4,50.8636628333,-0.0942966667,57.3000000000,4.3750000000,-1.6875000000,312.7500000000,image282.jpg,56423.6299910000
4,50.8636631667,-0.0942986667,57.3000000000,4.6875000000,-2.0000000000,313.3125000000,image283.jpg,56623.6437380000
4,50.8636633333,-0.0943006667,57.3000000000,5.1250000000,-3.0625000000,313.8125000000,image284.jpg,56824.4114750000
4,50.8636635000,-0.0943030000,57.3000000000,6.5000000000,-3.1250000000,317.0625000000,image285.jpg,57024.9694120000
4,50.8636638333,-0.0943050000,57.3000000000,5.6875000000,-4.1250000000,322.8750000000,image286.jpg,57225.0497250000
4,50.8636643333,-0.0943066667,57.3000000000,5.8125000000,-4.0000000000,326.7500000000,image287.jpg,57425.0264390000
4,50.8636650000,-0.0943085000,57.3000000000,4.4375000000,-3.6250000000,326.3125000000,image288.jpg,57623.9230080000
4,50.8636653333,-0.0943106667,57.3000000000,3.9375000000,-3.5625000000,324.2500000000,image289.jpg,57824.4169340000
4,50.8636658333,-0.0943128333,57.3000000000,4.4375000000,-3.6875000000,321.4375000000,image290.jpg,58025.3646280000
4,50.8636660000,-0.0943150000,57.3000000000,4.6875000000,-4.2500000000,319.1250000000,image291.jpg,58224.9972170000
4,50.8636663333,-0.0943170000,57.3000000000,7.1875000000,-4.5000000000,318.6875000000,image292.jpg,58424.2505710000
4,50.8636666667,-0.0943190000,57.3000000000,6.1875000000,-3.7500000000,317.3125000000,image293.jpg,58624.3899530000
4,50.8636668333,-0.0943213333,57.3000000000,6.7500000000,-4.1250000000,315.0625000000,image294.jpg,58824.3754230000
4,50.8636670000,-0.0943235000,57.3000000000,7.4375000000,-4.5625000000,312.1875000000,image295.jpg,59024.7695550000
4,50.8636671667,-0.0943251667,57.3000000000,7.4375000000,-2.3750000000,311.8750000000,image296.jpg,59224.4807430000
4,50.8636671667,-0.0943270000,57.3000000000,6.4375000000,-1.0000000000,311.6875000000,image297.jpg,59424.6303340000
4,50.8636675000,-0.0943291667,57.3000000000,7.0000000000,-1.1250000000,313.8125000000,image298.jpg,59624.6907570000
4,50.8636676667,-0.0943310000,57.3000000000,5.8125000000,-2.1875000000,316.3750000000,image299.jpg,59824.9520730000
4,50.8636680000,-0.0943328333,57.3000000000,6.3125000000,-2.1875000000,316.9375000000,image300.jpg,60025.3270930000
4,50.8636683333,-0.0943350000,57.3000000000,5.3125000000,-2.6875000000,316.6250000000,image301.jpg,60226.3851090000
4,50.8636686667,-0.0943371667,57.3000000000,5.3750000000,-3.3125000000,316.7500000000,image302.jpg,60425.8709770000
4,50.8636688333,-0.0943393333,57.4000000000,5.1875000000,-2.1875000000,315.3750000000,image303.jpg,60626.0279690000
4,50.8636691667,-0.0943413333,57.4000000000,4.7500000000,-1.3750000000,314.7500000000,image304.jpg,60825.3148210000
4,50.8636693333,-0.0943436667,57.4000000000,5.9375000000,-3.4375000000,314.8750000000,image305.jpg,61025.3789960000
4,50.8636695000,-0.0943460000,57.3000000000,4.3750000000,-3.3750000000,315.2500000000,image306.jpg,61226.0016840000
4,50.8636698333,-0.0943481667,57.3000000000,5.0625000000,-3.5000000000,315.8750000000,image307.jpg,61426.3021200000
4,50.8636700000,-0.0943505000,57.3000000000,6.1875000000,-3.3750000000,315.8750000000,image308.jpg,61626.4041630000
4,50.8636705000,-0.0943526667,57.3000000000,5.5625000000,-3.1250000000,316.3750000000,image309.jpg,61826.1430670000
4,50.8636706667,-0.0943551667,57.3000000000,5.8125000000,-4.5000000000,316.2500000000,image310.jpg,62025.7962390000
4,50.8636708333,-0.0943573333,57.4000000000,5.0000000000,-3.4375000000,314.8125000000,image311.jpg,62225.9118770000
4,50.8636711667,-0.0943596667,57.4000000000,4.6875000000,-3.6875000000,313.8750000000,image312.jpg,62426.6535310000
4,50.8636715000,-0.0943620000,57.4000000000,4.6875000000,-4.6875000000,313.6875000000,image313.jpg,62627.2827860000
4,50.8636716667,-0.0943641667,57.4000000000,4.9375000000,-4.3125000000,313.5000000000,image314.jpg,62827.0938300000
4,50.8636718333,-0.0943666667,57.4000000000,5.0625000000,-4.3125000000,313.8125000000,image315.jpg,63025.8980100000
4,50.8636720000,-0.0943690000,57.4000000000,4.7500000000,-5.5625000000,314.1250000000,image316.jpg,63226.1560000000
4,50.8636723333,-0.0943711667,57.4000000000,4.8750000000,-5.1250000000,313.8125000000,image317.jpg,63426.7739530000
4,50.8636726667,-0.0943736667,57.4000000000,5.3750000000,-4.8750000000,314.3125000000,image318.jpg,63626.4439000000
4,50.8636728333,-0.0943758333,57.4000000000,4.4375000000,-5.1250000000,314.7500000000,image319.jpg,63826.2449460000
4,50.8636731667,-0.0943781667,57.3000000000,5.3125000000,-5.3750000000,316.1250000000,image320.jpg,64026.2673560000
4,50.8636735000,-0.0943806667,57.4000000000,4.4375000000,-6.9375000000,316.6250000000,image321.jpg,64226.4808670000
4,50.8636736667,-0.0943831667,57.3000000000,4.7500000000,-6.1875000000,316.4375000000,image322.jpg,64426.6941180000
4,50.8636741667,-0.0943856667,57.3000000000,4.3125000000,-5.5000000000,315.5000000000,image323.jpg,64626.5226670000
4,50.8636743333,-0.0943880000,57.3000000000,4.8125000000,-6.1875000000,314.6875000000,image324.jpg,64826.5614860000
4,50.8636745000,-0.0943903333,57.3000000000,5.1250000000,-6.1250000000,314.0625000000,image325.jpg,65026.6644740000
4,50.8636748333,-0.0943928333,57.3000000000,5.1250000000,-4.8125000000,313.7500000000,image326.jpg,65226.7308980000
4,50.8636750000,-0.0943951667,57.3000000000,5.5000000000,-4.3125000000,313.4375000000,image327.jpg,65426.9108680000
4,50.8636753333,-0.0943973333,57.3000000000,4.9375000000,-4.3750000000,313.6250000000,image328.jpg,65628.1185910000
4,50.8636755000,-0.0943996667,57.3000000000,4.3125000000,-4.0625000000,313.5625000000,image329.jpg,65827.8428150000
4,50.8636755000,-0.0944020000,57.3000000000,5.8125000000,-5.1875000000,313.5000000000,image330.jpg,66027.9105950000
4,50.8636758333,-0.0944043333,57.3000000000,5.6250000000,-4.0625000000,314.5625000000,image331.jpg,66227.0807860000
4,50.8636761667,-0.0944066667,57.3000000000,5.1875000000,-2.7500000000,315.9375000000,image332.jpg,66427.0195510000
4,50.8636763333,-0.0944090000,57.3000000000,7.1875000000,-3.3125000000,316.6250000000,image333.jpg,66627.9582540000
4,50.8636766667,-0.0944111667,57.3000000000,4.8125000000,-3.0625000000,316.7500000000,image334.jpg,66828.2734420000
4,50.8636770000,-0.0944133333,57.3000000000,6.2500000000,-2.3750000000,317.1250000000,image335.jpg,67028.3090880000
4,50.8636775000,-0.0944158333,57.3000000000,2.5625000000,-3.9375000000,317.7500000000,image336.jpg,67227.8523700000
4,50.8636776667,-0.0944181667,57.3000000000,3.4375000000,-4.5000000000,318.1250000000,image337.jpg,67427.5533140000
4,50.8636781667,-0.0944203333,57.3000000000,1.8125000000,-3.9375000000,317.0625000000,image338.jpg,67627.7606870000
4,50.8636785000,-0.0944228333,57.3000000000,2.1250000000,-5.0000000000,316.0000000000,image339.jpg,67828.5862110000
4,50.8636786667,-0.0944250000,57.3000000000,3.1250000000,-2.7500000000,314.7500000000,image340.jpg,68028.6995700000
4,50.8636788333,-0.0944271667,57.3000000000,2.6875000000,-1.0625000000,313.2500000000,image341.jpg,68228.9065790000
4,50.8636788333,-0.0944293333,57.4000000000,4.5625000000,-1.8750000000,311.8750000000,image342.jpg,68428.0706800000
4,50.8636791667,-0.0944316667,57.4000000000,3.8750000000,-1.4375000000,311.1250000000,image343.jpg,68628.0622650000
4,50.8636791667,-0.0944338333,57.4000000000,4.6875000000,-2.2500000000,309.6250000000,image344.jpg,68828.7892970000
4,50.8636793333,-0.0944361667,57.4000000000,4.1875000000,-3.0625000000,308.5000000000,image345.jpg,69028.0840830000
4,50.8636793333,-0.0944385000,57.4000000000,3.7500000000,-2.5000000000,307.3125000000,image346.jpg,69228.2007250000
4,50.8636795000,-0.0944406667,57.4000000000,5.0000000000,-1.9375000000,307.2500000000,image347.jpg,69428.2175720000
4,50.8636795000,-0.0944430000,57.4000000000,5.1250000000,-3.0625000000,308.9375000000,image348.jpg,69628.3035890000
4,50.8636795000,-0.0944455000,57.4000000000,4.3750000000,-4.0625000000,311.9375000000,image349.jpg,69828.7413930000
4,50.8636798333,-0.0944476667,57.4000000000,3.6875000000,-3.8125000000,314.9375000000,image350.jpg,70028.5203670000
4,50.8636801667,-0.0944500000,57.4000000000,4.4375000000,-3.5625000000,315.8750000000,image351.jpg,70228.5044540000
4,50.8636805000,-0.0944521667,57.4000000000,4.8750000000,-3.6875000000,315.8750000000,image352.jpg,70428.7002160000
4,50.8636806667,-0.0944543333,57.4000000000,4.9375000000,-4.1875000000,317.0625000000,image353.jpg,70628.6643040000
4,50.8636810000,-0.0944566667,57.4000000000,5.1875000000,-4.3125000000,318.0625000000,image354.jpg,70828.8310040000
4,50.8636813333,-0.0944588333,57.4000000000,4.0000000000,-3.4375000000,318.1875000000,image355.jpg,71029.8593550000
4,50.8636816667,-0.0944611667,57.4000000000,5.6875000000,-3.6875000000,318.1875000000,image356.jpg,71229.8419850000
4,50.8636820000,-0.0944633333,57.4000000000,2.8750000000,-3.1250000000,318.1875000000,image357.jpg,71430.2299970000
4,50.8636821667,-0.0944651667,57.4000000000,5.8125000000,-3.1875000000,318.5000000000,image358.jpg,71629.0589870000
4,50.8636826667,-0.0944673333,57.4000000000,4.3125000000,-4.1250000000,318.8750000000,image359.jpg,71829.1254250000
4,50.8636828333,-0.0944695000,57.4000000000,5.5000000000,-4.4375000000,318.8750000000,image360.jpg,72029.8879850000
4,50.8636833333,-0.0944716667,57.4000000000,3.9375000000,-3.6250000000,318.8125000000,image361.jpg,72230.4775170000
4,50.8636836667,-0.0944736667,57.4000000000,5.0000000000,-1.8750000000,319.3125000000,image362.jpg,72430.2658710000
4,50.8636838333,-0.0944758333,57.4000000000,4.4375000000,-1.9375000000,319.4375000000,image363.jpg,72630.2834020000
4,50.8636843333,-0.0944781667,57.4000000000,7.5625000000,-3.2500000000,318.9375000000,image364.jpg,72829.9536790000
4,50.8636845000,-0.0944803333,57.4000000000,5.3125000000,-5.4375000000,319.0625000000,image365.jpg,73029.5358800000
4,50.8636848333,-0.0944825000,57.4000000000,6.6250000000,-5.0000000000,320.1875000000,image366.jpg,73230.4547510000
4,50.8636851667,-0.0944846667,57.4000000000,4.6250000000,-5.0625000000,320.2500000000,image367.jpg,73430.6032250000
4,50.8636855000,-0.0944868333,57.4000000000,6.5625000000,-4.6875000000,321.1875000000,image368.jpg,73630.7209710000
4,50.8636860000,-0.0944888333,57.4000000000,4.2500000000,-3.8750000000,323.3750000000,image369.jpg,73829.8135700000
4,50.8636865000,-0.0944911667,57.4000000000,5.5625000000,-1.9375000000,324.3125000000,image370.jpg,74029.8239160000
4,50.8636868333,-0.0944928333,57.4000000000,5.4375000000,-3.3750000000,323.8750000000,image371.jpg,74230.4024100000
4,50.8636873333,-0.0944950000,57.4000000000,6.1250000000,-4.1875000000,324.0000000000,image372.jpg,74430.0437300000
4,50.8636878333,-0.0944971667,57.4000000000,6.4375000000,-3.6250000000,323.8750000000,image373.jpg,74630.1713210000
4,50.8636881667,-0.0944991667,57.4000000000,5.1875000000,-3.3750000000,323.1875000000,image374.jpg,74830.2977660000
4,50.8636885000,-0.0945013333,57.4000000000,5.8750000000,-3.1875000000,321.8125000000,image375.jpg,75030.1915460000
4,50.8636888333,-0.0945033333,57.4000000000,4.8750000000,-2.0000000000,321.0625000000,image376.jpg,75230.2300720000
4,50.8636893333,-0.0945051667,57.4000000000,5.6875000000,-4.0000000000,321.8750000000,image377.jpg,75430.4922000000
4,50.8636896667,-0.0945075000,57.4000000000,5.6875000000,-3.6250000000,322.1250000000,image378.jpg,75630.6717740000
4,50.8636900000,-0.0945096667,57.5000000000,4.1250000000,-3.6250000000,323.0000000000,image379.jpg,75830.6310270000
4,50.8636905000,-0.0945116667,57.4000000000,3.8750000000,-3.3125000000,322.6250000000,image380.jpg,76030.6540850000
4,50.8636910000,-0.0945138333,57.5000000000,4.5625000000,-2.6875000000,322.6875000000,image381.jpg,76230.8118880000
4,50.8636915000,-0.0945156667,57.5000000000,3.5000000000,-3.3750000000,322.6875000000,image382.jpg,76431.4850250000
4,50.8636918333,-0.0945178333,57.5000000000,5.7500000000,-3.1875000000,322.8750000000,image383.jpg,76631.7982000000
4,50.8636921667,-0.0945196667,57.5000000000,3.9375000000,-3.4375000000,323.3125000000,image384.jpg,76831.8992320000
4,50.8636926667,-0.0945215000,57.5000000000,6.9375000000,-3.1250000000,326.5625000000,image385.jpg,77031.7826500000
4,50.8636930000,-0.0945233333,57.5000000000,6.6875000000,-3.2500000000,331.0625000000,image386.jpg,77231.1644860000
4,50.8636938333,-0.0945248333,57.5000000000,6.0625000000,-2.8750000000,336.5000000000,image387.jpg,77431.4014600000
4,50.8636945000,-0.0945263333,57.5000000000,6.2500000000,-3.0000000000,342.5625000000,image388.jpg,77632.4859720000
4,50.8636955000,-0.0945275000,57.5000000000,6.4375000000,-4.1250000000,348.8750000000,image389.jpg,77832.4428840000
4,50.8636963333,-0.0945286667,57.5000000000,6.0000000000,-2.4375000000,354.5000000000,image390.jpg,78032.3189600000
4,50.8636973333,-0.0945296667,57.5000000000,6.0625000000,-2.5625000000,359.3125000000,image391.jpg,78231.5902200000
4,50.8636983333,-0.0945306667,57.5000000000,5.8125000000,-2.8125000000,4.1875000000,image392.jpg,78431.6540120000
4,50.8636995000,-0.0945315000,57.5000000000,7.0000000000,-2.6875000000,9.5625000000,image393.jpg,78632.1031340000
4,50.8637005000,-0.0945321667,57.5000000000,5.7500000000,-1.9375000000,11.1875000000,image394.jpg,78832.8477890000
4,50.8637016667,-0.0945328333,57.5000000000,4.3125000000,-4.6875000000,8.1875000000,image395.jpg,79032.6739170000
4,50.8637026667,-0.0945338333,57.5000000000,4.5625000000,-3.0000000000,3.1875000000,image396.jpg,79232.1865940000
4,50.8637038333,-0.0945350000,57.5000000000,5.2500000000,-2.8750000000,0.8125000000,image397.jpg,79431.9224060000
4,50.8637048333,-0.0945361667,57.5000000000,5.5000000000,-2.1875000000,1.3750000000,image398.jpg,79632.2006370000
4,50.8637058333,-0.0945371667,57.5000000000,4.3125000000,-2.3750000000,2.0625000000,image399.jpg,79832.5088180000
4,50.8637070000,-0.0945383333,57.5000000000,5.6875000000,-2.8125000000,1.6250000000,image400.jpg,80032.2912990000
4,50.8637078333,-0.0945393333,57.5000000000,5.3125000000,-2.9375000000,357.3125000000,image401.jpg,80232.4680160000
4,50.8637088333,-0.0945406667,57.5000000000,4.5000000000,-2.6250000000,354.0625000000,image402.jpg,80432.4441000000
4,50.8637096667,-0.0945420000,57.5000000000,4.9375000000,-2.0000000000,354.9375000000,image403.jpg,80632.6757160000
4,50.8637106667,-0.0945431667,57.5000000000,5.4375000000,-4.0625000000,354.5625000000,image404.jpg,80832.8890510000
4,50.8637116667,-0.0945443333,57.5000000000,5.1250000000,-4.1875000000,351.6875000000,image405.jpg,81032.6662210000
4,50.8637123333,-0.0945458333,57.5000000000,3.6875000000,-4.1250000000,345.4375000000,image406.jpg,81232.8010630000
4,50.8637130000,-0.0945473333,57.5000000000,3.0000000000,-4.8750000000,342.7500000000,image407.jpg,81432.7985550000
4,50.8637135000,-0.0945491667,57.5000000000,3.6875000000,-3.1250000000,339.4375000000,image408.jpg,81632.9713690000
4,50.8637141667,-0.0945506667,57.5000000000,4.7500000000,-3.5000000000,334.2500000000,image409.jpg,81833.2351240000
4,50.8637148333,-0.0945521667,57.5000000000,2.1875000000,-3.4375000000,330.5625000000,image410.jpg,82034.2768280000
4,50.8637150000,-0.0945541667,57.5000000000,5.1875000000,-4.9375000000,326.1875000000,image411.jpg,82234.0626980000
4,50.8637155000,-0.0945558333,57.5000000000,4.8750000000,-5.1875000000,324.1250000000,image412.jpg,82434.4154150000
4,50.8637158333,-0.0945576667,57.5000000000,5.1250000000,-4.0625000000,325.3125000000,image413.jpg,82633.3491680000
4,50.8637163333,-0.0945596667,57.5000000000,6.2500000000,-3.5625000000,325.3125000000,image414.jpg,82833.5135980000
4,50.8637168333,-0.0945616667,57.5000000000,3.6875000000,-3.7500000000,323.4375000000,image415.jpg,83034.0730960000
4,50.8637171667,-0.0945638333,57.5000000000,4.5000000000,-4.6250000000,318.8750000000,image416.jpg,83234.6839500000
4,50.8637175000,-0.0945660000,57.5000000000,3.7500000000,-4.3125000000,315.6250000000,image417.jpg,83434.5939940000
4,50.8637176667,-0.0945678333,57.5000000000,4.0625000000,-4.4375000000,316.1875000000,image418.jpg,83634.5293530000
4,50.8637178333,-0.0945700000,57.5000000000,5.3750000000,-3.8750000000,316.6875000000,image419.jpg,83833.6899400000
4,50.8637183333,-0.0945721667,57.5000000000,6.5000000000,-1.8750000000,319.3125000000,image420.jpg,84033.7757740000
4,50.8637185000,-0.0945743333,57.5000000000,7.5625000000,-2.5625000000,325.8125000000,image421.jpg,84234.8623270000
4,50.8637193333,-0.0945765000,57.5000000000,3.3750000000,-3.5000000000,330.7500000000,image422.jpg,84434.8238330000
4,50.8637201667,-0.0945785000,57.5000000000,6.1250000000,-4.6250000000,339.5625000000,image423.jpg,84634.8970640000
4,50.8637213333,-0.0945803333,57.5000000000,7.5625000000,-3.5625000000,345.8125000000,image424.jpg,84834.0049940000
4,50.8637225000,-0.0945820000,57.5000000000,7.3125000000,-2.3125000000,355.5625000000,image425.jpg,85034.0410880000
4,50.8637238333,-0.0945835000,57.5000000000,10.0625000000,-3.5000000000,3.7500000000,image426.jpg,85234.5683490000
4,50.8637253333,-0.0945843333,57.5000000000,6.3125000000,-2.8125000000,10.0000000000,image427.jpg,85434.1397880000
4,50.8637266667,-0.0945850000,57.6000000000,6.6250000000,-2.1250000000,17.3750000000,image428.jpg,85634.2271350000
4,50.8637281667,-0.0945851667,57.5000000000,6.1250000000,-4.6250000000,25.5000000000,image429.jpg,85834.3683910000
4,50.8637295000,-0.0945855000,57.5000000000,4.3125000000,-0.7500000000,31.1250000000,image430.jpg,86034.5276170000
4,50.8637310000,-0.0945851667,57.6000000000,6.9375000000,-2.2500000000,39.5625000000,image431.jpg,86234.7597100000
4,50.8637321667,-0.0945843333,57.6000000000,4.5000000000,-0.8750000000,45.7500000000,image432.jpg,86434.5664210000
4,50.8637336667,-0.0945838333,57.6000000000,6.8125000000,1.1875000000,53.5000000000,image433.jpg,86634.6512700000
4,50.8637348333,-0.0945826667,57.6000000000,2.6875000000,0.9375000000,59.0000000000,image434.jpg,86834.6892420000
4,50.8637361667,-0.0945815000,57.6000000000,7.4375000000,1.8750000000,65.6875000000,image435.jpg,87034.9060230000
4,50.8637371667,-0.0945801667,57.6000000000,6.1875000000,-0.6250000000,73.1875000000,image436.jpg,87234.8319080000
4,50.8637380000,-0.0945783333,57.6000000000,6.0625000000,0.6875000000,80.4375000000,image437.jpg,87435.8228360000
4,50.8637390000,-0.0945761667,57.6000000000,4.9375000000,-0.7500000000,87.5625000000,image438.jpg,87635.8988310000
4,50.8637395000,-0.0945741667,57.6000000000,2.7500000000,0.0000000000,95.0625000000,image439.jpg,87836.0349340000
4,50.8637401667,-0.0945720000,57.6000000000,4.0000000000,0.5625000000,101.5000000000,image440.jpg,88035.8432630000
4,50.8637405000,-0.0945695000,57.6000000000,4.3750000000,0.2500000000,109.2500000000,image441.jpg,88235.1483410000
4,50.8637408333,-0.0945670000,57.6000000000,5.4375000000,-2.5000000000,115.8750000000,image442.jpg,88435.5406000000
4,50.8637408333,-0.0945646667,57.6000000000,5.5625000000,-1.2500000000,124.2500000000,image443.jpg,88636.2680820000
4,50.8637405000,-0.0945621667,57.6000000000,3.5625000000,-0.1875000000,132.6250000000,image444.jpg,88836.5871110000
4,50.8637400000,-0.0945598333,57.6000000000,3.1875000000,0.0625000000,139.5625000000,image445.jpg,89036.4606520000
4,50.8637395000,-0.0945573333,57.6000000000,2.0000000000,-0.8750000000,145.3125000000,image446.jpg,89235.5584310000
4,50.8637386667,-0.0945550000,57.6000000000,0.3750000000,-1.4375000000,147.3750000000,image447.jpg,89435.6470330000
4,50.8637378333,-0.0945528333,57.6000000000,-0.4375000000,0.0625000000,148.1875000000,image448.jpg,89636.5611910000
4,50.8637371667,-0.0945501667,57.6000000000,0.2500000000,-0.8125000000,147.6875000000,image449.jpg,89836.7746960000
4,50.8637361667,-0.0945476667,57.6000000000,1.5000000000,0.0000000000,148.8750000000,image450.jpg,90036.8573100000
4,50.8637356667,-0.0945451667,57.6000000000,2.3750000000,0.6875000000,148.8125000000,image451.jpg,90236.0947840000
4,50.8637348333,-0.0945426667,57.6000000000,3.3750000000,-1.6250000000,149.3125000000,image452.jpg,90435.9862960000
4,50.8637340000,-0.0945401667,57.6000000000,1.2500000000,-0.5625000000,149.8750000000,image453.jpg,90636.4068420000
4,50.8637331667,-0.0945376667,57.6000000000,4.2500000000,-0.5000000000,149.7500000000,image454.jpg,90836.2216860000
4,50.8637323333,-0.0945353333,57.5000000000,1.1875000000,-1.5000000000,149.6250000000,image455.jpg,91036.1548150000
4,50.8637316667,-0.0945323333,57.6000000000,3.3750000000,-2.5625000000,150.1250000000,image456.jpg,91236.2545140000
4,50.8637306667,-0.0945303333,57.6000000000,1.2500000000,-1.6250000000,150.6250000000,image457.jpg,91436.2775960000
4,50.8637298333,-0.0945276667,57.5000000000,2.0625000000,-2.2500000000,150.5000000000,image458.jpg,91636.3938070000
4,50.8637290000,-0.0945251667,57.5000000000,2.1875000000,-1.0000000000,149.1250000000,image459.jpg,91836.4228800000
4,50.8637285000,-0.0945228333,57.5000000000,0.6250000000,-1.0625000000,147.2500000000,image460.jpg,92036.5481540000
4,50.8637275000,-0.0945203333,57.6000000000,1.3125000000,-2.2500000000,148.1250000000,image461.jpg,92236.6611890000
4,50.8637268333,-0.0945176667,57.6000000000,2.1875000000,-1.3125000000,147.1875000000,image462.jpg,92436.7058350000
4,50.8637260000,-0.0945151667,57.5000000000,2.1250000000,-1.1875000000,147.2500000000,image463.jpg,92636.8263190000
4,50.8637253333,-0.0945125000,57.5000000000,2.1250000000,-0.6250000000,146.6875000000,image464.jpg,92837.6249560000
4,50.8637246667,-0.0945100000,57.5000000000,1.9375000000,-0.1875000000,143.0000000000,image465.jpg,93038.0678490000
4,50.8637241667,-0.0945073333,57.5000000000,0.8125000000,-0.6250000000,140.6250000000,image466.jpg,93237.9104050000
4,50.8637236667,-0.0945048333,57.5000000000,1.3750000000,-1.1250000000,138.3125000000,image467.jpg,93437.8303070000
4,50.8637233333,-0.0945023333,57.5000000000,1.6250000000,-0.4375000000,135.5000000000,image468.jpg,93637.2322730000
4,50.8637228333,-0.0944995000,57.5000000000,2.0000000000,-1.1250000000,134.8750000000,image469.jpg,93837.2423370000
4,50.8637225000,-0.0944970000,57.5000000000,2.3750000000,-1.4375000000,134.8750000000,image470.jpg,94038.2899450000
4,50.8637221667,-0.0944941667,57.5000000000,2.2500000000,-1.4375000000,134.7500000000,image471.jpg,94239.5693320000
4,50.8637218333,-0.0944915000,57.5000000000,3.6875000000,-0.8750000000,134.9375000000,image472.jpg,94438.5550830000
4,50.8637213333,-0.0944888333,57.5000000000,2.3750000000,0.0625000000,134.8750000000,image473.jpg,94637.5793780000
4,50.8637211667,-0.0944861667,57.5000000000,4.1250000000,-0.4375000000,132.7500000000,image474.jpg,94837.5932460000
4,50.8637208333,-0.0944836667,57.5000000000,3.5000000000,-0.9375000000,132.9375000000,image475.jpg,95038.3518840000
4,50.8637206667,-0.0944810000,57.5000000000,4.0000000000,-0.4375000000,131.9375000000,image476.jpg,95238.8879600000
4,50.8637203333,-0.0944785000,57.5000000000,4.1250000000,-0.7500000000,132.3125000000,image477.jpg,95439.1532960000
4,50.8637200000,-0.0944758333,57.5000000000,3.1875000000,-0.6875000000,132.8125000000,image478.jpg,95638.9171030000
4,50.8637198333,-0.0944730000,57.5000000000,2.0000000000,-0.8125000000,132.5625000000,image479.jpg,95838.1044270000
4,50.8637195000,-0.0944701667,57.5000000000,4.1875000000,-0.4375000000,132.9375000000,image480.jpg,96038.2236650000
4,50.8637191667,-0.0944676667,57.4000000000,2.6250000000,-0.8125000000,134.1875000000,image481.jpg,96238.2147200000
4,50.8637188333,-0.0944651667,57.5000000000,3.6250000000,-0.6250000000,134.8125000000,image482.jpg,96438.3692200000
4,50.8637185000,-0.0944626667,57.4000000000,4.6875000000,-0.5625000000,135.6875000000,image483.jpg,96638.4681980000
4,50.8637180000,-0.0944600000,57.5000000000,3.6875000000,-0.5000000000,134.9375000000,image484.jpg,96838.6351470000
4,50.8637178333,-0.0944575000,57.4000000000,3.6875000000,-1.1875000000,133.0000000000,image485.jpg,97038.6402150000
4,50.8637175000,-0.0944548333,57.4000000000,3.1875000000,-1.6875000000,131.1250000000,image486.jpg,97238.9270650000
4,50.8637173333,-0.0944521667,57.4000000000,2.9375000000,-0.9375000000,130.5625000000,image487.jpg,97438.7308230000
4,50.8637170000,-0.0944495000,57.4000000000,2.8750000000,-1.1875000000,131.2500000000,image488.jpg,97638.7111510000
4,50.8637166667,-0.0944468333,57.4000000000,2.7500000000,0.8750000000,131.6875000000,image489.jpg,97838.9582090000
4,50.8637163333,-0.0944443333,57.4000000000,2.0625000000,0.5000000000,132.6875000000,image490.jpg,98039.0446880000
4,50.8637161667,-0.0944416667,57.4000000000,3.5625000000,0.4375000000,133.5000000000,image491.jpg,98239.4651380000
4,50.8637156667,-0.0944390000,57.4000000000,2.1875000000,1.4375000000,134.8750000000,image492.jpg,98440.4438940000
4,50.8637153333,-0.0944363333,57.4000000000,2.1875000000,2.1875000000,135.4375000000,image493.jpg,98640.2483300000
4,50.8637148333,-0.0944338333,57.4000000000,0.8125000000,2.6250000000,135.5625000000,image494.jpg,98840.3848640000
4,50.8637145000,-0.0944313333,57.4000000000,0.9375000000,2.3125000000,133.2500000000,image495.jpg,99039.3369740000
4,50.8637143333,-0.0944286667,57.4000000000,1.5000000000,2.3125000000,130.1875000000,image496.jpg,99239.3724100000
4,50.8637141667,-0.0944261667,57.5000000000,2.1250000000,2.5625000000,127.1875000000,image497.jpg,99440.2278800000
4,50.8637140000,-0.0944235000,57.5000000000,2.5000000000,1.0000000000,125.5000000000,image498.jpg,99640.6533850000
4,50.8637140000,-0.0944208333,57.4000000000,2.8125000000,0.9375000000,124.1250000000,image499.jpg,99840.7479390000
4,50.8637138333,-0.0944181667,57.5000000000,3.7500000000,0.8125000000,124.8750000000,image500.jpg,100040.1285060000
4,50.8637140000,-0.0944151667,57.4000000000,3.1875000000,0.6250000000,124.8125000000,image501.jpg,100239.8807540000
4,50.8637138333,-0.0944125000,57.5000000000,4.2500000000,0.6875000000,126.3125000000,image502.jpg,100440.2587060000
4,50.8637138333,-0.0944096667,57.5000000000,2.3125000000,1.1875000000,127.0625000000,image503.jpg,100641.0412060000
4,50.8637135000,-0.0944068333,57.4000000000,4.2500000000,-0.0625000000,127.3750000000,image504.jpg,100841.0079960000
4,50.8637133333,-0.0944041667,57.4000000000,1.3125000000,0.6875000000,127.9375000000,image505.jpg,101041.1845860000
4,50.8637131667,-0.0944015000,57.4000000000,3.5000000000,0.5625000000,128.8750000000,image506.jpg,101240.1289900000
4,50.8637128333,-0.0943985000,57.4000000000,1.1875000000,-1.3750000000,129.6250000000,image507.jpg,101440.2360460000
4,50.8637126667,-0.0943956667,57.4000000000,2.3750000000,0.6875000000,129.9375000000,image508.jpg,101640.8497910000
4,50.8637121667,-0.0943931667,57.4000000000,2.3750000000,1.1875000000,130.8750000000,image509.jpg,101840.3323950000
4,50.8637121667,-0.0943903333,57.4000000000,1.9375000000,1.1875000000,130.8750000000,image510.jpg,102040.4905480000
4,50.8637116667,-0.0943878333,57.4000000000,1.6875000000,1.8750000000,131.6875000000,image511.jpg,102240.4754130000
4,50.8637115000,-0.0943850000,57.4000000000,3.0000000000,2.5000000000,131.5000000000,image512.jpg,102440.5685630000
4,50.8637111667,-0.0943825000,57.4000000000,2.5000000000,2.2500000000,132.7500000000,image513.jpg,102640.8951090000
4,50.8637108333,-0.0943798333,57.4000000000,3.5000000000,0.4375000000,133.8125000000,image514.jpg,102840.7198120000
4,50.8637105000,-0.0943771667,57.4000000000,3.1875000000,0.8125000000,134.0000000000,image515.jpg,103040.7252000000
4,50.8637101667,-0.0943743333,57.4000000000,2.6875000000,1.0000000000,134.7500000000,image516.jpg,103240.8278830000
4,50.8637098333,-0.0943715000,57.4000000000,2.8125000000,1.5625000000,135.4375000000,image517.jpg,103440.8346760000
4,50.8637093333,-0.0943688333,57.4000000000,3.6875000000,1.0000000000,135.6250000000,image518.jpg,103641.3776390000
