speed,steering angle,gps quality,lat,lon,altitude,roll,pitch,yaw,image name,timestamp
0.0000000000,1.0000000000,5,50.8680373333,-0.0982243333,68.0000000000,-0.9375000000,-5.3125000000,359.9375000000,image0.jpg,95.1413020000
0.0313725509,0.0000000000,nan,nan,nan,nan,-0.9375000000,-5.3125000000,359.9375000000,image1.jpg,161.5085940000
0.0313725509,0.0000000000,5,50.8680373333,-0.0982243333,68.0000000000,-0.9375000000,-5.3125000000,359.9375000000,image2.jpg,226.8056770000
0.0470588244,1.0000000000,5,50.8680373333,-0.0982243333,68.0000000000,-0.9375000000,-5.3125000000,359.9375000000,image3.jpg,359.4623960000
0.0470588244,0.0000000000,5,50.8680373333,-0.0982243333,68.0000000000,-0.9375000000,-5.3125000000,359.9375000000,image4.jpg,427.0307290000
-0.0078431377,1.0000000000,5,50.8680373333,-0.0982243333,68.0000000000,-0.9375000000,-5.3125000000,359.9375000000,image5.jpg,559.2881250000
0.0313725509,0.0000000000,5,50.8680371667,-0.0982243333,68.0000000000,-0.9375000000,-5.3125000000,359.9375000000,image6.jpg,627.5493750000
0.0313725509,0.0000000000,5,50.8680373333,-0.0982243333,68.0000000000,-0.9375000000,-5.3125000000,359.9375000000,image7.jpg,759.3466670000
0.0392156877,2.0000000000,5,50.8680373333,-0.0982243333,68.0000000000,-0.9375000000,-5.3125000000,359.9375000000,image8.jpg,828.3311980000
0.0549019612,0.0000000000,5,50.8680373333,-0.0982243333,68.0000000000,-0.9375000000,-5.3125000000,359.9375000000,image9.jpg,963.7801560000
0.0235294122,0.0000000000,5,50.8680373333,-0.0982243333,68.0000000000,-0.9375000000,-5.3125000000,359.9375000000,image10.jpg,1027.8408330000
0.0470588244,0.0000000000,5,50.8680371667,-0.0982243333,68.0000000000,-0.9375000000,-5.3125000000,359.9375000000,image11.jpg,1159.7909370000
0.1333333403,0.0000000000,5,50.8680373333,-0.0982243333,68.0000000000,-0.9375000000,-5.3125000000,359.9375000000,image12.jpg,1230.2926040000
0.0941176489,0.0000000000,5,50.8680373333,-0.0982243333,68.0000000000,-0.9375000000,-5.3125000000,359.9375000000,image13.jpg,1359.8281250000
0.1333333403,0.0000000000,5,50.8680373333,-0.0982243333,68.0000000000,-0.9375000000,-5.3125000000,359.9375000000,image14.jpg,1427.0770310000
0.2117647082,1.0000000000,5,50.8680373333,-0.0982243333,68.0000000000,-0.9375000000,-5.3125000000,359.9375000000,image15.jpg,1558.0437500000
0.2039215714,0.0000000000,5,50.8680373333,-0.0982243333,68.0000000000,-0.8125000000,-5.3125000000,359.9375000000,image16.jpg,1627.3857810000
0.2823529541,1.0000000000,5,50.8680373333,-0.0982243333,68.0000000000,-0.3750000000,-5.3125000000,359.8125000000,image17.jpg,1758.7076040000
0.3529411852,0.0000000000,5,50.8680371667,-0.0982243333,68.0000000000,0.1875000000,-5.3750000000,359.8750000000,image18.jpg,1826.8609890000
0.3529411852,0.0000000000,5,50.8680371667,-0.0982243333,68.0000000000,1.0625000000,-5.5625000000,359.6250000000,image19.jpg,1958.5144270000
0.3607843220,2.0000000000,5,50.8680370000,-0.0982243333,68.0000000000,1.5000000000,-5.6875000000,359.6875000000,image20.jpg,2027.7904160000
0.3764705956,0.0000000000,5,50.8680370000,-0.0982245000,68.0000000000,2.6875000000,-6.2500000000,0.0000000000,image21.jpg,2163.4792180000
0.3843137324,0.0000000000,5,50.8680368333,-0.0982245000,68.0000000000,2.8750000000,-6.2500000000,359.9375000000,image22.jpg,2228.0703120000
0.3529411852,-2.0000000000,5,50.8680366667,-0.0982245000,68.0000000000,3.5625000000,-6.5625000000,0.0625000000,image23.jpg,2363.5655720000
0.4000000060,-2.0000000000,5,50.8680365000,-0.0982246667,68.0000000000,4.1875000000,-6.8750000000,359.9375000000,image24.jpg,2428.4741140000
0.3764705956,-1.0000000000,5,50.8680363333,-0.0982248333,68.0000000000,5.7500000000,-7.0000000000,359.5000000000,image25.jpg,2563.7951550000
0.4313725531,1.0000000000,5,50.8680361667,-0.0982248333,68.0000000000,5.8750000000,-6.6875000000,359.1875000000,image26.jpg,2628.1514580000
0.4235294163,10.0000000000,5,50.8680360000,-0.0982250000,68.0000000000,4.1875000000,-6.1250000000,358.3125000000,image27.jpg,2763.6061970000
0.3294117749,18.0000000000,5,50.8680358333,-0.0982251667,68.0000000000,2.6875000000,-5.8750000000,358.3125000000,image28.jpg,2828.3928640000
0.4078431427,27.0000000000,5,50.8680355000,-0.0982256667,68.0000000000,2.1875000000,-6.2500000000,359.5000000000,image29.jpg,2963.5821340000
0.4078431427,27.0000000000,5,50.8680351667,-0.0982258333,68.0000000000,1.8125000000,-6.3750000000,0.0625000000,image30.jpg,3027.8649470000
0.4392156899,23.0000000000,5,50.8680350000,-0.0982261667,68.0000000000,3.0625000000,-6.7500000000,1.5000000000,image31.jpg,3163.6020820000
0.4627451003,22.0000000000,5,50.8680346667,-0.0982265000,68.0000000000,3.2500000000,-6.1250000000,2.0625000000,image32.jpg,3227.9627070000
0.4156862795,16.0000000000,5,50.8680343333,-0.0982268333,68.0000000000,4.9375000000,-5.5625000000,3.8125000000,image33.jpg,3363.6212490000
0.4156862795,17.0000000000,5,50.8680341667,-0.0982270000,68.0000000000,5.5625000000,-4.8125000000,4.3125000000,image34.jpg,3427.4974470000
0.3607843220,22.0000000000,5,50.8680340000,-0.0982271667,68.0000000000,6.0625000000,-4.0625000000,5.0625000000,image35.jpg,3563.5770300000
0.4156862795,25.0000000000,5,50.8680338333,-0.0982271667,68.0000000000,6.5000000000,-4.3125000000,5.3125000000,image36.jpg,3632.2322900000
0.4392156899,24.0000000000,5,50.8680336667,-0.0982273333,68.0000000000,7.6250000000,-4.8750000000,5.6250000000,image37.jpg,3764.9944780000
0.5254902244,23.0000000000,5,50.8680335000,-0.0982275000,68.0000000000,8.5000000000,-4.6875000000,6.1875000000,image38.jpg,3831.4267170000
0.4705882370,23.0000000000,5,50.8680330000,-0.0982276667,68.0000000000,10.1875000000,-4.8750000000,6.8125000000,image39.jpg,3967.2133320000
0.4156862795,16.0000000000,5,50.8680326667,-0.0982280000,68.0000000000,9.9375000000,-5.1875000000,7.2500000000,image40.jpg,4031.3579150000
0.4470588267,13.0000000000,5,50.8680325000,-0.0982283333,68.0000000000,5.6250000000,-4.4375000000,9.5000000000,image41.jpg,4165.0223940000
0.4392156899,11.0000000000,5,50.8680323333,-0.0982290000,67.9000000000,3.8750000000,-4.2500000000,10.3750000000,image42.jpg,4231.7219260000
0.4627451003,8.0000000000,5,50.8680321667,-0.0982295000,67.9000000000,5.0000000000,-3.8750000000,11.2500000000,image43.jpg,4363.8004670000
0.4627451003,8.0000000000,5,50.8680320000,-0.0982298333,67.9000000000,6.3125000000,-4.8750000000,11.2500000000,image44.jpg,4432.1482800000
0.4392156899,2.0000000000,5,50.8680315000,-0.0982300000,67.9000000000,6.5000000000,-6.9375000000,11.3750000000,image45.jpg,4564.2807280000
0.4392156899,1.0000000000,5,50.8680313333,-0.0982305000,67.9000000000,6.8750000000,-7.3750000000,12.2500000000,image46.jpg,4631.3748940000
0.3607843220,1.0000000000,5,50.8680310000,-0.0982308333,67.9000000000,7.6875000000,-7.6250000000,11.5000000000,image47.jpg,4763.8143730000
0.4470588267,0.0000000000,5,50.8680306667,-0.0982310000,67.9000000000,7.5000000000,-6.5000000000,11.9375000000,image48.jpg,4831.5757280000
0.3764705956,0.0000000000,5,50.8680305000,-0.0982313333,67.9000000000,6.5000000000,-5.0625000000,11.0000000000,image49.jpg,4964.6511440000
0.4549019635,-4.0000000000,5,50.8680303333,-0.0982318333,67.9000000000,6.9375000000,-4.3750000000,10.1875000000,image50.jpg,5033.2039050000
0.4627451003,-14.0000000000,5,50.8680301667,-0.0982321667,67.9000000000,5.1250000000,-3.1250000000,8.6250000000,image51.jpg,5164.3854670000
0.4078431427,-15.0000000000,5,50.8680301667,-0.0982325000,67.9000000000,3.6250000000,-3.4375000000,9.3125000000,image52.jpg,5231.5078110000
0.4941176474,-4.0000000000,5,50.8680298333,-0.0982328333,67.9000000000,4.6875000000,-1.7500000000,8.9375000000,image53.jpg,5364.3410920000
0.5098039508,-1.0000000000,5,50.8680296667,-0.0982330000,67.9000000000,5.3750000000,-1.1250000000,8.3125000000,image54.jpg,5431.5597380000
0.6196078658,0.0000000000,5,50.8680293333,-0.0982330000,67.9000000000,5.8750000000,-0.1250000000,7.3125000000,image55.jpg,5562.8240080000
0.6509804130,0.0000000000,5,50.8680291667,-0.0982336667,67.9000000000,6.1250000000,0.8750000000,7.2500000000,image56.jpg,5632.7657270000
0.6117647290,1.0000000000,5,50.8680288333,-0.0982340000,68.0000000000,5.0625000000,1.3750000000,6.0625000000,image57.jpg,5763.5405190000
0.6039215922,1.0000000000,5,50.8680285000,-0.0982343333,68.0000000000,4.9375000000,0.5000000000,5.6250000000,image58.jpg,5831.4255710000
0.5725490451,8.0000000000,5,50.8680281667,-0.0982348333,67.9000000000,7.3750000000,-0.4375000000,5.1875000000,image59.jpg,5967.9082270000
0.6196078658,9.0000000000,5,50.8680278333,-0.0982350000,67.9000000000,8.6250000000,-0.5625000000,5.0625000000,image60.jpg,6031.7076020000
0.5568627715,16.0000000000,5,50.8680275000,-0.0982353333,67.9000000000,8.8125000000,-2.5000000000,5.3750000000,image61.jpg,6164.1557790000
0.5803921819,19.0000000000,5,50.8680271667,-0.0982356667,67.9000000000,9.1250000000,-3.5625000000,5.5625000000,image62.jpg,6231.3404140000
0.5803921819,20.0000000000,5,50.8680268333,-0.0982361667,67.9000000000,8.9375000000,-3.4375000000,7.1250000000,image63.jpg,6367.7737480000
0.5490196347,20.0000000000,5,50.8680261667,-0.0982366667,67.9000000000,9.3125000000,-2.7500000000,8.3125000000,image64.jpg,6431.5002580000
0.5882353187,14.0000000000,5,50.8680256667,-0.0982370000,67.9000000000,10.1250000000,-1.8125000000,9.8125000000,image65.jpg,6567.1437480000
0.6039215922,9.0000000000,5,50.8680253333,-0.0982375000,67.9000000000,9.7500000000,-2.1250000000,10.6875000000,image66.jpg,6631.3765600000
0.5803921819,-1.0000000000,5,50.8680251667,-0.0982380000,67.9000000000,11.6875000000,-0.8750000000,11.9375000000,image67.jpg,6768.2064560000
0.6117647290,-1.0000000000,5,50.8680248333,-0.0982381667,67.9000000000,11.8750000000,0.1875000000,11.9375000000,image68.jpg,6832.0093730000
0.6039215922,0.0000000000,5,50.8680245000,-0.0982386667,67.9000000000,11.5000000000,1.3125000000,11.8750000000,image69.jpg,6968.4206230000
0.6039215922,0.0000000000,5,50.8680241667,-0.0982391667,67.8000000000,11.8750000000,2.3750000000,10.5625000000,image70.jpg,7031.6933310000
0.5725490451,2.0000000000,5,50.8680240000,-0.0982393333,67.8000000000,12.0625000000,1.0000000000,9.8750000000,image71.jpg,7168.6282270000
0.5647059083,3.0000000000,5,50.8680235000,-0.0982395000,67.8000000000,11.8125000000,1.8125000000,9.7500000000,image72.jpg,7232.1212470000
0.6039215922,20.0000000000,5,50.8680230000,-0.0982403333,67.8000000000,10.6875000000,1.1875000000,9.5000000000,image73.jpg,7368.9628100000
0.6039215922,25.0000000000,5,50.8680226667,-0.0982411667,67.8000000000,9.6250000000,0.5625000000,9.4375000000,image74.jpg,7432.7249450000
0.6039215922,26.0000000000,5,50.8680221667,-0.0982416667,67.9000000000,10.1250000000,1.2500000000,11.0000000000,image75.jpg,7568.6367680000
0.6117647290,21.0000000000,5,50.8680218333,-0.0982421667,67.9000000000,10.1250000000,0.0625000000,12.8125000000,image76.jpg,7635.3019240000
0.6274510026,20.0000000000,5,50.8680215000,-0.0982428333,67.9000000000,10.4375000000,1.7500000000,15.4375000000,image77.jpg,7767.4859350000
0.6117647290,20.0000000000,5,50.8680213333,-0.0982430000,67.9000000000,10.1250000000,1.8750000000,15.8750000000,image78.jpg,7835.8166120000
0.5803921819,7.0000000000,5,50.8680210000,-0.0982436667,67.9000000000,9.3750000000,2.4375000000,17.6250000000,image79.jpg,7967.8456220000
0.6117647290,0.0000000000,5,50.8680206667,-0.0982443333,67.9000000000,8.8125000000,2.0000000000,18.5625000000,image80.jpg,8036.6031740000
0.6274510026,-3.0000000000,5,50.8680205000,-0.0982448333,67.9000000000,5.8750000000,2.6250000000,17.6250000000,image81.jpg,8168.1044240000
0.6274510026,-1.0000000000,5,50.8680201667,-0.0982455000,67.9000000000,4.4375000000,2.3125000000,17.6875000000,image82.jpg,8236.2893720000
0.6274510026,1.0000000000,5,50.8680200000,-0.0982461667,67.9000000000,3.9375000000,2.5625000000,17.0000000000,image83.jpg,8368.6734340000
0.5882353187,0.0000000000,5,50.8680196667,-0.0982466667,67.9000000000,5.0000000000,2.3125000000,17.1250000000,image84.jpg,8436.6679140000
0.6196078658,0.0000000000,5,50.8680193333,-0.0982473333,67.9000000000,6.5000000000,2.9375000000,17.0000000000,image85.jpg,8568.9857260000
0.6117647290,0.0000000000,5,50.8680191667,-0.0982476667,67.9000000000,7.0625000000,3.0625000000,16.7500000000,image86.jpg,8636.7684340000
0.6196078658,-1.0000000000,5,50.8680186667,-0.0982480000,67.9000000000,7.8125000000,3.2500000000,16.3125000000,image87.jpg,8769.3267680000
0.6196078658,1.0000000000,5,50.8680181667,-0.0982486667,67.9000000000,8.4375000000,4.6250000000,15.7500000000,image88.jpg,8837.0713510000
0.6196078658,-1.0000000000,5,50.8680178333,-0.0982490000,67.9000000000,6.8125000000,5.1875000000,15.8125000000,image89.jpg,8968.3742160000
0.6196078658,-1.0000000000,5,50.8680176667,-0.0982493333,67.9000000000,6.8125000000,4.5625000000,15.4375000000,image90.jpg,9035.7144240000
0.6274510026,0.0000000000,5,50.8680173333,-0.0982500000,67.9000000000,7.0625000000,2.7500000000,14.7500000000,image91.jpg,9167.5139550000
0.5647059083,0.0000000000,5,50.8680170000,-0.0982505000,67.9000000000,6.2500000000,2.4375000000,15.1250000000,image92.jpg,9235.9283820000
0.6274510026,1.0000000000,5,50.8680166667,-0.0982510000,67.9000000000,7.8750000000,3.1250000000,14.9375000000,image93.jpg,9367.4725490000
0.6274510026,11.0000000000,5,50.8680163333,-0.0982515000,67.9000000000,8.9375000000,2.0000000000,14.6250000000,image94.jpg,9436.0760380000
0.6352941394,15.0000000000,5,50.8680158333,-0.0982518333,67.9000000000,8.8750000000,0.5625000000,14.0000000000,image95.jpg,9567.5718190000
0.6431372762,16.0000000000,5,50.8680155000,-0.0982525000,67.9000000000,7.9375000000,0.6250000000,14.6250000000,image96.jpg,9636.8758820000
0.6352941394,18.0000000000,5,50.8680151667,-0.0982531667,67.9000000000,8.7500000000,1.5000000000,16.7500000000,image97.jpg,9768.3364550000
0.6274510026,18.0000000000,5,50.8680148333,-0.0982538333,67.9000000000,8.7500000000,1.5625000000,17.0625000000,image98.jpg,9836.5210380000
0.6274510026,14.0000000000,5,50.8680143333,-0.0982545000,67.9000000000,8.0625000000,1.4375000000,18.5000000000,image99.jpg,9967.5355690000
0.5803921819,12.0000000000,5,50.8680141667,-0.0982550000,67.9000000000,7.6250000000,1.2500000000,19.8750000000,image100.jpg,10036.3829650000
0.6352941394,11.0000000000,5,50.8680138333,-0.0982556667,67.9000000000,7.5625000000,1.5625000000,20.0000000000,image101.jpg,10167.5146840000
0.6352941394,11.0000000000,5,50.8680133333,-0.0982563333,67.9000000000,9.1250000000,2.8750000000,20.1250000000,image102.jpg,10236.4930690000
0.6431372762,14.0000000000,5,50.8680131667,-0.0982568333,67.9000000000,8.4375000000,1.0625000000,19.9375000000,image103.jpg,10372.5652050000
0.6352941394,23.0000000000,5,50.8680126667,-0.0982573333,67.9000000000,5.6250000000,2.6875000000,20.1250000000,image104.jpg,10435.1522360000
0.6352941394,33.0000000000,5,50.8680126667,-0.0982580000,67.9000000000,7.3125000000,1.9375000000,22.1250000000,image105.jpg,10570.5876000000
0.6352941394,33.0000000000,5,50.8680123333,-0.0982583333,67.9000000000,7.8125000000,0.9375000000,22.6875000000,image106.jpg,10634.9432250000
0.5490196347,29.0000000000,5,50.8680118333,-0.0982590000,67.9000000000,4.1250000000,1.0625000000,25.0000000000,image107.jpg,10771.3339540000
0.6274510026,21.0000000000,5,50.8680116667,-0.0982600000,68.0000000000,5.1250000000,1.0000000000,26.2500000000,image108.jpg,10835.7282250000
0.6352941394,-1.0000000000,5,50.8680115000,-0.0982605000,68.0000000000,9.4375000000,2.0625000000,29.7500000000,image109.jpg,10975.1714540000
0.6274510026,0.0000000000,5,50.8680111667,-0.0982608333,68.0000000000,8.8750000000,1.6875000000,28.7500000000,image110.jpg,11037.1108810000
0.6352941394,3.0000000000,5,50.8680110000,-0.0982613333,68.0000000000,6.6250000000,2.2500000000,28.9375000000,image111.jpg,11170.9016110000
0.5490196347,8.0000000000,5,50.8680110000,-0.0982620000,68.0000000000,7.4375000000,3.1875000000,29.1875000000,image112.jpg,11235.9368190000
0.6352941394,22.0000000000,5,50.8680106667,-0.0982626667,68.0000000000,5.8750000000,5.1250000000,27.8125000000,image113.jpg,11371.2689540000
0.6352941394,26.0000000000,5,50.8680103333,-0.0982631667,68.0000000000,3.3750000000,3.6875000000,28.7500000000,image114.jpg,11436.1441100000
0.6509804130,27.0000000000,5,50.8680103333,-0.0982641667,68.0000000000,9.7500000000,2.5000000000,31.5000000000,image115.jpg,11571.1292150000
0.6509804130,27.0000000000,5,50.8680098333,-0.0982646667,68.0000000000,11.3125000000,3.1875000000,32.0625000000,image116.jpg,11639.9142670000
0.6509804130,27.0000000000,5,50.8680095000,-0.0982653333,68.0000000000,10.4375000000,2.3125000000,34.7500000000,image117.jpg,11770.9584330000
0.6509804130,27.0000000000,5,50.8680095000,-0.0982665000,67.9000000000,11.1250000000,1.6875000000,37.3750000000,image118.jpg,11839.7851520000
0.6117647290,26.0000000000,5,50.8680091667,-0.0982673333,67.9000000000,9.5625000000,1.2500000000,39.0625000000,image119.jpg,11970.6986410000
0.6274510026,26.0000000000,5,50.8680091667,-0.0982681667,67.9000000000,6.6250000000,1.2500000000,41.1875000000,image120.jpg,12043.3310370000
0.6509804130,35.0000000000,5,50.8680091667,-0.0982685000,67.9000000000,4.6250000000,1.9375000000,45.5000000000,image121.jpg,12170.7249430000
0.6509804130,26.0000000000,5,50.8680086667,-0.0982686667,67.9000000000,6.3750000000,2.6250000000,47.4375000000,image122.jpg,12239.6029120000
0.6509804130,24.0000000000,5,50.8680088333,-0.0982698333,67.9000000000,4.8125000000,2.6875000000,49.0625000000,image123.jpg,12370.9434850000
0.6196078658,23.0000000000,5,50.8680088333,-0.0982706667,67.9000000000,3.0000000000,3.0000000000,50.3125000000,image124.jpg,12438.7749430000
0.6666666865,10.0000000000,5,50.8680088333,-0.0982718333,67.9000000000,2.5625000000,2.1250000000,51.8125000000,image125.jpg,12571.3476520000
0.6509804130,-1.0000000000,5,50.8680088333,-0.0982726667,67.9000000000,2.0000000000,2.1250000000,52.8750000000,image126.jpg,12639.1190060000
0.6274510026,-3.0000000000,5,50.8680088333,-0.0982733333,67.9000000000,3.8125000000,2.3750000000,53.6250000000,image127.jpg,12772.8520790000
0.6588235497,-3.0000000000,5,50.8680086667,-0.0982741667,67.9000000000,3.6875000000,2.7500000000,53.8750000000,image128.jpg,12839.4183290000
0.6509804130,1.0000000000,5,50.8680086667,-0.0982746667,67.9000000000,2.9375000000,3.8125000000,52.3125000000,image129.jpg,12970.9957240000
0.6196078658,8.0000000000,5,50.8680086667,-0.0982753333,68.0000000000,2.1250000000,4.7500000000,51.5000000000,image130.jpg,13039.3143180000
0.6666666865,35.0000000000,5,50.8680086667,-0.0982763333,68.0000000000,0.6875000000,5.5000000000,50.8125000000,image131.jpg,13171.3894220000
0.6588235497,34.0000000000,5,50.8680085000,-0.0982770000,68.0000000000,1.5625000000,5.8125000000,51.8125000000,image132.jpg,13239.0361930000
0.6588235497,33.0000000000,5,50.8680085000,-0.0982776667,68.0000000000,5.2500000000,7.1250000000,53.5625000000,image133.jpg,13372.2237970000
0.6588235497,35.0000000000,5,50.8680083333,-0.0982781667,68.0000000000,3.5000000000,7.3125000000,54.4375000000,image134.jpg,13438.9454640000
0.6588235497,33.0000000000,5,50.8680083333,-0.0982790000,68.0000000000,3.0000000000,8.3125000000,57.3750000000,image135.jpg,13571.7816100000
0.6509804130,33.0000000000,5,50.8680085000,-0.0982796667,68.0000000000,3.8750000000,7.8750000000,58.8750000000,image136.jpg,13638.8699950000
0.6509804130,33.0000000000,5,50.8680085000,-0.0982801667,68.0000000000,4.7500000000,7.6250000000,61.7500000000,image137.jpg,13771.6163490000
0.6588235497,34.0000000000,5,50.8680085000,-0.0982813333,68.0000000000,3.5625000000,7.6875000000,63.7500000000,image138.jpg,13838.9460890000
0.6196078658,34.0000000000,5,50.8680086667,-0.0982820000,68.0000000000,4.1875000000,7.1875000000,66.3750000000,image139.jpg,13971.9100990000
0.6509804130,34.0000000000,5,50.8680088333,-0.0982830000,67.9000000000,4.0000000000,8.6250000000,67.1250000000,image140.jpg,14039.7807240000
0.6588235497,33.0000000000,5,50.8680088333,-0.0982838333,67.9000000000,4.0000000000,7.2500000000,68.8125000000,image141.jpg,14176.2318180000
0.6274510026,34.0000000000,5,50.8680088333,-0.0982845000,67.9000000000,2.3750000000,5.0625000000,70.6875000000,image142.jpg,14238.8956720000
0.6901960969,35.0000000000,5,50.8680090000,-0.0982853333,67.9000000000,2.3125000000,5.5625000000,74.1875000000,image143.jpg,14375.8261410000
0.6901960969,34.0000000000,5,50.8680093333,-0.0982856667,67.9000000000,1.0000000000,6.1250000000,74.6250000000,image144.jpg,14439.3730160000
0.6901960969,33.0000000000,5,50.8680095000,-0.0982863333,67.9000000000,1.0000000000,5.9375000000,79.1875000000,image145.jpg,14576.4440570000
0.6901960969,35.0000000000,5,50.8680098333,-0.0982878333,67.9000000000,1.0625000000,4.7500000000,80.3125000000,image146.jpg,14639.1167130000
0.6901960969,34.0000000000,5,50.8680101667,-0.0982883333,67.9000000000,0.3750000000,5.1250000000,81.8125000000,image147.jpg,14775.2179110000
0.7058823705,33.0000000000,5,50.8680105000,-0.0982885000,67.9000000000,0.0625000000,6.1875000000,83.3750000000,image148.jpg,14838.9911920000
0.6901960969,33.0000000000,5,50.8680106667,-0.0982891667,67.9000000000,-0.2500000000,7.5000000000,88.5625000000,image149.jpg,14975.2520260000
0.6901960969,33.0000000000,5,50.8680108333,-0.0982898333,67.9000000000,0.6250000000,7.8750000000,90.1250000000,image150.jpg,15038.8749420000
0.6352941394,34.0000000000,5,50.8680110000,-0.0982903333,67.9000000000,1.0625000000,7.7500000000,92.8750000000,image151.jpg,15174.9117130000
0.6901960969,33.0000000000,5,50.8680111667,-0.0982910000,67.9000000000,1.3750000000,7.9375000000,94.1250000000,image152.jpg,15239.2840570000
0.6980392337,34.0000000000,5,50.8680115000,-0.0982916667,67.9000000000,0.8125000000,5.0625000000,97.3750000000,image153.jpg,15376.5367650000
0.6588235497,34.0000000000,5,50.8680120000,-0.0982925000,67.9000000000,0.7500000000,5.1875000000,98.2500000000,image154.jpg,15439.5860880000
0.6980392337,35.0000000000,5,50.8680125000,-0.0982931667,67.9000000000,1.6250000000,4.7500000000,99.6875000000,image155.jpg,15576.7362440000
0.6980392337,34.0000000000,5,50.8680126667,-0.0982936667,68.0000000000,-0.5625000000,4.4375000000,100.5625000000,image156.jpg,15642.9459320000
0.6980392337,34.0000000000,2,50.8680133333,-0.0982948333,68.0000000000,-1.0000000000,3.8125000000,105.2500000000,image157.jpg,15776.1646300000
0.6901960969,35.0000000000,nan,nan,nan,nan,-0.8125000000,4.8125000000,106.2500000000,image158.jpg,15842.5685880000
0.6352941394,34.0000000000,2,50.8680138333,-0.0982953333,68.0000000000,-1.3750000000,4.7500000000,107.4375000000,image159.jpg,15909.3807230000
0.6823529601,34.0000000000,2,50.8680141667,-0.0982955000,68.0000000000,-2.1250000000,3.1250000000,110.6875000000,image160.jpg,16043.7833790000
0.6901960969,34.0000000000,2,50.8680146667,-0.0982958333,68.0000000000,-0.4375000000,3.0000000000,112.3125000000,image161.jpg,16106.3215570000
0.6980392337,33.0000000000,2,50.8680151667,-0.0982966667,68.0000000000,-1.1875000000,0.1250000000,114.8125000000,image162.jpg,16242.0055150000
0.6980392337,33.0000000000,2,50.8680156667,-0.0982966667,68.0000000000,-1.0625000000,2.0000000000,115.8125000000,image163.jpg,16306.5778590000
0.6980392337,34.0000000000,2,50.8680160000,-0.0982965000,68.0000000000,-2.4375000000,2.6250000000,117.5000000000,image164.jpg,16444.3443690000
0.7137255073,33.0000000000,5,50.8680166667,-0.0982971667,68.0000000000,-3.1250000000,3.3125000000,118.7500000000,image165.jpg,16509.2874940000
0.6117647290,30.0000000000,5,50.8680171667,-0.0982971667,68.0000000000,-2.3750000000,6.1875000000,121.1250000000,image166.jpg,16644.1420770000
0.7058823705,16.0000000000,5,50.8680175000,-0.0982973333,68.0000000000,-0.6875000000,5.8125000000,124.1875000000,image167.jpg,16707.3318690000
0.7215686440,0.0000000000,5,50.8680178333,-0.0982978333,68.0000000000,1.5000000000,6.0625000000,127.5625000000,image168.jpg,16844.6680670000
0.7215686440,1.0000000000,5,50.8680183333,-0.0982981667,68.0000000000,0.0000000000,5.6250000000,127.3125000000,image169.jpg,16910.2639000000
0.7215686440,-4.0000000000,5,50.8680188333,-0.0982983333,68.0000000000,-4.0000000000,8.3125000000,125.6875000000,image170.jpg,17047.8254100000
0.6509804130,-1.0000000000,5,50.8680191667,-0.0982981667,68.0000000000,-4.9375000000,7.5000000000,125.3750000000,image171.jpg,17111.1149420000
0.7215686440,3.0000000000,5,50.8680196667,-0.0982986667,68.0000000000,-2.8750000000,6.6875000000,125.2500000000,image172.jpg,17243.8397330000
0.7215686440,8.0000000000,5,50.8680205000,-0.0982995000,68.0000000000,-1.3125000000,7.1875000000,125.2500000000,image173.jpg,17310.6979100000
0.7215686440,26.0000000000,5,50.8680211667,-0.0982998333,68.0000000000,-2.0000000000,7.2500000000,125.0625000000,image174.jpg,17444.2689520000
0.7215686440,33.0000000000,5,50.8680216667,-0.0983000000,68.0000000000,-1.5625000000,4.4375000000,125.8125000000,image175.jpg,17510.3318690000
0.7372549176,33.0000000000,5,50.8680225000,-0.0983003333,68.0000000000,-1.0625000000,3.2500000000,128.7500000000,image176.jpg,17644.5583790000
0.7215686440,33.0000000000,5,50.8680230000,-0.0983010000,68.0000000000,-2.3125000000,2.7500000000,131.2500000000,image177.jpg,17710.2941600000
0.6901960969,34.0000000000,5,50.8680238333,-0.0983011667,68.0000000000,-0.0625000000,1.1250000000,134.3750000000,image178.jpg,17845.2307230000
0.6901960969,33.0000000000,5,50.8680243333,-0.0983015000,68.0000000000,-1.3125000000,0.8125000000,135.3125000000,image179.jpg,17912.2279100000
0.7294117808,-2.0000000000,5,50.8680246667,-0.0983015000,68.0000000000,-3.8750000000,2.1250000000,139.1250000000,image180.jpg,18045.6181180000
0.7294117808,0.0000000000,5,50.8680251667,-0.0983013333,68.0000000000,-1.9375000000,0.2500000000,141.3750000000,image181.jpg,18113.2122330000
0.7372549176,0.0000000000,5,50.8680258333,-0.0983018333,68.0000000000,2.0625000000,4.0625000000,142.0625000000,image182.jpg,18246.3227540000
0.6980392337,2.0000000000,5,50.8680261667,-0.0983021667,68.0000000000,1.5625000000,5.0625000000,142.4375000000,image183.jpg,18312.7068680000
0.7372549176,-1.0000000000,5,50.8680266667,-0.0983020000,68.0000000000,-0.2500000000,3.4375000000,142.5000000000,image184.jpg,18443.8751490000
0.7372549176,-14.0000000000,5,50.8680275000,-0.0983021667,68.0000000000,-2.1250000000,1.9375000000,141.8750000000,image185.jpg,18509.5060350000
0.6980392337,-26.0000000000,2,50.8680276667,-0.0983023333,68.0000000000,-1.9375000000,7.0625000000,142.1250000000,image186.jpg,18644.1422850000
0.7372549176,-26.0000000000,2,50.8680278333,-0.0983023333,67.9000000000,1.0000000000,3.4375000000,142.5000000000,image187.jpg,18709.4540560000
0.7372549176,-17.0000000000,2,50.8680283333,-0.0983030000,67.9000000000,-0.3125000000,2.8750000000,138.5625000000,image188.jpg,18845.3518680000
0.7058823705,-16.0000000000,2,50.8680286667,-0.0983028333,67.9000000000,-0.7500000000,4.8125000000,136.2500000000,image189.jpg,18910.4238470000
0.6980392337,-6.0000000000,2,50.8680290000,-0.0983026667,67.9000000000,-3.1875000000,3.0000000000,133.7500000000,image190.jpg,19043.6037430000
0.6980392337,-3.0000000000,2,50.8680296667,-0.0983033333,67.9000000000,-1.1250000000,4.4375000000,132.5625000000,image191.jpg,19110.9066070000
0.7372549176,0.0000000000,2,50.8680298333,-0.0983038333,67.9000000000,-3.4375000000,5.5000000000,131.9375000000,image192.jpg,19243.5180660000
0.7450980544,2.0000000000,2,50.8680301667,-0.0983038333,67.9000000000,-4.6250000000,6.6875000000,132.3750000000,image193.jpg,19311.5346800000
0.7372549176,0.0000000000,2,50.8680308333,-0.0983038333,67.9000000000,-6.6250000000,2.0000000000,132.7500000000,image194.jpg,19443.3862430000
0.6980392337,0.0000000000,5,50.8680316667,-0.0983043333,68.0000000000,-5.5000000000,2.6250000000,132.2500000000,image195.jpg,19512.3287430000
0.7372549176,-11.0000000000,5,50.8680321667,-0.0983048333,68.0000000000,-1.1875000000,1.9375000000,133.3125000000,image196.jpg,19648.0414510000
0.7372549176,-18.0000000000,5,50.8680328333,-0.0983051667,68.0000000000,1.7500000000,2.3750000000,132.3125000000,image197.jpg,19711.8068160000
0.6980392337,-18.0000000000,5,50.8680333333,-0.0983055000,68.0000000000,-0.5625000000,3.0000000000,129.9375000000,image198.jpg,19847.4555130000
0.7450980544,-15.0000000000,5,50.8680336667,-0.0983055000,68.0000000000,-2.3125000000,3.5000000000,128.8125000000,image199.jpg,19912.5407740000
0.7294117808,-3.0000000000,5,50.8680343333,-0.0983058333,68.0000000000,-2.8750000000,5.9375000000,127.8750000000,image200.jpg,20048.2651490000
0.7294117808,2.0000000000,5,50.8680348333,-0.0983060000,67.9000000000,-1.5625000000,7.1875000000,126.2500000000,image201.jpg,20112.2663990000
0.7294117808,0.0000000000,5,50.8680353333,-0.0983068333,67.9000000000,-2.8125000000,7.1250000000,126.3125000000,image202.jpg,20248.6348360000
0.7294117808,3.0000000000,5,50.8680356667,-0.0983068333,67.9000000000,-3.2500000000,5.4375000000,126.4375000000,image203.jpg,20311.1929610000
0.7294117808,0.0000000000,5,50.8680361667,-0.0983071667,67.9000000000,-0.4375000000,4.5000000000,126.5000000000,image204.jpg,20449.2983780000
0.7294117808,3.0000000000,5,50.8680368333,-0.0983078333,68.0000000000,-0.8125000000,3.8750000000,124.8750000000,image205.jpg,20511.1774920000
0.6588235497,3.0000000000,5,50.8680375000,-0.0983081667,67.9000000000,-3.8750000000,2.1875000000,125.0625000000,image206.jpg,20650.3804090000
0.7372549176,5.0000000000,5,50.8680380000,-0.0983083333,68.0000000000,-3.8125000000,0.0000000000,124.9375000000,image207.jpg,20711.1165550000
0.7372549176,10.0000000000,5,50.8680385000,-0.0983086667,68.0000000000,-5.0000000000,2.6250000000,125.0625000000,image208.jpg,20849.8842110000
0.6823529601,9.0000000000,5,50.8680390000,-0.0983091667,68.0000000000,-3.7500000000,1.9375000000,125.1250000000,image209.jpg,20912.0173360000
0.7294117808,8.0000000000,5,50.8680393333,-0.0983095000,68.0000000000,-4.2500000000,5.9375000000,125.8125000000,image210.jpg,21055.3565550000
0.6823529601,5.0000000000,5,50.8680400000,-0.0983100000,68.0000000000,-7.4375000000,5.8750000000,126.5000000000,image211.jpg,21116.0766590000
0.7372549176,6.0000000000,5,50.8680406667,-0.0983096667,68.0000000000,-5.4375000000,4.0000000000,127.1875000000,image212.jpg,21247.9177530000
0.7372549176,9.0000000000,5,50.8680413333,-0.0983103333,68.0000000000,-2.8125000000,4.1250000000,127.5000000000,image213.jpg,21315.4661900000
0.7372549176,11.0000000000,5,50.8680418333,-0.0983110000,68.0000000000,0.7500000000,3.9375000000,127.6875000000,image214.jpg,21448.8678570000
0.7372549176,11.0000000000,5,50.8680423333,-0.0983115000,68.0000000000,-1.5625000000,2.5000000000,128.1250000000,image215.jpg,21518.9879610000
0.7372549176,12.0000000000,5,50.8680430000,-0.0983115000,68.0000000000,-7.1875000000,5.1875000000,129.3125000000,image216.jpg,21652.7493670000
0.7372549176,14.0000000000,5,50.8680436667,-0.0983113333,68.0000000000,-7.5000000000,5.5000000000,130.5625000000,image217.jpg,21716.0046790000
0.6823529601,15.0000000000,5,50.8680441667,-0.0983115000,68.0000000000,-2.7500000000,3.5625000000,134.2500000000,image218.jpg,21848.3872840000
0.7372549176,15.0000000000,5,50.8680448333,-0.0983121667,68.0000000000,0.4375000000,1.1875000000,134.7500000000,image219.jpg,21917.9959810000
0.7372549176,7.0000000000,5,50.8680455000,-0.0983126667,68.0000000000,-0.5625000000,3.3125000000,134.5000000000,image220.jpg,22048.6640540000
0.7372549176,1.0000000000,5,50.8680460000,-0.0983128333,68.0000000000,-2.3125000000,2.2500000000,134.5000000000,image221.jpg,22115.9637420000
0.7372549176,-1.0000000000,5,50.8680468333,-0.0983125000,68.0000000000,-2.5000000000,4.0625000000,135.3125000000,image222.jpg,22248.4627520000
0.6980392337,-2.0000000000,5,50.8680471667,-0.0983128333,68.0000000000,-1.0625000000,6.0625000000,135.3750000000,image223.jpg,22315.3725440000
0.7372549176,-2.0000000000,5,50.8680478333,-0.0983135000,68.0000000000,-2.5000000000,3.6875000000,135.1250000000,image224.jpg,22449.5583250000
0.7372549176,-1.0000000000,5,50.8680485000,-0.0983133333,68.0000000000,-2.1875000000,3.8750000000,135.2500000000,image225.jpg,22515.2304080000
0.7372549176,-12.0000000000,5,50.8680491667,-0.0983133333,68.0000000000,-3.4375000000,3.6250000000,134.5625000000,image226.jpg,22651.3313460000
0.7372549176,-15.0000000000,5,50.8680496667,-0.0983138333,68.0000000000,-3.3750000000,3.8750000000,134.1250000000,image227.jpg,22715.2702520000
0.7450980544,-14.0000000000,5,50.8680505000,-0.0983140000,68.0000000000,-1.1250000000,5.6875000000,132.3750000000,image228.jpg,22848.1803560000
0.7294117808,-11.0000000000,5,50.8680510000,-0.0983145000,68.0000000000,-1.8125000000,7.8125000000,130.6250000000,image229.jpg,22915.5539500000
0.6431372762,-1.0000000000,5,50.8680513333,-0.0983146667,67.9000000000,-2.0000000000,6.6875000000,129.5000000000,image230.jpg,23046.6850960000
0.7372549176,-1.0000000000,5,50.8680520000,-0.0983148333,67.9000000000,-0.6875000000,6.8125000000,127.7500000000,image231.jpg,23116.8652000000
0.7294117808,0.0000000000,5,50.8680525000,-0.0983150000,67.9000000000,-5.7500000000,6.0000000000,127.7500000000,image232.jpg,23250.5510850000
0.7294117808,1.0000000000,5,50.8680533333,-0.0983151667,67.9000000000,-7.2500000000,5.3750000000,128.6250000000,image233.jpg,23318.5924910000
0.7372549176,0.0000000000,2,50.8680540000,-0.0983155000,67.9000000000,-1.1875000000,5.0625000000,129.8750000000,image234.jpg,23448.9794180000
0.6745098233,-2.0000000000,2,50.8680543333,-0.0983160000,67.9000000000,2.7500000000,5.8750000000,129.6250000000,image235.jpg,23519.7223870000
0.7058823705,-10.0000000000,2,50.8680546667,-0.0983168333,67.9000000000,1.3750000000,4.0000000000,129.1875000000,image236.jpg,23656.5350430000
0.7137255073,-8.0000000000,2,50.8680553333,-0.0983170000,67.9000000000,-1.0625000000,3.8125000000,127.8750000000,image237.jpg,23720.6847310000
0.6823529601,-5.0000000000,2,50.8680561667,-0.0983170000,67.9000000000,-4.5625000000,4.0000000000,125.9375000000,image238.jpg,23857.0667620000
0.7215686440,-3.0000000000,2,50.8680568333,-0.0983175000,67.8000000000,-5.2500000000,2.9375000000,125.6250000000,image239.jpg,23922.4675950000
0.7294117808,0.0000000000,2,50.8680575000,-0.0983176667,67.9000000000,-3.2500000000,4.3125000000,126.5000000000,image240.jpg,24053.5177510000
0.6980392337,-1.0000000000,2,50.8680576667,-0.0983176667,67.9000000000,-3.1250000000,3.6875000000,125.9375000000,image241.jpg,24118.7717620000
0.7058823705,2.0000000000,2,50.8680581667,-0.0983178333,67.8000000000,-7.4375000000,6.9375000000,125.1250000000,image242.jpg,24253.2793660000
0.7372549176,0.0000000000,2,50.8680588333,-0.0983183333,67.8000000000,-7.1250000000,6.6250000000,126.0625000000,image243.jpg,24315.6498870000
0.7294117808,1.0000000000,2,50.8680593333,-0.0983186667,67.8000000000,-2.2500000000,3.8750000000,124.8125000000,image244.jpg,24450.9950430000
0.6980392337,2.0000000000,5,50.8680601667,-0.0983193333,67.8000000000,-2.2500000000,4.4375000000,123.8125000000,image245.jpg,24515.3307200000
0.7294117808,-4.0000000000,5,50.8680606667,-0.0983196667,67.8000000000,-5.0625000000,6.7500000000,124.6250000000,image246.jpg,24651.2514490000
0.6980392337,-3.0000000000,5,50.8680613333,-0.0983198333,67.9000000000,-5.3125000000,5.5000000000,124.3125000000,image247.jpg,24715.3670220000
0.7058823705,-1.0000000000,5,50.8680618333,-0.0983201667,67.9000000000,-4.3750000000,4.3125000000,123.6875000000,image248.jpg,24851.2366570000
0.7372549176,-1.0000000000,2,50.8680625000,-0.0983206667,67.9000000000,-2.3750000000,5.3750000000,124.5000000000,image249.jpg,24915.0783760000
0.6980392337,0.0000000000,2,50.8680630000,-0.0983213333,67.8000000000,-2.5625000000,3.1250000000,123.6250000000,image250.jpg,25051.6455640000
0.7372549176,0.0000000000,2,50.8680636667,-0.0983216667,67.9000000000,-3.6250000000,2.1250000000,123.6875000000,image251.jpg,25118.9948340000
0.7215686440,1.0000000000,2,50.8680640000,-0.0983220000,67.9000000000,-3.1875000000,4.3125000000,123.8125000000,image252.jpg,25251.6403550000
0.6980392337,0.0000000000,2,50.8680646667,-0.0983223333,67.9000000000,-3.9375000000,6.7500000000,123.5000000000,image253.jpg,25319.3038970000
0.7137255073,2.0000000000,2,50.8680650000,-0.0983223333,67.9000000000,-2.4375000000,3.5000000000,124.3125000000,image254.jpg,25452.8167610000
0.7215686440,0.0000000000,5,50.8680656667,-0.0983231667,67.9000000000,0.8750000000,3.8125000000,124.1875000000,image255.jpg,25519.2913450000
0.7215686440,0.0000000000,5,50.8680661667,-0.0983240000,67.9000000000,-0.5000000000,4.8750000000,123.1875000000,image256.jpg,25652.7189490000
0.7215686440,2.0000000000,5,50.8680668333,-0.0983243333,67.9000000000,-1.3750000000,4.8125000000,123.6875000000,image257.jpg,25719.2582200000
0.7215686440,0.0000000000,5,50.8680675000,-0.0983246667,67.9000000000,-4.5625000000,3.3750000000,122.5000000000,image258.jpg,25852.3066570000
0.7215686440,0.0000000000,5,50.8680681667,-0.0983250000,67.9000000000,-6.0000000000,5.2500000000,122.9375000000,image259.jpg,25919.5005630000
0.7215686440,1.0000000000,5,50.8680686667,-0.0983251667,67.9000000000,-0.0625000000,3.8750000000,123.7500000000,image260.jpg,26056.7817610000
0.7215686440,0.0000000000,5,50.8680690000,-0.0983258333,67.9000000000,-0.1250000000,3.8125000000,124.1250000000,image261.jpg,26119.6915010000
0.6823529601,0.0000000000,5,50.8680695000,-0.0983268333,67.9000000000,-3.0000000000,3.1250000000,123.5625000000,image262.jpg,26252.4520210000
0.7215686440,6.0000000000,5,50.8680701667,-0.0983270000,67.9000000000,-2.5625000000,1.0625000000,123.3750000000,image263.jpg,26319.7395210000
0.7215686440,18.0000000000,5,50.8680708333,-0.0983276667,67.9000000000,-2.1250000000,1.1875000000,123.2500000000,image264.jpg,26451.8679590000
0.6352941394,25.0000000000,5,50.8680713333,-0.0983283333,67.9000000000,-1.1250000000,1.2500000000,123.3125000000,image265.jpg,26522.1720210000
0.7215686440,29.0000000000,5,50.8680720000,-0.0983291667,67.9000000000,-2.3125000000,1.3750000000,125.5000000000,image266.jpg,26656.5357190000
0.7215686440,27.0000000000,5,50.8680725000,-0.0983291667,67.9000000000,-2.0625000000,1.6250000000,126.8750000000,image267.jpg,26719.7741570000
0.7215686440,27.0000000000,5,50.8680730000,-0.0983293333,67.9000000000,-1.6250000000,-1.1875000000,130.2500000000,image268.jpg,26851.9270730000
0.7215686440,24.0000000000,2,50.8680738333,-0.0983300000,67.9000000000,-2.0000000000,-0.1875000000,132.1875000000,image269.jpg,26919.4448860000
0.7215686440,8.0000000000,2,50.8680745000,-0.0983301667,67.9000000000,-1.5625000000,-0.6250000000,135.5000000000,image270.jpg,27052.1095730000
0.7215686440,7.0000000000,2,50.8680750000,-0.0983303333,67.8000000000,-0.8750000000,-1.8125000000,136.2500000000,image271.jpg,27119.8718650000
0.6745098233,5.0000000000,2,50.8680758333,-0.0983305000,67.8000000000,1.0000000000,-0.5625000000,136.8750000000,image272.jpg,27253.4174900000
0.7372549176,-1.0000000000,2,50.8680763333,-0.0983308333,67.8000000000,2.5000000000,0.3750000000,137.6875000000,image273.jpg,27319.9481670000
0.6745098233,0.0000000000,2,50.8680768333,-0.0983311667,67.8000000000,-1.6250000000,0.0625000000,135.3125000000,image274.jpg,27454.3831670000
0.7294117808,2.0000000000,5,50.8680775000,-0.0983308333,67.8000000000,0.0000000000,0.5625000000,135.6875000000,image275.jpg,27519.6698330000
0.7215686440,15.0000000000,5,50.8680781667,-0.0983313333,67.8000000000,5.0000000000,2.1875000000,135.0625000000,image276.jpg,27657.5272810000
0.6666666865,20.0000000000,5,50.8680786667,-0.0983321667,67.8000000000,4.5000000000,2.3750000000,134.8750000000,image277.jpg,27720.0710830000
0.7137255073,25.0000000000,5,50.8680791667,-0.0983323333,67.7000000000,5.6875000000,6.6875000000,136.6250000000,image278.jpg,27858.2570210000
0.7294117808,24.0000000000,5,50.8680796667,-0.0983325000,67.8000000000,6.1250000000,5.0625000000,136.1875000000,image279.jpg,27920.4042600000
0.7137255073,21.0000000000,5,50.8680801667,-0.0983325000,67.8000000000,1.6875000000,10.0625000000,138.9375000000,image280.jpg,28059.2154060000
0.7215686440,20.0000000000,5,50.8680806667,-0.0983321667,67.8000000000,2.1875000000,9.1875000000,140.5000000000,image281.jpg,28120.5666560000
0.7372549176,18.0000000000,5,50.8680810000,-0.0983325000,67.8000000000,2.8750000000,11.0000000000,143.9375000000,image282.jpg,28255.9726460000
0.7450980544,18.0000000000,5,50.8680815000,-0.0983325000,67.8000000000,3.5625000000,10.8750000000,143.8750000000,image283.jpg,28323.0759790000
0.6666666865,9.0000000000,2,50.8680818333,-0.0983325000,67.8000000000,3.4375000000,9.6875000000,144.8750000000,image284.jpg,28455.4060830000
0.7450980544,7.0000000000,5,50.8680825000,-0.0983325000,67.8000000000,4.6875000000,10.4375000000,146.2500000000,image285.jpg,28523.4893640000
0.6666666865,6.0000000000,5,50.8680828333,-0.0983326667,67.8000000000,3.5625000000,7.5000000000,144.9375000000,image286.jpg,28655.2692080000
0.7529411912,-1.0000000000,5,50.8680835000,-0.0983326667,67.8000000000,2.4375000000,6.2500000000,145.6875000000,image287.jpg,28724.2013950000
0.7529411912,0.0000000000,5,50.8680841667,-0.0983326667,67.8000000000,1.5000000000,5.6250000000,145.7500000000,image288.jpg,28855.8979580000
0.6666666865,1.0000000000,5,50.8680848333,-0.0983328333,67.8000000000,1.5000000000,5.8125000000,145.6250000000,image289.jpg,28925.2823850000
0.7529411912,-1.0000000000,5,50.8680851667,-0.0983328333,67.8000000000,0.1875000000,3.5625000000,145.5625000000,image290.jpg,29057.4262910000
0.7529411912,-2.0000000000,5,50.8680858333,-0.0983328333,67.8000000000,0.5625000000,3.5625000000,145.0625000000,image291.jpg,29124.1915520000
0.7529411912,-7.0000000000,5,50.8680865000,-0.0983330000,67.8000000000,-0.9375000000,4.3750000000,144.8125000000,image292.jpg,29256.5332700000
0.7450980544,-7.0000000000,2,50.8680870000,-0.0983330000,67.8000000000,0.1875000000,5.1250000000,144.6875000000,image293.jpg,29324.2622290000
0.7529411912,-6.0000000000,2,50.8680875000,-0.0983333333,67.8000000000,-0.3125000000,6.0000000000,143.2500000000,image294.jpg,29455.7983220000
0.7294117808,-6.0000000000,5,50.8680883333,-0.0983333333,67.8000000000,-1.3125000000,7.2500000000,141.0625000000,image295.jpg,29523.7386870000
0.6745098233,0.0000000000,5,50.8680888333,-0.0983331667,67.8000000000,0.7500000000,7.5625000000,140.8125000000,image296.jpg,29655.6761350000
0.6901960969,0.0000000000,5,50.8680896667,-0.0983333333,67.8000000000,0.8125000000,7.6250000000,139.8125000000,image297.jpg,29723.4137910000
0.6745098233,-1.0000000000,5,50.8680898333,-0.0983335000,67.8000000000,2.6875000000,4.5625000000,139.8125000000,image298.jpg,29855.2993640000
0.7058823705,-1.0000000000,5,50.8680910000,-0.0983338333,67.8000000000,2.1875000000,4.8750000000,139.5625000000,image299.jpg,29923.4892080000
0.7058823705,-1.0000000000,5,50.8680913333,-0.0983338333,67.8000000000,-1.7500000000,4.4375000000,140.0000000000,image300.jpg,30055.4269160000
0.6745098233,1.0000000000,5,50.8680916667,-0.0983338333,67.8000000000,-2.1250000000,5.1875000000,139.8125000000,image301.jpg,30123.3945720000
0.7137255073,0.0000000000,5,50.8680921667,-0.0983336667,67.8000000000,-1.5000000000,4.5625000000,139.8750000000,image302.jpg,30256.2528010000
0.7137255073,0.0000000000,5,50.8680926667,-0.0983338333,67.8000000000,-1.7500000000,6.8125000000,139.6875000000,image303.jpg,30323.9380620000
0.6901960969,-1.0000000000,5,50.8680930000,-0.0983340000,67.8000000000,-2.5625000000,5.6250000000,139.9375000000,image304.jpg,30455.1627490000
0.7215686440,-1.0000000000,5,50.8680940000,-0.0983341667,67.8000000000,-1.5625000000,6.0000000000,138.5000000000,image305.jpg,30523.8164990000
0.7137255073,-6.0000000000,5,50.8680946667,-0.0983345000,67.8000000000,-2.6250000000,5.1875000000,138.5000000000,image306.jpg,30655.5526970000
0.7137255073,-15.0000000000,5,50.8680950000,-0.0983345000,67.8000000000,-0.8125000000,6.1250000000,137.8750000000,image307.jpg,30723.5776970000
0.6745098233,-20.0000000000,5,50.8680955000,-0.0983348333,67.8000000000,-1.6875000000,6.5625000000,136.6875000000,image308.jpg,30860.0562910000
0.6823529601,-22.0000000000,5,50.8680958333,-0.0983348333,67.8000000000,-3.0625000000,5.5000000000,135.5000000000,image309.jpg,30923.5416550000
0.6745098233,-18.0000000000,5,50.8680966667,-0.0983350000,67.8000000000,-0.2500000000,4.3750000000,132.3125000000,image310.jpg,31062.6764470000
0.7137255073,-5.0000000000,5,50.8680970000,-0.0983355000,67.8000000000,-0.9375000000,3.6250000000,130.3750000000,image311.jpg,31123.0225920000
0.7215686440,-1.0000000000,5,50.8680975000,-0.0983358333,67.8000000000,0.0000000000,4.3125000000,130.1250000000,image312.jpg,31258.5663950000
0.6745098233,2.0000000000,5,50.8680978333,-0.0983363333,67.8000000000,1.8125000000,3.3750000000,130.0625000000,image313.jpg,31322.6911860000
0.7058823705,0.0000000000,5,50.8680981667,-0.0983366667,67.8000000000,0.3750000000,3.6250000000,128.1875000000,image314.jpg,31458.8649360000
0.7058823705,0.0000000000,5,50.8680990000,-0.0983370000,67.8000000000,-1.3125000000,3.7500000000,128.8750000000,image315.jpg,31525.6195190000
0.6745098233,0.0000000000,5,50.8680996667,-0.0983371667,67.8000000000,0.8125000000,6.1875000000,128.6875000000,image316.jpg,31659.4458740000
0.7058823705,0.0000000000,5,50.8680998333,-0.0983376667,67.8000000000,0.0000000000,5.3750000000,129.8750000000,image317.jpg,31723.7987380000
0.7215686440,0.0000000000,5,50.8681006667,-0.0983380000,67.8000000000,-0.3750000000,5.4375000000,129.3750000000,image318.jpg,31859.5369150000
0.6980392337,0.0000000000,5,50.8681008333,-0.0983381667,67.8000000000,2.3750000000,5.6875000000,129.3750000000,image319.jpg,31926.7718630000
0.6980392337,1.0000000000,5,50.8681013333,-0.0983386667,67.8000000000,4.1250000000,7.9375000000,130.2500000000,image320.jpg,32064.2247800000
0.6588235497,0.0000000000,5,50.8681020000,-0.0983390000,67.7000000000,4.0000000000,9.4375000000,129.3750000000,image321.jpg,32127.7524360000
0.7058823705,0.0000000000,5,50.8681023333,-0.0983391667,67.7000000000,4.2500000000,5.5625000000,128.6250000000,image322.jpg,32259.2517590000
0.7058823705,0.0000000000,5,50.8681028333,-0.0983396667,67.7000000000,1.0000000000,4.1875000000,128.5625000000,image323.jpg,32327.8190500000
0.7137255073,0.0000000000,5,50.8681033333,-0.0983398333,67.7000000000,-2.0625000000,6.5625000000,129.0000000000,image324.jpg,32459.2597790000
0.7137255073,1.0000000000,5,50.8681040000,-0.0983398333,67.8000000000,-1.0625000000,5.7500000000,130.1875000000,image325.jpg,32527.6449880000
0.6980392337,0.0000000000,5,50.8681045000,-0.0983405000,67.8000000000,0.0000000000,3.1875000000,130.8750000000,image326.jpg,32658.6773310000
0.6980392337,0.0000000000,5,50.8681050000,-0.0983406667,67.8000000000,3.1250000000,2.7500000000,131.1250000000,image327.jpg,32727.8761860000
0.6509804130,0.0000000000,5,50.8681058333,-0.0983415000,67.8000000000,4.5000000000,7.7500000000,128.1875000000,image328.jpg,32859.0747270000
0.7215686440,0.0000000000,5,50.8681060000,-0.0983415000,67.8000000000,1.0625000000,5.8750000000,129.1875000000,image329.jpg,32927.5188940000
0.7058823705,0.0000000000,5,50.8681071667,-0.0983418333,67.8000000000,-1.5000000000,7.6875000000,128.6250000000,image330.jpg,33058.7245190000
0.7058823705,0.0000000000,5,50.8681076667,-0.0983418333,67.8000000000,-0.5625000000,7.5625000000,128.4375000000,image331.jpg,33127.1334250000
0.7058823705,1.0000000000,5,50.8681080000,-0.0983421667,67.8000000000,4.5625000000,5.5625000000,129.3125000000,image332.jpg,33259.2498830000
0.6431372762,0.0000000000,5,50.8681086667,-0.0983430000,67.8000000000,6.3125000000,3.6250000000,129.0000000000,image333.jpg,33326.9808210000
0.7058823705,0.0000000000,5,50.8681091667,-0.0983438333,67.8000000000,3.6875000000,3.8125000000,128.0000000000,image334.jpg,33458.8407690000
0.7058823705,0.0000000000,5,50.8681096667,-0.0983438333,67.8000000000,2.7500000000,2.6875000000,128.1250000000,image335.jpg,33526.9838420000
0.7058823705,0.0000000000,5,50.8681103333,-0.0983440000,67.8000000000,2.5625000000,3.5000000000,128.0000000000,image336.jpg,33659.0345710000
0.7058823705,1.0000000000,5,50.8681108333,-0.0983445000,67.8000000000,4.0000000000,4.0000000000,128.0000000000,image337.jpg,33727.5231120000
0.7137255073,1.0000000000,5,50.8681113333,-0.0983448333,67.8000000000,5.3125000000,5.7500000000,127.0625000000,image338.jpg,33859.0676960000
0.7137255073,1.0000000000,5,50.8681118333,-0.0983458333,67.8000000000,4.2500000000,5.0625000000,127.5625000000,image339.jpg,33928.7060290000
0.6666666865,2.0000000000,5,50.8681123333,-0.0983455000,67.8000000000,3.6875000000,4.8750000000,127.3125000000,image340.jpg,34059.8241020000
0.7058823705,0.0000000000,5,50.8681130000,-0.0983461667,67.8000000000,3.2500000000,5.2500000000,127.0625000000,image341.jpg,34128.0947790000
0.7058823705,1.0000000000,5,50.8681135000,-0.0983466667,67.8000000000,2.0000000000,5.7500000000,126.5625000000,image342.jpg,34259.9659250000
0.7058823705,3.0000000000,5,50.8681140000,-0.0983470000,67.8000000000,2.0625000000,6.2500000000,126.8750000000,image343.jpg,34326.8586850000
0.7058823705,5.0000000000,5,50.8681143333,-0.0983471667,67.8000000000,3.3125000000,6.5625000000,127.1875000000,image344.jpg,34460.3208200000
0.6274510026,4.0000000000,5,50.8681146667,-0.0983478333,67.8000000000,2.4375000000,5.6250000000,126.5000000000,image345.jpg,34527.4323830000
0.7137255073,4.0000000000,5,50.8681155000,-0.0983481667,67.8000000000,3.5000000000,4.6875000000,125.1875000000,image346.jpg,34664.0273310000
0.7058823705,2.0000000000,5,50.8681158333,-0.0983486667,67.8000000000,2.0625000000,5.9375000000,125.1875000000,image347.jpg,34727.1803520000
0.7058823705,3.0000000000,5,50.8681165000,-0.0983490000,67.8000000000,0.0000000000,4.0000000000,125.3125000000,image348.jpg,34863.8108200000
0.7058823705,4.0000000000,5,50.8681171667,-0.0983491667,67.8000000000,0.9375000000,4.6875000000,125.6875000000,image349.jpg,34927.1045700000
0.7058823705,10.0000000000,5,50.8681176667,-0.0983498333,67.8000000000,1.0625000000,5.9375000000,125.6875000000,image350.jpg,35063.5699870000
0.7137255073,10.0000000000,5,50.8681181667,-0.0983503333,67.8000000000,1.8750000000,5.0000000000,126.6250000000,image351.jpg,35127.2335280000
0.6274510026,8.0000000000,5,50.8681188333,-0.0983505000,67.8000000000,1.0000000000,8.3125000000,126.6875000000,image352.jpg,35263.8084240000
0.7058823705,6.0000000000,5,50.8681191667,-0.0983508333,67.8000000000,1.3750000000,8.3125000000,126.8125000000,image353.jpg,35326.8451430000
0.7058823705,3.0000000000,2,50.8681196667,-0.0983511667,67.8000000000,-0.2500000000,9.4375000000,127.0625000000,image354.jpg,35465.2348820000
0.7137255073,4.0000000000,5,50.8681201667,-0.0983516667,67.8000000000,-1.0625000000,7.9375000000,127.7500000000,image355.jpg,35526.9306120000
0.7137255073,2.0000000000,5,50.8681206667,-0.0983520000,67.8000000000,0.3125000000,10.0625000000,127.9375000000,image356.jpg,35663.3130600000
0.6901960969,0.0000000000,5,50.8681211667,-0.0983521667,67.8000000000,0.8125000000,8.4375000000,127.5000000000,image357.jpg,35727.2429550000
0.7137255073,0.0000000000,5,50.8681216667,-0.0983523333,67.8000000000,-3.6875000000,8.6875000000,127.1875000000,image358.jpg,35863.1204550000
0.7058823705,0.0000000000,5,50.8681223333,-0.0983521667,67.8000000000,-3.9375000000,9.2500000000,126.9375000000,image359.jpg,35931.4385800000
0.6745098233,0.0000000000,5,50.8681225000,-0.0983525000,67.8000000000,-0.7500000000,7.5625000000,126.4375000000,image360.jpg,36064.7138410000
0.7058823705,0.0000000000,2,50.8681230000,-0.0983530000,67.8000000000,-1.0625000000,7.4375000000,126.1875000000,image361.jpg,36130.7033720000
0.7058823705,0.0000000000,2,50.8681236667,-0.0983538333,67.8000000000,0.6875000000,6.9375000000,126.3125000000,image362.jpg,36263.8410280000
0.6901960969,0.0000000000,2,50.8681241667,-0.0983543333,67.8000000000,1.7500000000,6.4375000000,125.8125000000,image363.jpg,36331.0471740000
0.6823529601,0.0000000000,2,50.8681245000,-0.0983546667,67.8000000000,0.5625000000,5.8750000000,124.5000000000,image364.jpg,36463.6402990000
0.6823529601,-1.0000000000,5,50.8681251667,-0.0983551667,67.8000000000,-0.8750000000,7.5000000000,124.8125000000,image365.jpg,36532.8339970000
0.7058823705,0.0000000000,5,50.8681255000,-0.0983551667,67.8000000000,2.1250000000,8.5625000000,125.3750000000,image366.jpg,36663.9584240000
0.7058823705,2.0000000000,2,50.8681260000,-0.0983560000,67.8000000000,1.3125000000,10.3125000000,124.8125000000,image367.jpg,36730.5672260000
0.7215686440,0.0000000000,2,50.8681265000,-0.0983563333,67.8000000000,4.4375000000,9.3750000000,125.5625000000,image368.jpg,36864.1793610000
0.6745098233,0.0000000000,2,50.8681268333,-0.0983566667,67.8000000000,4.3125000000,9.4375000000,125.1875000000,image369.jpg,36930.9456630000
0.7215686440,0.0000000000,2,50.8681271667,-0.0983571667,67.9000000000,2.5625000000,8.0000000000,124.0000000000,image370.jpg,37063.5163400000
0.7058823705,-1.0000000000,2,50.8681275000,-0.0983575000,67.9000000000,1.0625000000,7.5625000000,124.3750000000,image371.jpg,37131.1745170000
0.6666666865,0.0000000000,2,50.8681278333,-0.0983578333,67.9000000000,1.8750000000,9.6250000000,123.9375000000,image372.jpg,37262.9209760000
0.6980392337,0.0000000000,2,50.8681280000,-0.0983581667,67.9000000000,0.6875000000,9.6250000000,124.1875000000,image373.jpg,37331.4621730000
0.7058823705,1.0000000000,2,50.8681285000,-0.0983583333,67.9000000000,0.4375000000,8.0625000000,123.5625000000,image374.jpg,37462.8284750000
0.6666666865,3.0000000000,5,50.8681290000,-0.0983591667,67.9000000000,0.1250000000,7.5000000000,123.6875000000,image375.jpg,37532.2600900000
0.6980392337,12.0000000000,2,50.8681295000,-0.0983598333,68.0000000000,-0.1250000000,8.2500000000,123.2500000000,image376.jpg,37663.4212360000
0.6980392337,10.0000000000,2,50.8681301667,-0.0983603333,68.0000000000,0.6250000000,8.0625000000,123.5000000000,image377.jpg,37731.8776420000
0.7058823705,0.0000000000,2,50.8681308333,-0.0983605000,67.9000000000,1.7500000000,5.7500000000,123.9375000000,image378.jpg,37863.8206630000
0.7058823705,1.0000000000,2,50.8681311667,-0.0983610000,67.9000000000,-0.3125000000,7.6250000000,123.0625000000,image379.jpg,37935.1660790000
0.7058823705,-3.0000000000,2,50.8681316667,-0.0983611667,67.9000000000,-2.5625000000,8.6875000000,123.1875000000,image380.jpg,38063.7720690000
0.7058823705,-2.0000000000,2,50.8681318333,-0.0983613333,68.0000000000,-2.8750000000,8.7500000000,123.1250000000,image381.jpg,38132.0101940000
0.7058823705,0.0000000000,2,50.8681323333,-0.0983616667,68.0000000000,-1.7500000000,7.8125000000,122.6250000000,image382.jpg,38263.6885790000
0.7058823705,0.0000000000,2,50.8681328333,-0.0983621667,68.0000000000,-1.0625000000,7.9375000000,122.2500000000,image383.jpg,38333.2791000000
0.6274510026,0.0000000000,2,50.8681331667,-0.0983626667,68.0000000000,0.0000000000,7.2500000000,121.7500000000,image384.jpg,38464.1219650000
0.7294117808,0.0000000000,5,50.8681336667,-0.0983631667,68.0000000000,-2.1875000000,6.4375000000,120.4375000000,image385.jpg,38531.0023810000
0.7058823705,-6.0000000000,5,50.8681341667,-0.0983635000,68.0000000000,-2.6250000000,6.6250000000,120.4375000000,image386.jpg,38667.9663920000
0.6431372762,-7.0000000000,5,50.8681345000,-0.0983636667,68.0000000000,0.2500000000,9.0000000000,121.0625000000,image387.jpg,38732.1631620000
0.6980392337,-8.0000000000,5,50.8681350000,-0.0983638333,68.0000000000,-0.6875000000,6.9375000000,119.6250000000,image388.jpg,38867.5258190000
0.6980392337,-6.0000000000,5,50.8681353333,-0.0983645000,68.0000000000,-0.6250000000,7.1875000000,119.2500000000,image389.jpg,38931.4866520000
0.6980392337,-1.0000000000,5,50.8681356667,-0.0983646667,68.0000000000,-0.3750000000,7.3750000000,117.0000000000,image390.jpg,39067.6253500000
0.6980392337,1.0000000000,5,50.8681360000,-0.0983651667,68.0000000000,-1.3750000000,7.8125000000,116.6875000000,image391.jpg,39131.7760270000
0.6980392337,1.0000000000,5,50.8681363333,-0.0983656667,68.0000000000,-1.0000000000,7.2500000000,117.1875000000,image392.jpg,39266.6817560000
0.7058823705,1.0000000000,5,50.8681368333,-0.0983660000,68.1000000000,0.4375000000,7.4375000000,117.1875000000,image393.jpg,39333.2787870000
0.7058823705,17.0000000000,5,50.8681373333,-0.0983663333,68.1000000000,0.6875000000,8.6250000000,117.0625000000,image394.jpg,39467.2211830000
0.6980392337,20.0000000000,5,50.8681375000,-0.0983668333,68.1000000000,-0.4375000000,7.5000000000,117.8750000000,image395.jpg,39532.1715480000
0.6745098233,19.0000000000,5,50.8681383333,-0.0983673333,68.1000000000,1.8750000000,8.2500000000,119.3750000000,image396.jpg,39667.3582140000
0.7137255073,12.0000000000,5,50.8681388333,-0.0983676667,68.1000000000,1.0625000000,8.6875000000,119.0000000000,image397.jpg,39731.8581100000
0.7137255073,-2.0000000000,5,50.8681390000,-0.0983681667,68.1000000000,-2.4375000000,8.1875000000,120.5625000000,image398.jpg,39867.6189950000
0.6745098233,-1.0000000000,5,50.8681396667,-0.0983680000,68.1000000000,-1.1250000000,7.9375000000,121.8750000000,image399.jpg,39937.0215470000
0.7215686440,-3.0000000000,5,50.8681401667,-0.0983686667,68.2000000000,0.2500000000,7.3125000000,121.8125000000,image400.jpg,40067.1701410000
0.6588235497,-5.0000000000,5,50.8681405000,-0.0983693333,68.2000000000,0.1875000000,8.4375000000,121.5625000000,image401.jpg,40135.8785270000
0.7058823705,-3.0000000000,2,50.8681408333,-0.0983696667,68.2000000000,2.5000000000,7.9375000000,121.1250000000,image402.jpg,40266.9468600000
0.7058823705,-1.0000000000,2,50.8681413333,-0.0983698333,68.2000000000,2.7500000000,7.3750000000,120.3125000000,image403.jpg,40335.6590470000
0.7058823705,-4.0000000000,2,50.8681415000,-0.0983706667,68.2000000000,1.8750000000,8.8750000000,120.0000000000,image404.jpg,40467.4959740000
0.7058823705,-5.0000000000,5,50.8681420000,-0.0983708333,68.2000000000,2.3750000000,9.5625000000,119.6875000000,image405.jpg,40535.0247240000
0.7058823705,-3.0000000000,5,50.8681423333,-0.0983711667,68.2000000000,2.3125000000,8.0000000000,119.6250000000,image406.jpg,40667.2170680000
0.7137255073,-6.0000000000,5,50.8681426667,-0.0983720000,68.2000000000,2.0625000000,7.6250000000,119.1250000000,image407.jpg,40735.2374850000
0.6352941394,-11.0000000000,5,50.8681431667,-0.0983725000,68.2000000000,0.8125000000,6.4375000000,118.5000000000,image408.jpg,40866.7133700000
0.7215686440,-14.0000000000,5,50.8681436667,-0.0983728333,68.2000000000,0.2500000000,5.5625000000,117.8125000000,image409.jpg,40934.9723800000
0.7215686440,-10.0000000000,5,50.8681445000,-0.0983738333,68.2000000000,1.3125000000,3.8125000000,118.0000000000,image410.jpg,41066.9411820000
0.6352941394,-8.0000000000,5,50.8681446667,-0.0983738333,68.2000000000,0.9375000000,3.6250000000,116.5625000000,image411.jpg,41135.9972240000
0.7294117808,-6.0000000000,5,50.8681451667,-0.0983741667,68.3000000000,0.2500000000,5.5000000000,114.5000000000,image412.jpg,41267.2723800000
0.7058823705,-3.0000000000,5,50.8681455000,-0.0983750000,68.3000000000,0.6875000000,5.6875000000,113.4375000000,image413.jpg,41336.0469120000
0.7294117808,0.0000000000,5,50.8681458333,-0.0983755000,68.2000000000,1.0000000000,5.4375000000,112.5000000000,image414.jpg,41466.6575890000
0.7294117808,0.0000000000,5,50.8681463333,-0.0983760000,68.2000000000,0.8750000000,6.0000000000,112.4375000000,image415.jpg,41537.2225360000
0.7294117808,0.0000000000,5,50.8681465000,-0.0983765000,68.3000000000,2.5000000000,5.5625000000,112.6250000000,image416.jpg,41668.3827970000
0.7215686440,0.0000000000,5,50.8681468333,-0.0983770000,68.3000000000,3.1875000000,6.0625000000,112.0000000000,image417.jpg,41736.0701410000
0.7372549176,0.0000000000,5,50.8681473333,-0.0983776667,68.3000000000,2.3125000000,7.5625000000,110.6250000000,image418.jpg,41866.8687340000
0.6823529601,-1.0000000000,5,50.8681478333,-0.0983780000,68.3000000000,1.1250000000,6.1250000000,110.6875000000,image419.jpg,41935.8596200000
0.6901960969,-2.0000000000,5,50.8681483333,-0.0983786667,68.3000000000,1.5000000000,7.8125000000,110.0000000000,image420.jpg,42067.1072240000
0.7215686440,-8.0000000000,2,50.8681485000,-0.0983791667,68.3000000000,0.1250000000,7.8125000000,109.8750000000,image421.jpg,42135.0038380000
0.7215686440,-7.0000000000,2,50.8681490000,-0.0983800000,68.3000000000,0.3125000000,9.4375000000,109.0000000000,image422.jpg,42266.8745670000
0.6901960969,-4.0000000000,2,50.8681496667,-0.0983800000,68.3000000000,-0.1875000000,7.9375000000,108.3125000000,image423.jpg,42336.2787340000
