gps quality,lat,lon,altitude,roll,pitch,yaw,image name,timestamp
5,50.8651125000,-0.0919561667,75.2000000000,1.3125000000,-5.2500000000,358.0625000000,image0.jpg,3.0006770000
5,50.8651098333,-0.0919530000,75.0000000000,1.0000000000,-5.2500000000,358.0625000000,image1.jpg,201.5143750000
5,50.8651095000,-0.0919521667,75.0000000000,2.1875000000,-5.1250000000,357.1875000000,image2.jpg,402.1120310000
5,50.8651088333,-0.0919511667,75.0000000000,1.7500000000,-4.1875000000,358.0625000000,image3.jpg,602.8565100000
5,50.8651081667,-0.0919498333,74.9000000000,1.7500000000,-5.5000000000,357.9375000000,image4.jpg,802.7856250000
5,50.8651075000,-0.0919491667,74.9000000000,2.2500000000,-5.5625000000,358.4375000000,image5.jpg,1002.9964060000
5,50.8651070000,-0.0919480000,74.9000000000,2.2500000000,-5.6875000000,358.3125000000,image6.jpg,1202.2668750000
5,50.8651063333,-0.0919466667,74.9000000000,2.1250000000,-4.9375000000,358.0000000000,image7.jpg,1402.1568750000
5,50.8651055000,-0.0919456667,74.9000000000,1.7500000000,-5.5625000000,358.1250000000,image8.jpg,1602.3031770000
5,50.8651046667,-0.0919441667,74.9000000000,1.6250000000,-6.0625000000,357.5000000000,image9.jpg,1803.0551560000
5,50.8651038333,-0.0919430000,74.8000000000,0.7500000000,-7.0000000000,357.5625000000,image10.jpg,2003.2530200000
5,50.8651030000,-0.0919416667,74.8000000000,0.8125000000,-5.8750000000,357.6250000000,image11.jpg,2203.4835930000
5,50.8651023333,-0.0919405000,74.8000000000,1.3125000000,-5.6250000000,357.1250000000,image12.jpg,2403.6020830000
5,50.8651016667,-0.0919388333,74.8000000000,0.6250000000,-4.3750000000,357.0625000000,image13.jpg,2602.6065100000
5,50.8651010000,-0.0919375000,74.7000000000,0.5625000000,-5.4375000000,356.6875000000,image14.jpg,2802.6306240000
5,50.8651003333,-0.0919358333,74.7000000000,1.4375000000,-4.1875000000,356.5625000000,image15.jpg,3002.8963010000
5,50.8650995000,-0.0919346667,74.7000000000,0.8750000000,-3.8125000000,356.4375000000,image16.jpg,3202.9432800000
5,50.8650988333,-0.0919331667,74.7000000000,0.5625000000,-3.9375000000,356.0000000000,image17.jpg,3403.0118740000
5,50.8650981667,-0.0919318333,74.6000000000,1.6250000000,-4.1250000000,356.2500000000,image18.jpg,3602.8295300000
5,50.8650975000,-0.0919306667,74.6000000000,1.0000000000,-3.9375000000,355.9375000000,image19.jpg,3803.0216650000
5,50.8650968333,-0.0919293333,74.6000000000,1.6250000000,-3.9375000000,355.0625000000,image20.jpg,4003.1503110000
5,50.8650961667,-0.0919278333,74.6000000000,1.1250000000,-4.1250000000,355.3125000000,image21.jpg,4203.2357280000
5,50.8650955000,-0.0919266667,74.6000000000,0.3125000000,-4.7500000000,355.3125000000,image22.jpg,4403.5584360000
5,50.8650945000,-0.0919250000,74.6000000000,1.5000000000,-5.0625000000,356.6250000000,image23.jpg,4603.4205710000
5,50.8650935000,-0.0919231667,74.5000000000,1.0000000000,-5.1875000000,358.8750000000,image24.jpg,4803.3917170000
5,50.8650923333,-0.0919216667,74.5000000000,1.2500000000,-4.6250000000,358.6250000000,image25.jpg,5003.5448940000
5,50.8650916667,-0.0919200000,74.5000000000,2.1875000000,-3.6875000000,358.3125000000,image26.jpg,5203.6374460000
5,50.8650905000,-0.0919183333,74.5000000000,0.9375000000,-3.8750000000,358.0625000000,image27.jpg,5403.6341650000
5,50.8650896667,-0.0919170000,74.4000000000,0.6250000000,-3.2500000000,358.6875000000,image28.jpg,5604.1432790000
5,50.8650888333,-0.0919148333,74.4000000000,-0.9375000000,-4.0625000000,358.0625000000,image29.jpg,5804.9872370000
5,50.8650875000,-0.0919135000,74.4000000000,0.4375000000,-3.8125000000,357.3125000000,image30.jpg,6004.8931230000
5,50.8650866667,-0.0919121667,74.4000000000,0.8750000000,-3.1875000000,357.2500000000,image31.jpg,6205.1313520000
5,50.8650856667,-0.0919105000,74.4000000000,1.2500000000,-3.5625000000,358.3750000000,image32.jpg,6405.1967690000
5,50.8650848333,-0.0919088333,74.4000000000,2.1875000000,-4.0625000000,1.1250000000,image33.jpg,6604.1367680000
5,50.8650836667,-0.0919073333,74.3000000000,0.0000000000,-4.6250000000,4.8750000000,image34.jpg,6804.2901020000
5,50.8650825000,-0.0919058333,74.3000000000,2.7500000000,-3.3750000000,7.3750000000,image35.jpg,7004.6142680000
5,50.8650813333,-0.0919046667,74.3000000000,0.6250000000,-1.6875000000,8.4375000000,image36.jpg,7205.3406220000
5,50.8650801667,-0.0919031667,74.3000000000,2.6250000000,-3.7500000000,7.4375000000,image37.jpg,7405.4221330000
5,50.8650790000,-0.0919020000,74.3000000000,2.2500000000,-4.5625000000,7.0625000000,image38.jpg,7605.4249970000
5,50.8650780000,-0.0919003333,74.3000000000,3.7500000000,-5.0625000000,6.8125000000,image39.jpg,7805.0564550000
5,50.8650766667,-0.0918990000,74.2000000000,1.0625000000,-2.8125000000,6.8750000000,image40.jpg,8004.8129140000
5,50.8650756667,-0.0918973333,74.2000000000,1.6875000000,-1.2500000000,7.4375000000,image41.jpg,8204.7408820000
5,50.8650745000,-0.0918960000,74.2000000000,2.2500000000,-3.5625000000,8.0625000000,image42.jpg,8405.4356740000
5,50.8650731667,-0.0918946667,74.2000000000,0.2500000000,-5.0000000000,10.5625000000,image43.jpg,8605.6807780000
5,50.8650718333,-0.0918930000,74.2000000000,3.0625000000,-4.9375000000,12.6875000000,image44.jpg,8805.9277050000
5,50.8650705000,-0.0918920000,74.2000000000,1.0625000000,-4.3125000000,14.8125000000,image45.jpg,9005.8186430000
5,50.8650693333,-0.0918905000,74.1000000000,4.3125000000,-2.3750000000,16.1250000000,image46.jpg,9204.9615590000
5,50.8650681667,-0.0918893333,74.1000000000,2.1875000000,-2.1875000000,17.5000000000,image47.jpg,9405.0024970000
5,50.8650665000,-0.0918886667,74.1000000000,4.0000000000,-5.3125000000,19.0000000000,image48.jpg,9605.3959860000
5,50.8650650000,-0.0918871667,74.1000000000,6.2500000000,-5.9375000000,20.2500000000,image49.jpg,9805.1748920000
5,50.8650636667,-0.0918855000,74.1000000000,7.7500000000,-6.6875000000,22.4375000000,image50.jpg,10005.2388500000
5,50.8650620000,-0.0918843333,74.1000000000,10.0000000000,-3.8750000000,24.3750000000,image51.jpg,10205.3137980000
5,50.8650605000,-0.0918836667,74.1000000000,9.2500000000,-3.3125000000,25.4375000000,image52.jpg,10405.3837980000
5,50.8650588333,-0.0918826667,74.0000000000,9.6250000000,-6.1250000000,27.1250000000,image53.jpg,10605.4699960000
5,50.8650573333,-0.0918818333,74.0000000000,6.6250000000,-7.1250000000,26.6875000000,image54.jpg,10805.5267670000
5,50.8650556667,-0.0918813333,74.0000000000,9.1250000000,-6.2500000000,28.2500000000,image55.jpg,11005.5383290000
5,50.8650541667,-0.0918806667,74.0000000000,8.0000000000,-1.6250000000,30.1875000000,image56.jpg,11205.6457770000
5,50.8650526667,-0.0918798333,74.0000000000,11.4375000000,-4.6250000000,31.6875000000,image57.jpg,11405.7459330000
5,50.8650511667,-0.0918790000,73.9000000000,9.2500000000,-5.9375000000,32.9375000000,image58.jpg,11605.8135890000
5,50.8650495000,-0.0918786667,73.9000000000,9.9375000000,-6.8125000000,35.3125000000,image59.jpg,11805.9208290000
5,50.8650476667,-0.0918786667,73.9000000000,7.6875000000,-4.4375000000,37.1250000000,image60.jpg,12005.9523390000
5,50.8650461667,-0.0918775000,73.8000000000,6.8750000000,-3.5000000000,37.8750000000,image61.jpg,12206.5194750000
5,50.8650446667,-0.0918775000,73.9000000000,7.6250000000,-4.6875000000,39.2500000000,image62.jpg,12407.0567140000
5,50.8650430000,-0.0918775000,73.9000000000,6.8750000000,-5.3125000000,40.3125000000,image63.jpg,12607.2502040000
2,50.8650415000,-0.0918770000,73.8000000000,6.4375000000,-3.3750000000,41.5625000000,image64.jpg,12807.4259850000
2,50.8650400000,-0.0918765000,73.8000000000,5.7500000000,-3.6250000000,43.1875000000,image65.jpg,13007.0985890000
2,50.8650388333,-0.0918776667,73.8000000000,8.2500000000,-3.0625000000,44.5000000000,image66.jpg,13206.4029120000
5,50.8650370000,-0.0918776667,73.8000000000,4.6250000000,-3.3750000000,44.6250000000,image67.jpg,13406.4630680000
5,50.8650351667,-0.0918781667,73.8000000000,9.2500000000,-7.3750000000,47.5625000000,image68.jpg,13607.4191100000
5,50.8650338333,-0.0918781667,73.8000000000,4.7500000000,-5.6875000000,49.5000000000,image69.jpg,13807.5842140000
5,50.8650318333,-0.0918780000,73.8000000000,8.1875000000,-4.6875000000,49.7500000000,image70.jpg,14007.5711930000
5,50.8650301667,-0.0918788333,73.8000000000,6.3125000000,-4.6875000000,45.3125000000,image71.jpg,14207.7582240000
5,50.8650286667,-0.0918780000,73.8000000000,5.0000000000,-4.0000000000,40.0000000000,image72.jpg,14406.7795260000
5,50.8650270000,-0.0918773333,73.7000000000,5.1875000000,-5.0625000000,35.7500000000,image73.jpg,14606.9146300000
2,50.8650250000,-0.0918768333,73.7000000000,4.3750000000,-5.7500000000,35.1250000000,image74.jpg,14807.2355670000
2,50.8650231667,-0.0918756667,73.6000000000,3.5000000000,-4.6875000000,36.6875000000,image75.jpg,15007.9445780000
2,50.8650218333,-0.0918751667,73.6000000000,3.6250000000,-5.0625000000,38.1250000000,image76.jpg,15208.4458280000
5,50.8650198333,-0.0918748333,73.5000000000,3.1875000000,-4.4375000000,37.3125000000,image77.jpg,15408.1112440000
5,50.8650183333,-0.0918743333,73.5000000000,1.4375000000,-4.7500000000,35.8125000000,image78.jpg,15607.6098380000
5,50.8650166667,-0.0918738333,73.5000000000,1.7500000000,-5.0625000000,34.9375000000,image79.jpg,15807.2924420000
5,50.8650148333,-0.0918735000,73.5000000000,0.0000000000,-5.4375000000,34.7500000000,image80.jpg,16007.3525460000
5,50.8650126667,-0.0918728333,73.4000000000,0.1875000000,-4.6250000000,33.3750000000,image81.jpg,16207.6773900000
5,50.8650110000,-0.0918721667,73.4000000000,-0.3125000000,-4.3125000000,32.6250000000,image82.jpg,16407.5138480000
5,50.8650090000,-0.0918716667,73.3000000000,-0.9375000000,-4.7500000000,32.0625000000,image83.jpg,16607.5810350000
2,50.8650070000,-0.0918710000,73.3000000000,-2.0625000000,-3.5625000000,32.1875000000,image84.jpg,16807.6955670000
2,50.8650056667,-0.0918698333,73.3000000000,-1.8750000000,-4.9375000000,34.6875000000,image85.jpg,17007.7029100000
2,50.8650040000,-0.0918693333,73.2000000000,0.0000000000,-5.3750000000,34.3125000000,image86.jpg,17207.8159830000
5,50.8650023333,-0.0918690000,73.3000000000,-2.0000000000,-3.5000000000,33.6250000000,image87.jpg,17408.0555660000
5,50.8650006667,-0.0918686667,73.3000000000,-0.6875000000,-5.3125000000,33.5000000000,image88.jpg,17607.9387430000
5,50.8649988333,-0.0918685000,73.3000000000,-1.7500000000,-5.0625000000,33.3750000000,image89.jpg,17807.9973890000
2,50.8649970000,-0.0918675000,73.3000000000,-0.9375000000,-4.9375000000,33.0000000000,image90.jpg,18008.0137950000
2,50.8649956667,-0.0918663333,73.3000000000,-0.5625000000,-5.2500000000,33.2500000000,image91.jpg,18208.0957220000
2,50.8649935000,-0.0918663333,73.2000000000,-0.4375000000,-5.4375000000,32.6250000000,image92.jpg,18408.1495240000
2,50.8649920000,-0.0918650000,73.2000000000,0.0000000000,-5.3750000000,32.3750000000,image93.jpg,18608.2816600000
2,50.8649901667,-0.0918648333,73.2000000000,-0.3125000000,-6.3750000000,32.8125000000,image94.jpg,18809.3454620000
2,50.8649886667,-0.0918646667,73.2000000000,-0.9375000000,-5.8750000000,33.4375000000,image95.jpg,19009.2691070000
2,50.8649868333,-0.0918645000,73.3000000000,-0.8125000000,-5.1875000000,32.8750000000,image96.jpg,19209.3727530000
5,50.8649846667,-0.0918636667,73.2000000000,-0.6250000000,-5.1250000000,32.1250000000,image97.jpg,19409.8304610000
5,50.8649830000,-0.0918630000,73.2000000000,-0.3125000000,-4.0625000000,32.4375000000,image98.jpg,19608.5598360000
5,50.8649813333,-0.0918616667,73.2000000000,1.3750000000,-4.3750000000,31.6875000000,image99.jpg,19808.6233260000
2,50.8649801667,-0.0918603333,73.2000000000,1.1250000000,-4.2500000000,31.6875000000,image100.jpg,20009.0652010000
2,50.8649786667,-0.0918595000,73.1000000000,1.3750000000,-4.1250000000,31.0625000000,image101.jpg,20209.7529090000
5,50.8649761667,-0.0918605000,73.2000000000,0.6875000000,-4.1250000000,30.5000000000,image102.jpg,20409.7711380000
5,50.8649741667,-0.0918606667,73.3000000000,2.0000000000,-3.0625000000,30.5625000000,image103.jpg,20609.8719190000
5,50.8649716667,-0.0918601667,73.2000000000,0.6875000000,-2.8750000000,31.4375000000,image104.jpg,20809.3948360000
5,50.8649701667,-0.0918595000,73.3000000000,0.6875000000,-3.8750000000,30.8750000000,image105.jpg,21009.0697840000
5,50.8649683333,-0.0918586667,73.2000000000,-0.7500000000,-3.8125000000,30.8125000000,image106.jpg,21209.1088460000
5,50.8649660000,-0.0918586667,73.2000000000,-0.1250000000,-3.9375000000,32.0000000000,image107.jpg,21409.9299920000
5,50.8649641667,-0.0918581667,73.2000000000,-0.0625000000,-4.0625000000,33.6875000000,image108.jpg,21610.1740540000
5,50.8649623333,-0.0918578333,73.2000000000,0.5625000000,-4.5625000000,32.3750000000,image109.jpg,21810.2601480000
5,50.8649605000,-0.0918568333,73.2000000000,-0.0625000000,-4.6875000000,30.8750000000,image110.jpg,22010.4534290000
5,50.8649590000,-0.0918558333,73.2000000000,0.8750000000,-4.5625000000,28.9375000000,image111.jpg,22209.5909810000
5,50.8649573333,-0.0918553333,73.2000000000,0.5625000000,-4.0625000000,27.6875000000,image112.jpg,22409.5011370000
5,50.8649556667,-0.0918546667,73.2000000000,-1.5625000000,-4.0000000000,26.7500000000,image113.jpg,22609.8887940000
5,50.8649540000,-0.0918533333,73.2000000000,-0.2500000000,-5.0625000000,30.5625000000,image114.jpg,22809.6616580000
5,50.8649526667,-0.0918531667,73.2000000000,-2.3750000000,-4.6250000000,33.3125000000,image115.jpg,23009.7362410000
2,50.8649516667,-0.0918523333,73.2000000000,-1.6250000000,-3.8125000000,32.3750000000,image116.jpg,23209.8683250000
5,50.8649506667,-0.0918513333,73.2000000000,-2.9375000000,-4.2500000000,34.0000000000,image117.jpg,23409.9121790000
5,50.8649493333,-0.0918505000,73.3000000000,-3.1875000000,-2.6875000000,32.1250000000,image118.jpg,23609.9660330000
5,50.8649478333,-0.0918500000,73.3000000000,-3.1875000000,-8.0000000000,30.8750000000,image119.jpg,23810.0994180000
2,50.8649465000,-0.0918500000,73.3000000000,-2.0625000000,-5.3125000000,28.0000000000,image120.jpg,24010.1081160000
2,50.8649455000,-0.0918493333,73.3000000000,-0.1250000000,-3.5625000000,28.0000000000,image121.jpg,24210.1976990000
2,50.8649440000,-0.0918481667,73.3000000000,0.0625000000,-2.6875000000,27.0625000000,image122.jpg,24410.3940530000
2,50.8649441667,-0.0918475000,73.4000000000,-0.1250000000,-3.3750000000,26.3125000000,image123.jpg,24610.2739490000
2,50.8649431667,-0.0918460000,73.4000000000,0.9375000000,-3.5625000000,26.6875000000,image124.jpg,24810.3407200000
2,50.8649425000,-0.0918443333,73.4000000000,0.1875000000,-4.3750000000,26.6250000000,image125.jpg,25010.4036890000
2,50.8649420000,-0.0918435000,73.6000000000,0.6250000000,-5.2500000000,26.0625000000,image126.jpg,25211.3074910000
5,50.8649395000,-0.0918436667,73.5000000000,0.7500000000,-6.6250000000,25.7500000000,image127.jpg,25411.4940530000
2,50.8649373333,-0.0918430000,73.5000000000,0.0000000000,-5.9375000000,23.6875000000,image128.jpg,25611.6174900000
2,50.8649358333,-0.0918413333,73.5000000000,0.2500000000,-6.7500000000,23.1250000000,image129.jpg,25811.6342090000
2,50.8649345000,-0.0918405000,73.5000000000,1.8750000000,-5.1250000000,22.8125000000,image130.jpg,26011.1897300000
2,50.8649323333,-0.0918396667,73.5000000000,0.5000000000,-3.9375000000,22.0625000000,image131.jpg,26210.8831670000
5,50.8649305000,-0.0918381667,73.4000000000,0.6250000000,-5.3750000000,21.6875000000,image132.jpg,26411.1730110000
5,50.8649286667,-0.0918373333,73.5000000000,-0.7500000000,-4.4375000000,21.3750000000,image133.jpg,26611.8483750000
2,50.8649268333,-0.0918363333,73.4000000000,-3.7500000000,-2.1250000000,21.6250000000,image134.jpg,26811.9994170000
2,50.8649253333,-0.0918363333,73.4000000000,-5.2500000000,-2.8750000000,20.0000000000,image135.jpg,27012.3781150000
2,50.8649238333,-0.0918350000,73.5000000000,-3.7500000000,-6.0000000000,17.0000000000,image136.jpg,27212.1830630000
5,50.8649220000,-0.0918338333,73.4000000000,-6.8750000000,-7.6250000000,13.0625000000,image137.jpg,27411.2694690000
2,50.8649203333,-0.0918331667,73.4000000000,-4.3125000000,-5.5000000000,10.4375000000,image138.jpg,27611.3194170000
2,50.8649190000,-0.0918315000,73.4000000000,-6.4375000000,-3.4375000000,7.9375000000,image139.jpg,27811.6948330000
2,50.8649176667,-0.0918303333,73.4000000000,-10.6250000000,1.2500000000,7.7500000000,image140.jpg,28012.4267600000
2,50.8649165000,-0.0918293333,73.5000000000,-10.1875000000,0.1250000000,9.0000000000,image141.jpg,28212.4480620000
2,50.8649155000,-0.0918280000,73.5000000000,-2.6250000000,-2.0625000000,7.5625000000,image142.jpg,28412.5502500000
2,50.8649141667,-0.0918273333,73.5000000000,-8.8750000000,-5.4375000000,14.5625000000,image143.jpg,28612.0129580000
2,50.8649125000,-0.0918253333,73.5000000000,-4.6875000000,-8.3750000000,22.6875000000,image144.jpg,28811.7284790000
2,50.8649103333,-0.0918255000,73.4000000000,-10.4375000000,-6.0625000000,24.3750000000,image145.jpg,29011.9760830000
2,50.8649083333,-0.0918251667,73.4000000000,-5.1250000000,-3.8125000000,23.8125000000,image146.jpg,29212.2720200000
5,50.8649076667,-0.0918233333,73.4000000000,-1.8125000000,-3.7500000000,21.3125000000,image147.jpg,29412.0971240000
2,50.8649068333,-0.0918230000,73.5000000000,-0.7500000000,-0.9375000000,22.4375000000,image148.jpg,29612.0234260000
2,50.8649051667,-0.0918220000,73.4000000000,-5.1250000000,1.8125000000,22.1875000000,image149.jpg,29812.1035830000
2,50.8649050000,-0.0918210000,73.5000000000,-0.1875000000,-4.7500000000,19.6250000000,image150.jpg,30012.2385820000
2,50.8649043333,-0.0918201667,73.6000000000,-0.6875000000,-8.7500000000,18.8750000000,image151.jpg,30212.2462910000
5,50.8649025000,-0.0918191667,73.6000000000,0.8750000000,-8.2500000000,20.6875000000,image152.jpg,30412.5884780000
5,50.8649013333,-0.0918181667,73.6000000000,1.5625000000,-5.9375000000,17.7500000000,image153.jpg,30612.4184260000
2,50.8648996667,-0.0918175000,73.7000000000,-0.7500000000,-3.8125000000,20.1250000000,image154.jpg,30812.4374360000
2,50.8648983333,-0.0918166667,73.6000000000,1.8750000000,-5.5000000000,25.8750000000,image155.jpg,31012.5048840000
2,50.8648961667,-0.0918153333,73.6000000000,2.1250000000,-5.8125000000,30.9375000000,image156.jpg,31212.6276970000
2,50.8648948333,-0.0918150000,73.6000000000,2.4375000000,-4.6250000000,32.2500000000,image157.jpg,31412.6265510000
2,50.8648930000,-0.0918140000,73.6000000000,4.8125000000,-5.0625000000,31.4375000000,image158.jpg,31613.0297280000
2,50.8648911667,-0.0918131667,73.6000000000,3.6875000000,-6.4375000000,26.4375000000,image159.jpg,31813.8348320000
2,50.8648891667,-0.0918123333,73.6000000000,2.7500000000,-4.1250000000,21.6875000000,image160.jpg,32013.7503000000
2,50.8648875000,-0.0918116667,73.6000000000,2.3125000000,-5.6250000000,19.8125000000,image161.jpg,32213.8309770000
5,50.8648856667,-0.0918103333,73.7000000000,-0.1875000000,-5.6250000000,19.8750000000,image162.jpg,32413.7871230000
5,50.8648841667,-0.0918093333,73.8000000000,0.2500000000,-6.5000000000,22.8750000000,image163.jpg,32613.0034770000
5,50.8648821667,-0.0918086667,73.8000000000,3.0000000000,-5.1250000000,28.1250000000,image164.jpg,32813.0889980000
5,50.8648811667,-0.0918081667,73.9000000000,2.0000000000,-4.6250000000,28.6250000000,image165.jpg,33013.6837900000
2,50.8648801667,-0.0918080000,74.1000000000,3.5625000000,-3.0625000000,28.1875000000,image166.jpg,33214.1858210000
2,50.8648788333,-0.0918075000,74.1000000000,2.8750000000,-5.0625000000,26.9375000000,image167.jpg,33414.2320190000
2,50.8648771667,-0.0918075000,74.2000000000,3.5000000000,-3.4375000000,26.4375000000,image168.jpg,33614.6208210000
2,50.8648763333,-0.0918063333,74.1000000000,4.6250000000,-3.3125000000,24.2500000000,image169.jpg,33813.4144660000
2,50.8648746667,-0.0918060000,74.2000000000,3.6250000000,-2.5625000000,24.7500000000,image170.jpg,34013.4992060000
2,50.8648733333,-0.0918051667,74.3000000000,5.5000000000,-1.6875000000,24.4375000000,image171.jpg,34213.9025390000
5,50.8648720000,-0.0918046667,74.4000000000,3.6250000000,-5.0000000000,24.1875000000,image172.jpg,34414.7402470000
2,50.8648706667,-0.0918043333,74.4000000000,6.1875000000,-5.3125000000,28.1875000000,image173.jpg,34614.6980600000
2,50.8648695000,-0.0918033333,74.4000000000,9.7500000000,-3.1250000000,31.0625000000,image174.jpg,34814.7335290000
2,50.8648685000,-0.0918028333,74.5000000000,9.3750000000,-3.4375000000,35.3125000000,image175.jpg,35014.7069660000
2,50.8648675000,-0.0918016667,74.5000000000,9.6875000000,-3.3125000000,37.3750000000,image176.jpg,35213.9090490000
5,50.8648661667,-0.0918021667,74.6000000000,10.6250000000,-3.8750000000,35.9375000000,image177.jpg,35414.1201430000
2,50.8648648333,-0.0918023333,74.7000000000,10.3750000000,-5.9375000000,34.5000000000,image178.jpg,35614.7167570000
2,50.8648635000,-0.0918013333,74.7000000000,9.8750000000,-6.0000000000,33.6250000000,image179.jpg,35814.1008200000
2,50.8648625000,-0.0918003333,74.7000000000,10.5625000000,-5.8125000000,33.8750000000,image180.jpg,36014.1783200000
2,50.8648608333,-0.0917998333,74.8000000000,10.0625000000,-4.8750000000,36.8750000000,image181.jpg,36214.2606110000
5,50.8648595000,-0.0917990000,74.8000000000,8.6250000000,-4.6250000000,36.3125000000,image182.jpg,36414.3213400000
5,50.8648583333,-0.0917986667,74.9000000000,7.4375000000,-5.7500000000,34.3125000000,image183.jpg,36614.4050900000
2,50.8648560000,-0.0917991667,74.9000000000,9.8125000000,-4.2500000000,33.0625000000,image184.jpg,36814.5781630000
2,50.8648541667,-0.0917985000,74.8000000000,7.7500000000,-5.7500000000,29.8125000000,image185.jpg,37014.5330590000
2,50.8648525000,-0.0917966667,74.8000000000,6.1875000000,-5.8125000000,26.2500000000,image186.jpg,37214.6047260000
2,50.8648505000,-0.0917953333,74.7000000000,4.5000000000,-5.6250000000,25.6875000000,image187.jpg,37414.7846210000
2,50.8648506667,-0.0917941667,74.7000000000,3.4375000000,-5.3125000000,26.6250000000,image188.jpg,37614.7304020000
2,50.8648496667,-0.0917923333,74.7000000000,1.4375000000,-3.4375000000,31.1875000000,image189.jpg,37814.8084750000
2,50.8648475000,-0.0917930000,74.7000000000,3.8125000000,-4.0000000000,33.9375000000,image190.jpg,38014.8705590000
2,50.8648470000,-0.0917921667,74.7000000000,3.5000000000,-5.1875000000,33.1250000000,image191.jpg,38215.7799860000
5,50.8648451667,-0.0917915000,74.6000000000,1.3750000000,-3.8750000000,32.3125000000,image192.jpg,38415.9471210000
5,50.8648433333,-0.0917906667,74.6000000000,0.8750000000,-3.8750000000,31.8125000000,image193.jpg,38616.0356100000
2,50.8648418333,-0.0917903333,74.5000000000,-2.3125000000,-4.5625000000,31.0625000000,image194.jpg,38816.1004540000
2,50.8648401667,-0.0917898333,74.6000000000,-4.0000000000,-4.2500000000,30.0000000000,image195.jpg,39015.2124850000
2,50.8648393333,-0.0917891667,74.5000000000,-3.6875000000,-4.1875000000,31.5625000000,image196.jpg,39215.2868080000
5,50.8648375000,-0.0917888333,74.5000000000,-5.0625000000,-3.2500000000,30.9375000000,image197.jpg,39415.6221730000
5,50.8648365000,-0.0917880000,74.5000000000,-5.5000000000,-3.3750000000,31.0000000000,image198.jpg,39616.3685790000
5,50.8648336667,-0.0917875000,74.4000000000,-5.9375000000,-4.9375000000,31.0625000000,image199.jpg,39816.4174330000
5,50.8648325000,-0.0917866667,74.4000000000,-5.8750000000,-4.4375000000,31.9375000000,image200.jpg,40016.7880060000
2,50.8648316667,-0.0917860000,74.4000000000,-4.6875000000,-4.6250000000,34.1250000000,image201.jpg,40215.9472760000
2,50.8648300000,-0.0917853333,74.5000000000,-4.7500000000,-3.8125000000,33.8125000000,image202.jpg,40415.6828490000
2,50.8648281667,-0.0917851667,74.5000000000,-4.6250000000,-1.8125000000,34.6250000000,image203.jpg,40615.8169120000
2,50.8648265000,-0.0917846667,74.5000000000,-3.8125000000,-4.5625000000,33.6250000000,image204.jpg,40816.7151410000
2,50.8648248333,-0.0917846667,74.5000000000,-4.9375000000,-3.4375000000,33.8125000000,image205.jpg,41016.8835260000
2,50.8648228333,-0.0917846667,74.5000000000,-4.2500000000,-3.7500000000,33.4375000000,image206.jpg,41217.1948800000
2,50.8648213333,-0.0917845000,74.5000000000,-5.6250000000,-3.5000000000,33.8750000000,image207.jpg,41416.9332660000
2,50.8648201667,-0.0917853333,74.6000000000,-3.8750000000,-3.7500000000,32.7500000000,image208.jpg,41616.0650360000
2,50.8648188333,-0.0917843333,74.6000000000,-5.6250000000,-5.5000000000,31.6875000000,image209.jpg,41816.1271200000
2,50.8648175000,-0.0917840000,74.7000000000,-6.2500000000,-4.5000000000,30.0625000000,image210.jpg,42016.6170670000
2,50.8648153333,-0.0917831667,74.6000000000,-8.0000000000,-4.0000000000,29.1875000000,image211.jpg,42216.2731610000
5,50.8648138333,-0.0917820000,74.7000000000,-8.0625000000,-4.0000000000,28.8750000000,image212.jpg,42416.3149320000
5,50.8648126667,-0.0917811667,74.6000000000,-7.0625000000,-3.5625000000,28.6875000000,image213.jpg,42616.4373800000
5,50.8648108333,-0.0917806667,74.7000000000,-6.7500000000,-3.9375000000,28.8750000000,image214.jpg,42816.5056090000
5,50.8648093333,-0.0917798333,74.6000000000,-5.4375000000,-5.0000000000,29.0000000000,image215.jpg,43016.5670670000
2,50.8648076667,-0.0917796667,74.6000000000,-5.2500000000,-3.1250000000,29.5625000000,image216.jpg,43216.8654000000
2,50.8648065000,-0.0917791667,74.6000000000,-2.0000000000,-2.3125000000,29.6250000000,image217.jpg,43416.7310770000
2,50.8648058333,-0.0917783333,74.7000000000,-5.8125000000,-4.9375000000,28.1875000000,image218.jpg,43616.8207130000
2,50.8648051667,-0.0917773333,74.7000000000,-4.1875000000,-4.8125000000,27.4375000000,image219.jpg,43816.8800350000
2,50.8648033333,-0.0917768333,74.7000000000,-5.9375000000,-4.2500000000,27.6250000000,image220.jpg,44016.9694100000
2,50.8648018333,-0.0917761667,74.7000000000,-5.3125000000,-6.3125000000,28.3750000000,image221.jpg,44217.1584730000
5,50.8648001667,-0.0917758333,74.8000000000,-6.3750000000,-4.1875000000,29.8750000000,image222.jpg,44417.0189420000
2,50.8647990000,-0.0917750000,74.8000000000,-7.6250000000,-3.5625000000,28.5000000000,image223.jpg,44617.9382640000
2,50.8647971667,-0.0917746667,74.8000000000,-6.9375000000,-2.6875000000,27.3125000000,image224.jpg,44818.4111810000
2,50.8647961667,-0.0917731667,74.9000000000,-4.8125000000,-2.3125000000,27.0625000000,image225.jpg,45018.1988890000
2,50.8647948333,-0.0917726667,74.8000000000,-3.7500000000,-4.3750000000,25.5000000000,image226.jpg,45218.2745660000
5,50.8647935000,-0.0917716667,74.9000000000,-4.4375000000,-7.6875000000,27.0625000000,image227.jpg,45417.3748790000
5,50.8647916667,-0.0917701667,74.8000000000,-5.6875000000,-4.7500000000,26.3125000000,image228.jpg,45617.4324310000
2,50.8647900000,-0.0917698333,74.8000000000,-8.4375000000,-4.4375000000,25.7500000000,image229.jpg,45817.7463370000
2,50.8647888333,-0.0917686667,74.8000000000,-6.0625000000,-4.0625000000,23.9375000000,image230.jpg,46018.6885240000
2,50.8647886667,-0.0917681667,74.8000000000,-7.8125000000,-2.3750000000,23.0000000000,image231.jpg,46218.6131600000
5,50.8647880000,-0.0917671667,74.8000000000,-7.0000000000,-2.1875000000,23.0625000000,image232.jpg,46418.6853990000
5,50.8647866667,-0.0917661667,74.7000000000,-6.5625000000,-3.6250000000,23.3750000000,image233.jpg,46618.7437320000
2,50.8647856667,-0.0917653333,74.8000000000,-5.8125000000,-3.1250000000,23.1250000000,image234.jpg,46817.8948780000
2,50.8647848333,-0.0917641667,74.8000000000,-5.3125000000,-2.3750000000,25.8125000000,image235.jpg,47017.9706590000
2,50.8647828333,-0.0917633333,74.8000000000,-4.6875000000,-4.0000000000,27.5625000000,image236.jpg,47218.5519610000
5,50.8647805000,-0.0917628333,74.8000000000,-4.3125000000,-5.1250000000,27.1250000000,image237.jpg,47419.0423780000
2,50.8647791667,-0.0917623333,74.8000000000,-2.4375000000,-5.6250000000,27.4375000000,image238.jpg,47619.1319610000
2,50.8647776667,-0.0917613333,74.8000000000,-4.0000000000,-4.5000000000,26.3125000000,image239.jpg,47819.2046170000
2,50.8647766667,-0.0917606667,74.8000000000,-2.8750000000,-4.5625000000,25.1875000000,image240.jpg,48018.4135760000
2,50.8647753333,-0.0917595000,74.8000000000,-4.6875000000,-4.0000000000,23.9375000000,image241.jpg,48218.4072210000
2,50.8647741667,-0.0917591667,74.9000000000,-4.1875000000,-2.3125000000,24.3750000000,image242.jpg,48418.7009190000
2,50.8647731667,-0.0917556667,74.8000000000,-3.8750000000,-2.1250000000,24.9375000000,image243.jpg,48619.2071170000
2,50.8647718333,-0.0917560000,74.8000000000,-3.6250000000,-5.0625000000,27.4375000000,image244.jpg,48818.6145130000
2,50.8647710000,-0.0917555000,74.9000000000,-3.0625000000,-3.4375000000,29.0000000000,image245.jpg,49018.7363880000
2,50.8647696667,-0.0917543333,74.9000000000,-1.0000000000,-4.8125000000,27.6875000000,image246.jpg,49218.8355020000
2,50.8647673333,-0.0917541667,74.9000000000,-1.6250000000,-6.0625000000,27.3125000000,image247.jpg,49418.8525850000
2,50.8647658333,-0.0917530000,74.8000000000,0.7500000000,-4.1250000000,24.8125000000,image248.jpg,49618.9719600000
2,50.8647646667,-0.0917523333,74.9000000000,-1.1250000000,-3.4375000000,23.0000000000,image249.jpg,49819.2585230000
2,50.8647636667,-0.0917506667,74.9000000000,-2.0625000000,-4.6875000000,23.1250000000,image250.jpg,50019.1216480000
2,50.8647620000,-0.0917500000,74.9000000000,-1.3125000000,-4.5000000000,23.0625000000,image251.jpg,50219.1389910000
2,50.8647606667,-0.0917485000,74.9000000000,-2.3125000000,-5.0000000000,23.0000000000,image252.jpg,50419.1744600000
2,50.8647590000,-0.0917480000,74.9000000000,-2.3750000000,-3.8125000000,23.2500000000,image253.jpg,50619.3056060000
2,50.8647576667,-0.0917468333,74.9000000000,-1.6875000000,-4.2500000000,24.1250000000,image254.jpg,50819.3931580000
2,50.8647553333,-0.0917460000,74.8000000000,-1.6250000000,-1.5625000000,24.6875000000,image255.jpg,51019.8699810000
2,50.8647548333,-0.0917450000,74.9000000000,-0.3125000000,-0.2500000000,25.6875000000,image256.jpg,51220.7510740000
2,50.8647536667,-0.0917445000,74.9000000000,1.5625000000,-0.0625000000,25.9375000000,image257.jpg,51420.5074810000
2,50.8647521667,-0.0917425000,74.9000000000,-1.3125000000,-6.1875000000,26.7500000000,image258.jpg,51620.6940430000
2,50.8647496667,-0.0917418333,74.9000000000,0.8750000000,-3.5625000000,27.6250000000,image259.jpg,51820.4860220000
2,50.8647485000,-0.0917408333,74.8000000000,-2.8125000000,-3.7500000000,24.8750000000,image260.jpg,52019.7367510000
2,50.8647460000,-0.0917391667,74.7000000000,-4.9375000000,-6.0625000000,22.4375000000,image261.jpg,52219.8664390000
2,50.8647443333,-0.0917386667,74.6000000000,-3.7500000000,-3.9375000000,22.4375000000,image262.jpg,52420.5166990000
2,50.8647428333,-0.0917370000,74.6000000000,-5.7500000000,-3.8125000000,23.0625000000,image263.jpg,52620.9752400000
2,50.8647410000,-0.0917355000,74.5000000000,-3.5625000000,-2.2500000000,25.0000000000,image264.jpg,52821.1792510000
2,50.8647391667,-0.0917353333,74.4000000000,-4.5000000000,-2.9375000000,27.4375000000,image265.jpg,53021.0390940000
2,50.8647376667,-0.0917338333,74.4000000000,-4.1250000000,-3.3125000000,26.0625000000,image266.jpg,53220.3309170000
5,50.8647361667,-0.0917328333,74.5000000000,-2.8750000000,-3.3125000000,26.6875000000,image267.jpg,53420.3853960000
2,50.8647351667,-0.0917318333,74.5000000000,-2.5625000000,-2.3125000000,27.4375000000,image268.jpg,53620.7807090000
2,50.8647340000,-0.0917308333,74.6000000000,-2.3125000000,-3.1250000000,28.3125000000,image269.jpg,53821.4313340000
2,50.8647323333,-0.0917300000,74.6000000000,-0.9375000000,-2.8750000000,28.6250000000,image270.jpg,54021.5254480000
2,50.8647315000,-0.0917290000,74.6000000000,-1.8750000000,-2.8125000000,28.4375000000,image271.jpg,54221.6074790000
5,50.8647290000,-0.0917281667,74.6000000000,1.4375000000,-3.6250000000,28.8750000000,image272.jpg,54421.4414900000
5,50.8647275000,-0.0917275000,74.7000000000,0.8125000000,-4.3125000000,29.0625000000,image273.jpg,54620.8361770000
2,50.8647256667,-0.0917261667,74.7000000000,1.2500000000,-5.5000000000,27.6250000000,image274.jpg,54820.8473230000
2,50.8647240000,-0.0917253333,74.6000000000,3.1250000000,-3.1250000000,27.8125000000,image275.jpg,55021.3237290000
2,50.8647230000,-0.0917253333,74.7000000000,2.5000000000,-2.6875000000,27.2500000000,image276.jpg,55220.9998230000
5,50.8647213333,-0.0917250000,74.7000000000,3.0625000000,-3.3125000000,28.3125000000,image277.jpg,55421.0830520000
5,50.8647201667,-0.0917236667,74.7000000000,5.4375000000,-3.1875000000,29.0625000000,image278.jpg,55621.1285730000
2,50.8647186667,-0.0917236667,74.8000000000,4.5625000000,-2.4375000000,30.5000000000,image279.jpg,55821.2614370000
2,50.8647171667,-0.0917228333,74.8000000000,6.6875000000,-3.1250000000,29.3125000000,image280.jpg,56021.2049270000
2,50.8647156667,-0.0917230000,74.8000000000,6.7500000000,-3.2500000000,27.6875000000,image281.jpg,56221.7609160000
5,50.8647136667,-0.0917220000,74.9000000000,5.5625000000,-3.7500000000,24.0625000000,image282.jpg,56421.6108640000
5,50.8647128333,-0.0917210000,74.8000000000,6.1875000000,-3.7500000000,21.9375000000,image283.jpg,56621.6786240000
5,50.8647110000,-0.0917203333,74.8000000000,6.0000000000,-2.5625000000,22.7500000000,image284.jpg,56822.1851350000
2,50.8647101667,-0.0917193333,74.8000000000,3.5625000000,-2.5625000000,22.0000000000,image285.jpg,57021.6608640000
2,50.8647088333,-0.0917188333,74.8000000000,3.9375000000,-2.1250000000,22.1250000000,image286.jpg,57221.9890930000
5,50.8647078333,-0.0917185000,74.8000000000,4.5625000000,-1.8750000000,24.8125000000,image287.jpg,57421.8584160000
5,50.8647073333,-0.0917183333,74.8000000000,4.5000000000,-1.4375000000,24.8750000000,image288.jpg,57623.0076860000
5,50.8647071667,-0.0917183333,74.8000000000,4.8125000000,-1.3750000000,25.1250000000,image289.jpg,57823.3441450000
5,50.8647068333,-0.0917185000,74.8000000000,5.0000000000,-1.6250000000,25.1250000000,image290.jpg,58023.7098220000
5,50.8647066667,-0.0917186667,74.8000000000,5.1250000000,-1.7500000000,25.1250000000,image291.jpg,58223.3869570000
5,50.8647060000,-0.0917185000,74.8000000000,5.3125000000,-1.9375000000,25.1250000000,image292.jpg,58422.5895090000
5,50.8647056667,-0.0917185000,74.8000000000,5.4375000000,-2.0000000000,25.1250000000,image293.jpg,58622.7268530000
5,50.8647053333,-0.0917186667,74.8000000000,5.5000000000,-2.1250000000,25.1250000000,image294.jpg,58823.1618010000
5,50.8647050000,-0.0917186667,74.8000000000,5.5625000000,-2.1875000000,25.1250000000,image295.jpg,59023.7248210000
5,50.8647048333,-0.0917186667,74.8000000000,5.6250000000,-2.1875000000,25.1250000000,image296.jpg,59223.6519570000
5,50.8647046667,-0.0917188333,74.8000000000,5.6875000000,-2.2500000000,25.1250000000,image297.jpg,59423.7994050000
5,50.8647045000,-0.0917186667,74.8000000000,5.6875000000,-2.2500000000,25.1250000000,image298.jpg,59623.5781540000
5,50.8647043333,-0.0917186667,74.8000000000,5.7500000000,-2.3750000000,25.0000000000,image299.jpg,59822.9519560000
5,50.8647045000,-0.0917186667,74.8000000000,5.8750000000,-2.3750000000,25.1250000000,image300.jpg,60023.2987790000
5,50.8647043333,-0.0917186667,74.8000000000,5.8750000000,-2.4375000000,25.1250000000,image301.jpg,60223.8147690000
5,50.8647041667,-0.0917186667,74.8000000000,5.8750000000,-2.4375000000,25.1250000000,image302.jpg,60424.3705500000
5,50.8647040000,-0.0917185000,74.8000000000,5.9375000000,-2.5000000000,25.1250000000,image303.jpg,60624.1298730000
5,50.8647040000,-0.0917185000,74.8000000000,5.9375000000,-2.6250000000,25.0000000000,image304.jpg,60824.9057580000
5,50.8647038333,-0.0917186667,74.8000000000,5.9375000000,-2.6250000000,25.1875000000,image305.jpg,61024.8150290000
5,50.8647038333,-0.0917185000,74.8000000000,5.8750000000,-2.6250000000,25.1875000000,image306.jpg,61224.3935180000
5,50.8647036667,-0.0917186667,74.8000000000,5.9375000000,-2.6875000000,25.1875000000,image307.jpg,61424.1190910000
5,50.8647035000,-0.0917186667,74.8000000000,5.9375000000,-2.6875000000,25.1875000000,image308.jpg,61625.1704970000
5,50.8647033333,-0.0917188333,74.9000000000,6.0000000000,-2.6875000000,25.1875000000,image309.jpg,61825.3694560000
5,50.8647031667,-0.0917188333,74.9000000000,6.0000000000,-2.6875000000,25.1875000000,image310.jpg,62025.6079970000
5,50.8647030000,-0.0917188333,74.9000000000,6.0000000000,-2.7500000000,25.1875000000,image311.jpg,62225.2837260000
5,50.8647028333,-0.0917190000,74.9000000000,6.0625000000,-2.7500000000,25.1875000000,image312.jpg,62424.5501850000
5,50.8647026667,-0.0917188333,74.9000000000,6.0625000000,-2.7500000000,25.1875000000,image313.jpg,62624.6107570000
5,50.8647025000,-0.0917190000,74.9000000000,6.0625000000,-2.7500000000,25.1875000000,image314.jpg,62825.1278410000
5,50.8647023333,-0.0917190000,74.9000000000,6.0625000000,-2.7500000000,25.1875000000,image315.jpg,63026.2390910000
5,50.8647023333,-0.0917190000,74.9000000000,6.0625000000,-2.7500000000,25.1875000000,image316.jpg,63225.3952360000
5,50.8647020000,-0.0917190000,74.9000000000,6.0625000000,-2.7500000000,25.1875000000,image317.jpg,63425.4411740000
5,50.8647016667,-0.0917188333,74.9000000000,6.0625000000,-2.7500000000,25.1875000000,image318.jpg,63625.7404970000
5,50.8647015000,-0.0917188333,74.8000000000,6.0625000000,-2.7500000000,25.1875000000,image319.jpg,63825.8592990000
5,50.8647011667,-0.0917186667,74.8000000000,6.0625000000,-2.7500000000,25.1875000000,image320.jpg,64026.0552880000
5,50.8647010000,-0.0917186667,74.8000000000,6.0625000000,-2.7500000000,25.1875000000,image321.jpg,64227.0607570000
5,50.8647006667,-0.0917188333,74.8000000000,6.0625000000,-2.7500000000,25.1875000000,image322.jpg,64427.8970590000
5,50.8647005000,-0.0917186667,74.8000000000,6.0625000000,-2.7500000000,25.1875000000,image323.jpg,64628.2606000000
5,50.8647001667,-0.0917188333,74.8000000000,6.0625000000,-2.7500000000,25.1875000000,image324.jpg,64827.8950270000
5,50.8647000000,-0.0917186667,74.8000000000,6.0625000000,-2.7500000000,25.1875000000,image325.jpg,65027.2595070000
5,50.8646996667,-0.0917186667,74.8000000000,6.0625000000,-2.7500000000,25.1875000000,image326.jpg,65227.2623710000
5,50.8646993333,-0.0917185000,74.8000000000,6.0625000000,-2.7500000000,25.1875000000,image327.jpg,65427.1914340000
5,50.8646990000,-0.0917186667,74.9000000000,6.0625000000,-2.7500000000,25.1875000000,image328.jpg,65627.8651310000
5,50.8646988333,-0.0917186667,74.9000000000,6.0625000000,-2.7500000000,25.1875000000,image329.jpg,65828.3185170000
5,50.8646985000,-0.0917185000,74.9000000000,6.0625000000,-2.7500000000,25.1875000000,image330.jpg,66028.4399750000
5,50.8646983333,-0.0917185000,74.9000000000,6.0625000000,-2.7500000000,25.1875000000,image331.jpg,66228.2810170000
5,50.8646978333,-0.0917185000,74.9000000000,6.0625000000,-2.7500000000,25.1875000000,image332.jpg,66428.1556000000
5,50.8646975000,-0.0917185000,74.9000000000,6.0625000000,-2.7500000000,25.1875000000,image333.jpg,66627.8745060000
5,50.8646973333,-0.0917185000,74.9000000000,6.0625000000,-2.7500000000,25.1875000000,image334.jpg,66828.0375790000
5,50.8646971667,-0.0917183333,74.9000000000,6.0625000000,-2.7500000000,25.1875000000,image335.jpg,67029.2962770000
5,50.8646970000,-0.0917183333,74.9000000000,6.0625000000,-2.7500000000,25.1875000000,image336.jpg,67229.0384120000
5,50.8646966667,-0.0917183333,74.9000000000,6.0625000000,-2.7500000000,25.1875000000,image337.jpg,67429.2556510000
5,50.8646963333,-0.0917183333,74.9000000000,6.0625000000,-2.7500000000,25.1875000000,image338.jpg,67629.1477350000
5,50.8646961667,-0.0917183333,74.9000000000,6.0625000000,-2.7500000000,25.1875000000,image339.jpg,67828.3165370000
5,50.8646958333,-0.0917183333,74.9000000000,6.0625000000,-2.7500000000,25.1875000000,image340.jpg,68028.5366930000
5,50.8646956667,-0.0917183333,74.9000000000,6.0625000000,-2.7500000000,25.1875000000,image341.jpg,68228.8914850000
5,50.8646953333,-0.0917181667,74.9000000000,6.0625000000,-2.7500000000,25.1875000000,image342.jpg,68430.8060160000
5,50.8646951667,-0.0917180000,74.9000000000,6.0625000000,-2.7500000000,25.1875000000,image343.jpg,68630.0587240000
5,50.8646950000,-0.0917180000,74.9000000000,6.0625000000,-2.7500000000,25.1875000000,image344.jpg,68830.0400780000
5,50.8646946667,-0.0917178333,74.9000000000,6.0625000000,-2.7500000000,25.1875000000,image345.jpg,69029.0417970000
5,50.8646945000,-0.0917178333,74.8000000000,6.0625000000,-2.7500000000,25.1875000000,image346.jpg,69229.2997650000
5,50.8646943333,-0.0917178333,74.8000000000,6.0625000000,-2.7500000000,25.1875000000,image347.jpg,69429.1427860000
5,50.8646940000,-0.0917176667,74.8000000000,6.0625000000,-2.7500000000,25.1875000000,image348.jpg,69629.7204940000
5,50.8646940000,-0.0917176667,74.8000000000,6.0625000000,-2.7500000000,25.1875000000,image349.jpg,69829.7313280000
5,50.8646936667,-0.0917176667,74.8000000000,6.0625000000,-2.7500000000,25.1875000000,image350.jpg,70029.2526820000
5,50.8646935000,-0.0917175000,74.8000000000,6.0625000000,-2.7500000000,25.1875000000,image351.jpg,70229.2728900000
5,50.8646931667,-0.0917175000,74.7000000000,6.0625000000,-2.7500000000,25.1875000000,image352.jpg,70429.5172130000
5,50.8646930000,-0.0917175000,74.7000000000,6.0625000000,-2.7500000000,25.1875000000,image353.jpg,70629.5163270000
5,50.8646926667,-0.0917173333,74.7000000000,6.0625000000,-2.7500000000,25.1875000000,image354.jpg,70830.1882020000
5,50.8646925000,-0.0917173333,74.7000000000,6.0625000000,-2.7500000000,25.1875000000,image355.jpg,71031.0664830000
5,50.8646923333,-0.0917171667,74.7000000000,6.0625000000,-2.7500000000,25.1875000000,image356.jpg,71230.8557540000
5,50.8646918333,-0.0917170000,74.6000000000,6.0625000000,-2.7500000000,25.1875000000,image357.jpg,71430.7228900000
5,50.8646916667,-0.0917170000,74.6000000000,6.0625000000,-2.7500000000,25.1875000000,image358.jpg,71630.0217440000
5,50.8646911667,-0.0917168333,74.6000000000,6.0625000000,-2.7500000000,25.1875000000,image359.jpg,71830.0063790000
5,50.8646908333,-0.0917168333,74.6000000000,6.0625000000,-2.7500000000,25.1875000000,image360.jpg,72029.9711710000
5,50.8646905000,-0.0917168333,74.6000000000,6.0625000000,-2.7500000000,25.1875000000,image361.jpg,72231.1827850000
5,50.8646903333,-0.0917166667,74.6000000000,6.0625000000,-2.7500000000,25.1875000000,image362.jpg,72431.2154930000
5,50.8646900000,-0.0917166667,74.6000000000,6.0625000000,-2.7500000000,25.1875000000,image363.jpg,72631.1647640000
5,50.8646896667,-0.0917165000,74.6000000000,6.0625000000,-2.7500000000,25.1875000000,image364.jpg,72831.3093470000
5,50.8646893333,-0.0917165000,74.5000000000,6.0625000000,-2.7500000000,25.1875000000,image365.jpg,73030.2714830000
5,50.8646891667,-0.0917163333,74.5000000000,6.0625000000,-2.7500000000,25.1875000000,image366.jpg,73230.3563780000
5,50.8646886667,-0.0917161667,74.5000000000,6.0625000000,-2.7500000000,25.1875000000,image367.jpg,73431.1462740000
5,50.8646883333,-0.0917161667,74.5000000000,6.0625000000,-2.7500000000,25.1875000000,image368.jpg,73631.5625240000
5,50.8646878333,-0.0917160000,74.5000000000,6.0625000000,-2.7500000000,25.1875000000,image369.jpg,73831.7514300000
5,50.8646873333,-0.0917158333,74.5000000000,6.0625000000,-2.7500000000,25.1875000000,image370.jpg,74031.7069510000
5,50.8646871667,-0.0917158333,74.5000000000,6.0625000000,-2.7500000000,25.1875000000,image371.jpg,74231.0724720000
5,50.8646866667,-0.0917158333,74.4000000000,6.0625000000,-2.7500000000,25.1875000000,image372.jpg,74431.1916380000
5,50.8646863333,-0.0917156667,74.4000000000,6.0625000000,-2.7500000000,25.1875000000,image373.jpg,74631.0682530000
5,50.8646860000,-0.0917156667,74.4000000000,6.0625000000,-2.7500000000,25.1875000000,image374.jpg,74831.6246590000
5,50.8646856667,-0.0917156667,74.4000000000,6.0625000000,-2.7500000000,25.1875000000,image375.jpg,75031.9946070000
5,50.8646853333,-0.0917156667,74.4000000000,6.0625000000,-2.7500000000,25.1875000000,image376.jpg,75232.1129920000
5,50.8646850000,-0.0917155000,74.4000000000,6.0625000000,-2.7500000000,25.1875000000,image377.jpg,75432.3163260000
5,50.8646845000,-0.0917153333,74.4000000000,6.0625000000,-2.7500000000,25.1875000000,image378.jpg,75631.2499710000
5,50.8646841667,-0.0917153333,74.3000000000,6.0625000000,-2.7500000000,25.1875000000,image379.jpg,75831.2724710000
5,50.8646836667,-0.0917153333,74.4000000000,6.0625000000,-2.7500000000,25.1875000000,image380.jpg,76031.7798150000
5,50.8646835000,-0.0917151667,74.3000000000,6.0625000000,-2.7500000000,25.1875000000,image381.jpg,76232.5877840000
5,50.8646831667,-0.0917153333,74.2000000000,6.0625000000,-2.7500000000,25.1875000000,image382.jpg,76431.7605960000
5,50.8646828333,-0.0917155000,74.1000000000,6.0625000000,-2.7500000000,25.1875000000,image383.jpg,76631.5837730000
5,50.8646825000,-0.0917155000,74.1000000000,6.0625000000,-2.7500000000,25.1875000000,image384.jpg,76831.8694500000
5,50.8646821667,-0.0917156667,74.0000000000,6.0625000000,-2.7500000000,25.1875000000,image385.jpg,77032.0759600000
5,50.8646818333,-0.0917156667,74.0000000000,6.0625000000,-2.7500000000,25.1875000000,image386.jpg,77231.7565330000
5,50.8646815000,-0.0917155000,74.0000000000,6.0625000000,-2.7500000000,25.1875000000,image387.jpg,77432.7068460000
5,50.8646811667,-0.0917153333,74.0000000000,6.0625000000,-2.7500000000,25.1875000000,image388.jpg,77632.8809600000
5,50.8646810000,-0.0917151667,74.0000000000,6.0625000000,-2.7500000000,25.1875000000,image389.jpg,77833.1777310000
5,50.8646806667,-0.0917151667,74.0000000000,6.0625000000,-2.7500000000,25.1875000000,image390.jpg,78032.9478870000
5,50.8646803333,-0.0917150000,74.0000000000,6.0625000000,-2.7500000000,25.1875000000,image391.jpg,78232.4074180000
5,50.8646798333,-0.0917148333,74.0000000000,6.1250000000,-2.8125000000,25.1875000000,image392.jpg,78432.4077310000
5,50.8646796667,-0.0917148333,74.0000000000,6.1875000000,-2.8750000000,25.1875000000,image393.jpg,78632.5574700000
5,50.8646795000,-0.0917146667,74.0000000000,6.2500000000,-2.9375000000,25.1875000000,image394.jpg,78833.5745010000
5,50.8646793333,-0.0917146667,73.9000000000,6.3125000000,-3.0000000000,25.1250000000,image395.jpg,79033.3677820000
5,50.8646790000,-0.0917146667,74.0000000000,6.3750000000,-3.0625000000,25.1250000000,image396.jpg,79233.7712720000
5,50.8646786667,-0.0917146667,73.9000000000,6.3750000000,-3.0625000000,25.1250000000,image397.jpg,79433.0753860000
5,50.8646783333,-0.0917146667,73.9000000000,6.3750000000,-3.0625000000,25.1250000000,image398.jpg,79632.7622610000
5,50.8646781667,-0.0917145000,73.9000000000,6.3750000000,-3.0625000000,25.1250000000,image399.jpg,79832.9256990000
5,50.8646778333,-0.0917145000,73.9000000000,6.3750000000,-3.0625000000,25.1250000000,image400.jpg,80033.5493450000
5,50.8646775000,-0.0917143333,73.9000000000,6.3750000000,-3.0625000000,25.1250000000,image401.jpg,80234.0306470000
5,50.8646773333,-0.0917145000,73.8000000000,6.3750000000,-3.0625000000,25.1250000000,image402.jpg,80434.1147090000
5,50.8646771667,-0.0917145000,73.8000000000,6.3750000000,-3.0625000000,25.1250000000,image403.jpg,80633.8506460000
5,50.8646770000,-0.0917145000,73.7000000000,6.3750000000,-3.0625000000,25.1250000000,image404.jpg,80833.1060110000
5,50.8646768333,-0.0917145000,73.7000000000,6.3750000000,-3.0625000000,25.1250000000,image405.jpg,81033.0714800000
5,50.8646766667,-0.0917146667,73.6000000000,6.3750000000,-3.0625000000,25.1250000000,image406.jpg,81233.4779900000
5,50.8646763333,-0.0917145000,73.6000000000,6.3750000000,-3.0625000000,25.1250000000,image407.jpg,81434.2297610000
5,50.8646760000,-0.0917145000,73.5000000000,6.3750000000,-3.0625000000,25.1250000000,image408.jpg,81634.8348650000
5,50.8646756667,-0.0917145000,73.5000000000,6.3750000000,-3.0625000000,25.1250000000,image409.jpg,81834.5689790000
5,50.8646753333,-0.0917143333,73.5000000000,6.3750000000,-3.0625000000,25.1250000000,image410.jpg,82033.7917920000
5,50.8646751667,-0.0917143333,73.5000000000,6.3750000000,-3.0625000000,25.1250000000,image411.jpg,82233.5730940000
5,50.8646746667,-0.0917145000,73.4000000000,6.3750000000,-3.0625000000,25.1250000000,image412.jpg,82433.6467920000
5,50.8646743333,-0.0917145000,73.4000000000,6.3750000000,-3.0625000000,25.1250000000,image413.jpg,82634.4162190000
5,50.8646740000,-0.0917143333,73.4000000000,6.3750000000,-3.0625000000,25.1250000000,image414.jpg,82834.6571040000
5,50.8646736667,-0.0917143333,73.4000000000,6.3750000000,-3.0625000000,25.1250000000,image415.jpg,83033.9059580000
5,50.8646735000,-0.0917143333,73.4000000000,6.3750000000,-3.0625000000,25.1250000000,image416.jpg,83234.0447080000
5,50.8646730000,-0.0917141667,73.3000000000,6.3750000000,-3.0625000000,25.1250000000,image417.jpg,83434.0142390000
5,50.8646726667,-0.0917141667,73.3000000000,6.3750000000,-3.0625000000,25.1250000000,image418.jpg,83634.0393950000
5,50.8646723333,-0.0917140000,73.2000000000,6.3750000000,-3.0625000000,25.1250000000,image419.jpg,83834.6225720000
5,50.8646720000,-0.0917140000,73.2000000000,6.3750000000,-3.0625000000,25.1250000000,image420.jpg,84035.1593950000
5,50.8646716667,-0.0917140000,73.2000000000,6.3750000000,-3.0625000000,25.1250000000,image421.jpg,84235.4302800000
5,50.8646713333,-0.0917140000,73.2000000000,6.3750000000,-3.0625000000,25.1250000000,image422.jpg,84435.5290300000
5,50.8646710000,-0.0917138333,73.2000000000,6.3750000000,-3.0625000000,25.1250000000,image423.jpg,84634.7629890000
5,50.8646708333,-0.0917138333,73.2000000000,6.3750000000,-3.0625000000,25.1250000000,image424.jpg,84834.5550720000
5,50.8646705000,-0.0917136667,73.2000000000,6.3750000000,-3.0625000000,25.1250000000,image425.jpg,85034.5337180000
5,50.8646701667,-0.0917138333,73.1000000000,6.3750000000,-3.0625000000,25.1250000000,image426.jpg,85235.2777800000
5,50.8646698333,-0.0917136667,73.1000000000,6.3750000000,-3.0625000000,25.1250000000,image427.jpg,85435.5403320000
5,50.8646695000,-0.0917135000,73.1000000000,6.3750000000,-3.0625000000,25.1250000000,image428.jpg,85635.6737170000
5,50.8646691667,-0.0917135000,73.1000000000,6.3750000000,-3.0625000000,25.1250000000,image429.jpg,85835.7299670000
5,50.8646690000,-0.0917135000,73.0000000000,6.3750000000,-3.0625000000,25.1250000000,image430.jpg,86034.8005920000
5,50.8646686667,-0.0917135000,73.0000000000,6.3750000000,-3.0625000000,25.1250000000,image431.jpg,86234.8354360000
5,50.8646685000,-0.0917135000,73.0000000000,6.3750000000,-3.0625000000,25.1250000000,image432.jpg,86435.2073630000
5,50.8646681667,-0.0917133333,73.0000000000,6.3750000000,-3.0625000000,25.1250000000,image433.jpg,86636.0514250000
5,50.8646678333,-0.0917131667,73.0000000000,6.3750000000,-3.0625000000,25.1250000000,image434.jpg,86836.0772070000
5,50.8646676667,-0.0917133333,72.9000000000,6.3750000000,-3.0625000000,25.1250000000,image435.jpg,87036.0386130000
5,50.8646675000,-0.0917131667,72.9000000000,6.3750000000,-3.0625000000,25.1250000000,image436.jpg,87235.6746540000
5,50.8646670000,-0.0917131667,72.9000000000,6.3750000000,-3.0625000000,25.1250000000,image437.jpg,87435.2602270000
5,50.8646668333,-0.0917131667,72.9000000000,6.3750000000,-3.0625000000,25.1250000000,image438.jpg,87635.3249670000
5,50.8646666667,-0.0917131667,72.9000000000,6.3750000000,-3.0625000000,25.1250000000,image439.jpg,87836.1671540000
5,50.8646665000,-0.0917130000,72.9000000000,6.3750000000,-3.0625000000,25.1250000000,image440.jpg,88036.4392890000
5,50.8646663333,-0.0917130000,72.9000000000,6.3750000000,-3.0625000000,25.1250000000,image441.jpg,88236.7106440000
5,50.8646660000,-0.0917130000,72.9000000000,6.3750000000,-3.0625000000,25.1250000000,image442.jpg,88436.9439770000
5,50.8646658333,-0.0917130000,72.8000000000,6.3750000000,-3.0625000000,25.1250000000,image443.jpg,88635.6236640000
5,50.8646655000,-0.0917130000,72.8000000000,6.3750000000,-3.0625000000,25.1250000000,image444.jpg,88835.9654350000
5,50.8646651667,-0.0917130000,72.8000000000,6.3750000000,-3.0625000000,25.1250000000,image445.jpg,89036.1948620000
5,50.8646650000,-0.0917130000,72.8000000000,6.3750000000,-3.0625000000,25.1250000000,image446.jpg,89236.8709560000
5,50.8646650000,-0.0917130000,72.8000000000,6.3750000000,-3.0625000000,25.1250000000,image447.jpg,89436.7316330000
5,50.8646648333,-0.0917130000,72.8000000000,6.3750000000,-3.0625000000,25.1250000000,image448.jpg,89635.9837160000
5,50.8646646667,-0.0917130000,72.8000000000,6.3750000000,-3.0625000000,25.1250000000,image449.jpg,89836.2139760000
5,50.8646645000,-0.0917130000,72.7000000000,6.3750000000,-3.0625000000,25.1250000000,image450.jpg,90036.2262680000
5,50.8646645000,-0.0917128333,72.7000000000,6.3750000000,-3.0625000000,25.1250000000,image451.jpg,90236.2293930000
5,50.8646640000,-0.0917128333,72.7000000000,6.3750000000,-3.0625000000,25.1250000000,image452.jpg,90437.2100700000
5,50.8646638333,-0.0917128333,72.7000000000,6.3750000000,-3.0625000000,25.1250000000,image453.jpg,90637.4380380000
5,50.8646635000,-0.0917128333,72.7000000000,6.3750000000,-3.0625000000,25.1250000000,image454.jpg,90837.5662150000
5,50.8646631667,-0.0917126667,72.7000000000,6.3750000000,-3.0625000000,25.1250000000,image455.jpg,91037.7914240000
5,50.8646630000,-0.0917125000,72.7000000000,6.3750000000,-3.0625000000,25.1250000000,image456.jpg,91236.6836630000
5,50.8646626667,-0.0917126667,72.7000000000,6.3750000000,-3.0625000000,25.1250000000,image457.jpg,91436.8230380000
5,50.8646623333,-0.0917125000,72.7000000000,6.3750000000,-3.0625000000,25.1250000000,image458.jpg,91637.1176740000
5,50.8646621667,-0.0917125000,72.7000000000,6.3750000000,-3.0625000000,25.1250000000,image459.jpg,91837.9949650000
5,50.8646621667,-0.0917125000,72.7000000000,6.3750000000,-3.0625000000,25.1250000000,image460.jpg,92038.0237150000
5,50.8646620000,-0.0917125000,72.7000000000,6.3750000000,-3.0625000000,25.1250000000,image461.jpg,92238.1169960000
5,50.8646618333,-0.0917125000,72.7000000000,6.3750000000,-3.0625000000,25.1250000000,image462.jpg,92437.2351210000
5,50.8646616667,-0.0917123333,72.7000000000,6.3750000000,-3.0625000000,25.1250000000,image463.jpg,92637.0702250000
5,50.8646615000,-0.0917123333,72.7000000000,6.3750000000,-3.0625000000,25.1250000000,image464.jpg,92837.3266830000
5,50.8646615000,-0.0917123333,72.7000000000,6.3750000000,-3.0625000000,25.1250000000,image465.jpg,93037.8821520000
5,50.8646613333,-0.0917123333,72.7000000000,6.3750000000,-3.0625000000,25.1250000000,image466.jpg,93238.5564750000
5,50.8646611667,-0.0917121667,72.7000000000,6.3750000000,-3.0625000000,25.1250000000,image467.jpg,93438.6456420000
5,50.8646611667,-0.0917121667,72.7000000000,6.3750000000,-3.0625000000,25.1250000000,image468.jpg,93638.7498080000
5,50.8646610000,-0.0917120000,72.6000000000,6.3750000000,-3.0625000000,25.1250000000,image469.jpg,93837.6038710000
5,50.8646608333,-0.0917120000,72.6000000000,6.3750000000,-3.0625000000,25.1250000000,image470.jpg,94037.7772560000
5,50.8646608333,-0.0917120000,72.6000000000,6.3750000000,-3.0625000000,25.1250000000,image471.jpg,94238.0005370000
5,50.8646608333,-0.0917118333,72.6000000000,6.3750000000,-3.0625000000,25.1250000000,image472.jpg,94438.8686100000
5,50.8646608333,-0.0917118333,72.6000000000,6.3750000000,-3.0625000000,25.1250000000,image473.jpg,94639.1223600000
5,50.8646608333,-0.0917116667,72.5000000000,6.3750000000,-3.0625000000,25.1250000000,image474.jpg,94839.1563180000
5,50.8646608333,-0.0917116667,72.5000000000,6.3750000000,-3.0625000000,25.1250000000,image475.jpg,95038.7655890000
5,50.8646606667,-0.0917115000,72.5000000000,6.3750000000,-3.0625000000,25.1250000000,image476.jpg,95238.1511620000
5,50.8646606667,-0.0917113333,72.5000000000,6.3750000000,-3.0625000000,25.1250000000,image477.jpg,95438.2700160000
5,50.8646605000,-0.0917111667,72.4000000000,6.3750000000,-3.0625000000,25.1250000000,image478.jpg,95639.0337140000
5,50.8646605000,-0.0917110000,72.4000000000,6.3750000000,-3.0625000000,25.1250000000,image479.jpg,95839.3932450000
5,50.8646605000,-0.0917108333,72.4000000000,6.4375000000,-3.1250000000,25.0625000000,image480.jpg,96038.4949110000
5,50.8646605000,-0.0917105000,72.4000000000,6.3125000000,-3.1875000000,25.0000000000,image481.jpg,96238.5601200000
5,50.8646598333,-0.0917101667,72.4000000000,-0.3125000000,-1.4375000000,19.1250000000,image482.jpg,96438.6769430000
5,50.8646593333,-0.0917096667,72.5000000000,-2.0000000000,3.0625000000,15.0000000000,image483.jpg,96638.7129320000
2,50.8646598333,-0.0917073333,72.6000000000,-5.9375000000,5.8125000000,9.5000000000,image484.jpg,96839.1619420000
2,50.8646610000,-0.0917051667,72.6000000000,-6.6250000000,10.0000000000,359.8125000000,image485.jpg,97040.0223070000
2,50.8646626667,-0.0917035000,72.7000000000,-8.3750000000,19.1250000000,351.8125000000,image486.jpg,97239.8175670000
2,50.8646645000,-0.0917041667,72.7000000000,-16.4375000000,23.2500000000,344.5000000000,image487.jpg,97440.0177750000
2,50.8646655000,-0.0917035000,72.7000000000,-21.8750000000,19.6250000000,330.5000000000,image488.jpg,97639.7592340000
2,50.8646663333,-0.0917023333,72.7000000000,-25.8125000000,19.5000000000,315.5000000000,image489.jpg,97839.1125670000
2,50.8646681667,-0.0917010000,72.7000000000,-21.5000000000,17.5625000000,304.3125000000,image490.jpg,98039.2167860000
2,50.8646690000,-0.0917015000,72.8000000000,-24.8125000000,13.9375000000,297.8750000000,image491.jpg,98239.7458480000
2,50.8646706667,-0.0917016667,72.8000000000,-30.1875000000,16.8125000000,293.4375000000,image492.jpg,98440.4774100000
2,50.8646723333,-0.0917021667,72.8000000000,-25.0625000000,18.8125000000,292.1875000000,image493.jpg,98640.5589210000
2,50.8646746667,-0.0917035000,72.8000000000,-26.1250000000,19.8125000000,289.0625000000,image494.jpg,98840.7579830000
2,50.8646763333,-0.0917031667,72.9000000000,-28.0000000000,18.1875000000,284.9375000000,image495.jpg,99040.0739210000
2,50.8646786667,-0.0917045000,72.9000000000,-26.5625000000,15.0000000000,281.8125000000,image496.jpg,99239.7763690000
2,50.8646798333,-0.0917045000,72.9000000000,-31.5625000000,16.0625000000,282.1250000000,image497.jpg,99439.9029830000
2,50.8646806667,-0.0917061667,72.8000000000,-28.6875000000,15.1875000000,284.1250000000,image498.jpg,99640.5320980000
2,50.8646823333,-0.0917073333,72.8000000000,-30.0625000000,13.6250000000,285.5000000000,image499.jpg,99840.9300140000
