gps quality,lat,lon,altitude,roll,pitch,yaw,image name,timestamp
4,50.8634150000,-0.0939536667,56.6000000000,6.5000000000,-4.0625000000,359.9375000000,image0.jpg,2.6392860000
4,50.8634150000,-0.0939536667,56.6000000000,6.5000000000,-4.0625000000,359.9375000000,image1.jpg,202.4666640000
4,50.8634150000,-0.0939536667,56.6000000000,6.5000000000,-4.0625000000,359.9375000000,image2.jpg,402.2396750000
4,50.8634150000,-0.0939536667,56.6000000000,6.5000000000,-4.0625000000,359.9375000000,image3.jpg,601.7999580000
4,50.8634150000,-0.0939536667,56.6000000000,6.5000000000,-4.0625000000,359.9375000000,image4.jpg,801.8460530000
4,50.8634150000,-0.0939536667,56.6000000000,6.5000000000,-4.0625000000,0.0000000000,image5.jpg,1001.9166710000
4,50.8634150000,-0.0939536667,56.6000000000,7.1250000000,-3.8750000000,0.0000000000,image6.jpg,1202.8337800000
4,50.8634148333,-0.0939535000,56.6000000000,6.5625000000,-3.6250000000,0.0625000000,image7.jpg,1403.1718110000
4,50.8634141667,-0.0939531667,56.6000000000,6.3750000000,-3.2500000000,0.4375000000,image8.jpg,1603.2743560000
4,50.8634143333,-0.0939531667,56.6000000000,6.3125000000,-2.9375000000,0.3125000000,image9.jpg,1803.2192690000
4,50.8634143333,-0.0939530000,56.6000000000,9.3750000000,-1.6875000000,0.0625000000,image10.jpg,2002.4126240000
4,50.8634136667,-0.0939521667,56.6000000000,13.5000000000,-2.3125000000,1.2500000000,image11.jpg,2202.4651740000
4,50.8634120000,-0.0939510000,56.6000000000,6.8750000000,-6.1875000000,1.5000000000,image12.jpg,2403.3982170000
4,50.8634118333,-0.0939513333,56.6000000000,6.8750000000,-3.8750000000,1.5000000000,image13.jpg,2603.5445550000
4,50.8634120000,-0.0939511667,56.6000000000,8.0000000000,-3.0625000000,1.5625000000,image14.jpg,2803.5889810000
4,50.8634120000,-0.0939511667,56.6000000000,8.0000000000,-3.2500000000,1.5625000000,image15.jpg,3002.7239020000
4,50.8634120000,-0.0939511667,56.6000000000,8.0000000000,-3.2500000000,1.5625000000,image16.jpg,3202.7843100000
4,50.8634120000,-0.0939511667,56.6000000000,7.4375000000,-3.2500000000,1.7500000000,image17.jpg,3403.3258950000
4,50.8634120000,-0.0939513333,56.6000000000,6.1875000000,-3.4375000000,1.7500000000,image18.jpg,3603.9715280000
4,50.8634120000,-0.0939513333,56.6000000000,4.8750000000,-1.4375000000,11.5625000000,image19.jpg,3804.0874480000
4,50.8634121667,-0.0939505000,56.7000000000,10.7500000000,6.2500000000,55.6875000000,image20.jpg,4004.0103690000
4,50.8634123333,-0.0939501667,56.8000000000,8.5000000000,8.8750000000,106.0625000000,image21.jpg,4203.1939710000
4,50.8634126667,-0.0939508333,56.8000000000,-2.6250000000,5.7500000000,144.9375000000,image22.jpg,4403.2488490000
4,50.8634125000,-0.0939508333,56.7000000000,-4.8750000000,0.3125000000,159.4375000000,image23.jpg,4603.8754140000
4,50.8634126667,-0.0939506667,56.6000000000,-3.6250000000,0.5000000000,157.9375000000,image24.jpg,4803.2699730000
4,50.8634126667,-0.0939505000,56.6000000000,-1.2500000000,1.6875000000,157.0625000000,image25.jpg,5003.3932710000
4,50.8634135000,-0.0939516667,56.6000000000,-3.1875000000,1.8125000000,157.3125000000,image26.jpg,5203.3893950000
4,50.8634136667,-0.0939526667,56.6000000000,-1.0000000000,1.9375000000,157.9375000000,image27.jpg,5403.4638420000
4,50.8634143333,-0.0939536667,56.6000000000,-2.1250000000,1.5000000000,158.5000000000,image28.jpg,5603.8161120000
4,50.8634148333,-0.0939543333,56.7000000000,-1.9375000000,1.3125000000,159.2500000000,image29.jpg,5803.6410120000
4,50.8634155000,-0.0939550000,56.7000000000,-2.1875000000,1.4375000000,161.6875000000,image30.jpg,6003.7218030000
4,50.8634158333,-0.0939555000,56.7000000000,0.0625000000,2.6250000000,164.0000000000,image31.jpg,6203.7629580000
4,50.8634163333,-0.0939561667,56.7000000000,0.1250000000,1.1875000000,166.1250000000,image32.jpg,6403.8294220000
4,50.8634166667,-0.0939566667,56.7000000000,-1.5625000000,1.5625000000,167.4375000000,image33.jpg,6604.0686730000
4,50.8634171667,-0.0939573333,56.7000000000,-1.2500000000,1.8750000000,168.1250000000,image34.jpg,6805.0522940000
4,50.8634176667,-0.0939576667,56.7000000000,-3.5000000000,1.8125000000,168.5625000000,image35.jpg,7005.1185420000
4,50.8634181667,-0.0939583333,56.7000000000,-0.6250000000,0.7500000000,169.0000000000,image36.jpg,7205.0870330000
4,50.8634188333,-0.0939591667,56.7000000000,-1.3750000000,0.5000000000,169.6250000000,image37.jpg,7404.1891400000
4,50.8634195000,-0.0939596667,56.7000000000,-2.6875000000,-1.0000000000,170.8125000000,image38.jpg,7604.2857890000
4,50.8634201667,-0.0939605000,56.7000000000,-2.5625000000,-1.0625000000,170.9375000000,image39.jpg,7804.8765860000
4,50.8634206667,-0.0939611667,56.7000000000,0.4375000000,-0.5625000000,171.1250000000,image40.jpg,8005.4685170000
4,50.8634213333,-0.0939616667,56.7000000000,-1.6875000000,-0.4375000000,171.0000000000,image41.jpg,8205.5333270000
4,50.8634220000,-0.0939623333,56.7000000000,-1.0625000000,-0.2500000000,171.5625000000,image42.jpg,8405.4970060000
4,50.8634225000,-0.0939630000,56.6000000000,0.2500000000,0.0000000000,172.1875000000,image43.jpg,8604.6212750000
4,50.8634231667,-0.0939636667,56.6000000000,1.1875000000,0.3750000000,173.5000000000,image44.jpg,8804.7189440000
4,50.8634238333,-0.0939643333,56.7000000000,0.8750000000,0.9375000000,173.3750000000,image45.jpg,9005.8964990000
4,50.8634243333,-0.0939650000,56.7000000000,-0.1250000000,1.3750000000,173.5000000000,image46.jpg,9205.7899550000
4,50.8634250000,-0.0939653333,56.6000000000,0.5000000000,0.3125000000,173.8125000000,image47.jpg,9405.8622920000
4,50.8634258333,-0.0939661667,56.7000000000,0.1250000000,-0.3750000000,174.0000000000,image48.jpg,9605.0330400000
4,50.8634263333,-0.0939666667,56.7000000000,1.6875000000,-0.6250000000,174.8750000000,image49.jpg,9805.1273530000
4,50.8634271667,-0.0939673333,56.7000000000,1.2500000000,-1.1250000000,174.6250000000,image50.jpg,10005.6227440000
4,50.8634278333,-0.0939678333,56.7000000000,1.1250000000,-0.9375000000,174.9375000000,image51.jpg,10205.2435560000
4,50.8634285000,-0.0939685000,56.7000000000,-0.0625000000,-0.5000000000,175.1250000000,image52.jpg,10405.3050860000
4,50.8634291667,-0.0939691667,56.7000000000,2.3750000000,-1.1250000000,175.5625000000,image53.jpg,10605.4742050000
4,50.8634298333,-0.0939698333,56.7000000000,3.6875000000,-0.8750000000,177.2500000000,image54.jpg,10805.4829820000
4,50.8634305000,-0.0939703333,56.7000000000,4.9375000000,-1.4375000000,178.1875000000,image55.jpg,11005.6178750000
4,50.8634311667,-0.0939708333,56.7000000000,5.0000000000,-1.3750000000,178.2500000000,image56.jpg,11205.6047510000
4,50.8634318333,-0.0939715000,56.7000000000,7.5625000000,1.7500000000,178.6875000000,image57.jpg,11405.6982780000
4,50.8634321667,-0.0939720000,56.7000000000,8.6250000000,2.3125000000,179.6875000000,image58.jpg,11605.7532170000
4,50.8634328333,-0.0939723333,56.7000000000,6.2500000000,1.4375000000,183.1875000000,image59.jpg,11805.8462750000
4,50.8634335000,-0.0939728333,56.6000000000,6.6250000000,1.7500000000,184.1250000000,image60.jpg,12005.9292130000
4,50.8634341667,-0.0939731667,56.7000000000,6.3750000000,2.1250000000,183.2500000000,image61.jpg,12206.6770940000
4,50.8634346667,-0.0939735000,56.7000000000,5.6250000000,0.1875000000,183.6875000000,image62.jpg,12407.0078470000
4,50.8634350000,-0.0939740000,56.7000000000,7.9375000000,-0.3750000000,183.2500000000,image63.jpg,12607.0858230000
4,50.8634358333,-0.0939741667,56.7000000000,6.5000000000,0.8125000000,183.2500000000,image64.jpg,12806.5938790000
4,50.8634363333,-0.0939746667,56.7000000000,7.4375000000,1.3750000000,184.3750000000,image65.jpg,13006.3209000000
4,50.8634368333,-0.0939748333,56.7000000000,7.0625000000,0.2500000000,184.8125000000,image66.jpg,13206.5724620000
4,50.8634373333,-0.0939751667,56.7000000000,6.1875000000,0.0000000000,185.1875000000,image67.jpg,13407.3655620000
4,50.8634378333,-0.0939753333,56.7000000000,6.8125000000,-0.2500000000,185.8125000000,image68.jpg,13607.4579280000
4,50.8634385000,-0.0939758333,56.7000000000,6.1250000000,0.1875000000,186.0625000000,image69.jpg,13807.6002340000
4,50.8634391667,-0.0939761667,56.7000000000,5.3750000000,-0.2500000000,186.3750000000,image70.jpg,14006.6242440000
4,50.8634398333,-0.0939765000,56.7000000000,5.6250000000,0.2500000000,186.5625000000,image71.jpg,14206.6834510000
4,50.8634403333,-0.0939768333,56.7000000000,4.8125000000,0.3125000000,186.8750000000,image72.jpg,14407.3905360000
4,50.8634410000,-0.0939770000,56.7000000000,2.8125000000,-0.0625000000,186.5625000000,image73.jpg,14607.8651540000
4,50.8634416667,-0.0939773333,56.7000000000,3.1875000000,-0.2500000000,186.1875000000,image74.jpg,14807.8587450000
4,50.8634423333,-0.0939775000,56.7000000000,1.3750000000,-0.6250000000,186.6875000000,image75.jpg,15007.3670750000
4,50.8634430000,-0.0939780000,56.7000000000,2.7500000000,-1.4375000000,187.4375000000,image76.jpg,15207.0481170000
4,50.8634435000,-0.0939781667,56.7000000000,1.7500000000,-0.6250000000,187.6875000000,image77.jpg,15407.3843800000
4,50.8634441667,-0.0939783333,56.7000000000,-0.1875000000,-1.1250000000,185.3750000000,image78.jpg,15607.1966530000
4,50.8634446667,-0.0939788333,56.7000000000,-0.1250000000,-0.9375000000,181.3750000000,image79.jpg,15807.2384260000
4,50.8634453333,-0.0939793333,56.7000000000,0.1250000000,-0.2500000000,179.5000000000,image80.jpg,16007.3293420000
4,50.8634460000,-0.0939800000,56.7000000000,0.3125000000,-1.2500000000,180.7500000000,image81.jpg,16207.4055980000
4,50.8634465000,-0.0939803333,56.7000000000,0.3750000000,-0.5625000000,181.1875000000,image82.jpg,16407.4256120000
4,50.8634473333,-0.0939805000,56.7000000000,0.7500000000,-0.1250000000,183.2500000000,image83.jpg,16607.4962440000
4,50.8634480000,-0.0939811667,56.7000000000,1.4375000000,-0.6875000000,183.7500000000,image84.jpg,16807.5530230000
4,50.8634486667,-0.0939816667,56.7000000000,0.5625000000,-0.9375000000,183.8750000000,image85.jpg,17007.6543100000
4,50.8634495000,-0.0939820000,56.7000000000,2.3750000000,-0.9375000000,184.9375000000,image86.jpg,17207.7176570000
4,50.8634501667,-0.0939823333,56.7000000000,1.2500000000,-1.2500000000,186.6875000000,image87.jpg,17407.7895970000
4,50.8634510000,-0.0939828333,56.7000000000,1.6250000000,-1.3125000000,187.6875000000,image88.jpg,17608.3209010000
4,50.8634516667,-0.0939831667,56.7000000000,1.0000000000,-1.1875000000,188.4375000000,image89.jpg,17808.9216750000
4,50.8634525000,-0.0939836667,56.7000000000,2.5625000000,-2.3125000000,189.8750000000,image90.jpg,18008.8938190000
4,50.8634533333,-0.0939840000,56.7000000000,1.0000000000,-1.7500000000,190.3750000000,image91.jpg,18209.0683010000
4,50.8634541667,-0.0939841667,56.7000000000,2.3750000000,-3.2500000000,190.9375000000,image92.jpg,18408.0894500000
4,50.8634550000,-0.0939843333,56.7000000000,1.1875000000,-2.0000000000,191.8125000000,image93.jpg,18608.1654550000
4,50.8634556667,-0.0939848333,56.7000000000,1.6250000000,-0.1250000000,191.7500000000,image94.jpg,18809.0865540000
4,50.8634565000,-0.0939850000,56.7000000000,1.6875000000,-0.5625000000,191.7500000000,image95.jpg,19009.1992540000
4,50.8634571667,-0.0939853333,56.7000000000,0.4375000000,0.0000000000,191.5000000000,image96.jpg,19209.2657830000
4,50.8634580000,-0.0939856667,56.7000000000,1.4375000000,0.6250000000,190.6250000000,image97.jpg,19408.3973340000
4,50.8634586667,-0.0939858333,56.7000000000,2.5625000000,-1.3125000000,190.6250000000,image98.jpg,19608.4600610000
4,50.8634596667,-0.0939861667,56.7000000000,3.5000000000,-0.6250000000,190.7500000000,image99.jpg,19808.8329020000
4,50.8634603333,-0.0939863333,56.7000000000,2.1875000000,-0.3750000000,191.6250000000,image100.jpg,20009.5373980000
4,50.8634611667,-0.0939870000,56.7000000000,3.2500000000,-1.6875000000,191.8125000000,image101.jpg,20209.6265260000
4,50.8634620000,-0.0939870000,56.7000000000,4.4375000000,-0.9375000000,192.5000000000,image102.jpg,20409.7181540000
4,50.8634626667,-0.0939875000,56.7000000000,5.1250000000,-1.0000000000,193.6875000000,image103.jpg,20608.8148120000
4,50.8634633333,-0.0939876667,56.7000000000,4.3125000000,-1.5000000000,195.7500000000,image104.jpg,20808.8802460000
4,50.8634641667,-0.0939876667,56.7000000000,4.0625000000,0.3750000000,196.0625000000,image105.jpg,21008.9517480000
4,50.8634650000,-0.0939880000,56.7000000000,3.7500000000,-0.5625000000,196.4375000000,image106.jpg,21208.9848900000
4,50.8634656667,-0.0939881667,56.7000000000,4.8750000000,0.0000000000,196.7500000000,image107.jpg,21409.1026050000
4,50.8634663333,-0.0939883333,56.7000000000,3.3750000000,0.0000000000,198.0625000000,image108.jpg,21609.1532450000
4,50.8634673333,-0.0939883333,56.7000000000,3.6875000000,-1.0000000000,198.1875000000,image109.jpg,21809.2317460000
4,50.8634680000,-0.0939885000,56.7000000000,2.9375000000,-0.7500000000,198.5000000000,image110.jpg,22009.3773490000
4,50.8634690000,-0.0939886667,56.7000000000,3.3750000000,-1.5625000000,199.1875000000,image111.jpg,22209.3477850000
4,50.8634696667,-0.0939888333,56.7000000000,3.6875000000,-1.0625000000,200.1250000000,image112.jpg,22409.4228950000
4,50.8634705000,-0.0939888333,56.7000000000,3.5625000000,-1.2500000000,200.8125000000,image113.jpg,22609.5137840000
4,50.8634713333,-0.0939886667,56.7000000000,2.8750000000,-1.3125000000,201.0625000000,image114.jpg,22809.5956640000
4,50.8634723333,-0.0939888333,56.7000000000,2.1875000000,-2.0625000000,201.1250000000,image115.jpg,23009.6634580000
4,50.8634733333,-0.0939890000,56.7000000000,4.2500000000,-1.8750000000,200.1250000000,image116.jpg,23210.6591670000
4,50.8634741667,-0.0939891667,56.7000000000,3.0000000000,-1.1875000000,198.9375000000,image117.jpg,23410.7523390000
4,50.8634751667,-0.0939893333,56.7000000000,3.5000000000,-1.2500000000,199.3750000000,image118.jpg,23610.8698820000
4,50.8634761667,-0.0939893333,56.7000000000,3.6250000000,-1.1250000000,199.6250000000,image119.jpg,23810.3110570000
4,50.8634770000,-0.0939896667,56.7000000000,3.3750000000,-2.3750000000,199.1875000000,image120.jpg,24010.0684130000
4,50.8634778333,-0.0939896667,56.8000000000,1.8125000000,-1.8750000000,196.4375000000,image121.jpg,24210.4298720000
4,50.8634788333,-0.0939900000,56.7000000000,1.3125000000,-1.6875000000,194.2500000000,image122.jpg,24411.1150910000
4,50.8634796667,-0.0939903333,56.8000000000,1.9375000000,-1.3750000000,194.6250000000,image123.jpg,24611.3179770000
4,50.8634805000,-0.0939905000,56.8000000000,2.4375000000,-1.1875000000,194.7500000000,image124.jpg,24811.2609500000
4,50.8634815000,-0.0939906667,56.8000000000,2.8125000000,-1.0000000000,193.5625000000,image125.jpg,25010.4484210000
4,50.8634823333,-0.0939910000,56.8000000000,0.8750000000,-2.1875000000,190.1875000000,image126.jpg,25210.4743380000
4,50.8634831667,-0.0939913333,56.8000000000,0.0625000000,-2.3750000000,187.1875000000,image127.jpg,25411.4219060000
4,50.8634840000,-0.0939918333,56.8000000000,0.0000000000,-2.3750000000,186.1875000000,image128.jpg,25611.6125930000
4,50.8634848333,-0.0939923333,56.7000000000,0.6875000000,-1.4375000000,185.5625000000,image129.jpg,25811.6327300000
4,50.8634856667,-0.0939928333,56.8000000000,2.9375000000,0.3125000000,185.8125000000,image130.jpg,26010.7607120000
4,50.8634865000,-0.0939930000,56.7000000000,1.7500000000,-0.8750000000,186.4375000000,image131.jpg,26210.7963010000
4,50.8634873333,-0.0939936667,56.8000000000,3.5000000000,-0.9375000000,186.4375000000,image132.jpg,26411.3702040000
4,50.8634881667,-0.0939940000,56.7000000000,2.0625000000,-0.4375000000,187.5625000000,image133.jpg,26610.9651210000
4,50.8634888333,-0.0939943333,56.8000000000,3.5000000000,-1.7500000000,188.7500000000,image134.jpg,26811.0168530000
4,50.8634898333,-0.0939948333,56.7000000000,3.9375000000,-2.2500000000,191.3750000000,image135.jpg,27011.0857370000
4,50.8634906667,-0.0939953333,56.7000000000,7.2500000000,-3.1250000000,191.0625000000,image136.jpg,27211.1077160000
4,50.8634915000,-0.0939953333,56.7000000000,3.4375000000,-3.1250000000,191.3125000000,image137.jpg,27411.2347340000
4,50.8634923333,-0.0939958333,56.7000000000,5.2500000000,-2.3750000000,191.6250000000,image138.jpg,27611.2933220000
4,50.8634931667,-0.0939961667,56.7000000000,7.8750000000,-2.3125000000,191.8125000000,image139.jpg,27811.4151320000
4,50.8634941667,-0.0939965000,56.7000000000,4.1875000000,0.0000000000,191.3125000000,image140.jpg,28011.4445250000
4,50.8634950000,-0.0939968333,56.7000000000,5.5000000000,0.6250000000,190.1250000000,image141.jpg,28211.5522540000
4,50.8634958333,-0.0939970000,56.7000000000,4.3750000000,1.3750000000,189.3750000000,image142.jpg,28411.6361840000
4,50.8634966667,-0.0939976667,56.7000000000,6.0000000000,1.5000000000,188.1250000000,image143.jpg,28612.4014330000
4,50.8634976667,-0.0939980000,56.8000000000,4.1875000000,-0.0625000000,188.4375000000,image144.jpg,28812.6909100000
4,50.8634985000,-0.0939983333,56.8000000000,2.6875000000,-2.1875000000,188.1250000000,image145.jpg,29012.7932950000
4,50.8634995000,-0.0939986667,56.8000000000,2.1250000000,-3.0625000000,188.4375000000,image146.jpg,29212.7386790000
4,50.8635001667,-0.0939991667,56.8000000000,3.1250000000,-1.2500000000,187.1875000000,image147.jpg,29411.9622290000
4,50.8635010000,-0.0939995000,56.8000000000,1.9375000000,-0.3125000000,183.8750000000,image148.jpg,29612.1047230000
4,50.8635018333,-0.0940001667,56.8000000000,2.0625000000,-0.5625000000,181.8125000000,image149.jpg,29813.1156480000
4,50.8635026667,-0.0940005000,56.8000000000,1.6875000000,-0.9375000000,181.5625000000,image150.jpg,30013.1338050000
4,50.8635035000,-0.0940010000,56.8000000000,2.5000000000,-0.6875000000,181.2500000000,image151.jpg,30213.2171160000
4,50.8635043333,-0.0940016667,56.8000000000,3.5625000000,-0.3125000000,180.9375000000,image152.jpg,30412.2557170000
4,50.8635050000,-0.0940021667,56.8000000000,3.1875000000,-0.1875000000,179.3125000000,image153.jpg,30612.3591820000
4,50.8635060000,-0.0940028333,56.8000000000,2.8125000000,0.0000000000,178.5000000000,image154.jpg,30812.9095700000
4,50.8635066667,-0.0940035000,56.8000000000,2.9375000000,-0.0625000000,178.1875000000,image155.jpg,31013.4383650000
4,50.8635076667,-0.0940041667,56.8000000000,3.0000000000,-0.3750000000,178.7500000000,image156.jpg,31213.4446810000
4,50.8635083333,-0.0940048333,56.8000000000,2.5000000000,-0.7500000000,177.2500000000,image157.jpg,31413.3391370000
4,50.8635091667,-0.0940055000,56.8000000000,4.3750000000,-0.7500000000,175.6875000000,image158.jpg,31612.6679340000
4,50.8635098333,-0.0940061667,56.8000000000,3.3125000000,-1.1875000000,174.9375000000,image159.jpg,31812.9260410000
4,50.8635106667,-0.0940068333,56.8000000000,3.5000000000,-0.9375000000,175.1875000000,image160.jpg,32012.8081210000
4,50.8635115000,-0.0940075000,56.8000000000,2.3750000000,-1.3125000000,175.4375000000,image161.jpg,32212.8509150000
4,50.8635121667,-0.0940081667,56.8000000000,3.7500000000,-0.6250000000,175.8750000000,image162.jpg,32412.9366720000
4,50.8635130000,-0.0940088333,56.8000000000,2.8750000000,-0.1875000000,175.2500000000,image163.jpg,32612.9900370000
4,50.8635136667,-0.0940093333,56.8000000000,3.3125000000,-0.1250000000,174.7500000000,image164.jpg,32813.0873550000
4,50.8635145000,-0.0940101667,56.8000000000,3.3125000000,-0.8125000000,174.6250000000,image165.jpg,33013.4029460000
4,50.8635153333,-0.0940110000,56.8000000000,3.5625000000,-1.2500000000,173.1250000000,image166.jpg,33213.1751190000
4,50.8635160000,-0.0940116667,56.8000000000,2.4375000000,-1.3125000000,172.0625000000,image167.jpg,33413.2019470000
4,50.8635166667,-0.0940123333,56.8000000000,3.1875000000,-1.5000000000,170.6875000000,image168.jpg,33613.3023600000
4,50.8635171667,-0.0940131667,56.8000000000,2.3750000000,-0.5000000000,169.8125000000,image169.jpg,33813.4232390000
4,50.8635180000,-0.0940138333,56.8000000000,2.4375000000,-0.4375000000,169.3750000000,image170.jpg,34013.8447740000
4,50.8635185000,-0.0940145000,56.8000000000,2.3125000000,-0.3125000000,168.8750000000,image171.jpg,34214.5153450000
4,50.8635191667,-0.0940153333,56.8000000000,2.9375000000,-1.1875000000,168.4375000000,image172.jpg,34414.5473490000
4,50.8635198333,-0.0940160000,56.8000000000,3.3125000000,-0.6875000000,167.6875000000,image173.jpg,34614.5952360000
4,50.8635203333,-0.0940166667,56.8000000000,1.5625000000,-0.6250000000,167.1875000000,image174.jpg,34813.6554340000
4,50.8635208333,-0.0940173333,56.8000000000,2.8750000000,-1.1250000000,166.1250000000,image175.jpg,35013.7749440000
4,50.8635215000,-0.0940181667,56.8000000000,3.5000000000,-0.6250000000,165.6875000000,image176.jpg,35214.5802550000
4,50.8635220000,-0.0940188333,56.8000000000,2.1875000000,-1.6250000000,165.1250000000,image177.jpg,35414.8804210000
4,50.8635226667,-0.0940195000,56.8000000000,1.8125000000,-1.6875000000,164.6250000000,image178.jpg,35614.9195260000
4,50.8635231667,-0.0940203333,56.8000000000,2.2500000000,-1.2500000000,164.6250000000,image179.jpg,35814.5029060000
4,50.8635236667,-0.0940210000,56.8000000000,1.8125000000,-1.8125000000,164.3125000000,image180.jpg,36014.1095280000
4,50.8635241667,-0.0940216667,56.8000000000,1.2500000000,-1.3750000000,163.3750000000,image181.jpg,36214.5282370000
4,50.8635246667,-0.0940225000,56.8000000000,1.5625000000,-2.0000000000,162.5625000000,image182.jpg,36415.2338380000
4,50.8635251667,-0.0940233333,56.8000000000,2.0000000000,-1.7500000000,162.3125000000,image183.jpg,36615.3060800000
4,50.8635258333,-0.0940241667,56.8000000000,1.1250000000,-1.5000000000,161.8750000000,image184.jpg,36815.3620740000
4,50.8635263333,-0.0940250000,56.8000000000,1.0000000000,-1.8750000000,161.1250000000,image185.jpg,37014.4933520000
4,50.8635270000,-0.0940260000,56.8000000000,0.4375000000,-1.3750000000,160.7500000000,image186.jpg,37214.5655560000
4,50.8635276667,-0.0940270000,56.8000000000,1.6250000000,-1.3125000000,160.4375000000,image187.jpg,37415.3841260000
4,50.8635283333,-0.0940280000,56.8000000000,1.0625000000,-1.6875000000,159.8750000000,image188.jpg,37614.6783010000
4,50.8635293333,-0.0940295000,56.8000000000,0.6250000000,0.2500000000,159.3125000000,image189.jpg,37814.7484220000
4,50.8635303333,-0.0940311667,56.8000000000,1.1875000000,0.0000000000,158.7500000000,image190.jpg,38014.8317290000
4,50.8635310000,-0.0940323333,56.8000000000,1.9375000000,-0.6875000000,158.0625000000,image191.jpg,38214.8808230000
4,50.8635318333,-0.0940335000,56.8000000000,0.6250000000,-1.1250000000,157.7500000000,image192.jpg,38415.1416110000
4,50.8635325000,-0.0940348333,56.8000000000,-0.0625000000,-1.3750000000,156.0000000000,image193.jpg,38615.0230690000
4,50.8635331667,-0.0940360000,56.8000000000,-0.5000000000,-0.9375000000,151.5625000000,image194.jpg,38815.0965350000
4,50.8635336667,-0.0940376667,56.8000000000,0.2500000000,-1.0000000000,145.3125000000,image195.jpg,39015.1863640000
4,50.8635343333,-0.0940395000,56.9000000000,0.6875000000,-0.5625000000,139.1875000000,image196.jpg,39215.2280740000
4,50.8635348333,-0.0940416667,56.9000000000,2.2500000000,0.1875000000,136.5000000000,image197.jpg,39415.3003010000
4,50.8635353333,-0.0940440000,56.8000000000,2.1250000000,0.5625000000,136.5000000000,image198.jpg,39616.3143410000
4,50.8635358333,-0.0940461667,56.9000000000,3.2500000000,0.1875000000,137.3125000000,image199.jpg,39816.4075550000
4,50.8635365000,-0.0940485000,56.9000000000,3.1875000000,1.0625000000,139.0625000000,image200.jpg,40016.6032670000
4,50.8635371667,-0.0940506667,56.9000000000,4.1250000000,0.5625000000,144.1875000000,image201.jpg,40215.5664710000
4,50.8635381667,-0.0940526667,56.9000000000,3.5000000000,-0.6250000000,148.6250000000,image202.jpg,40415.6712550000
4,50.8635391667,-0.0940546667,56.9000000000,3.7500000000,-0.1250000000,151.1875000000,image203.jpg,40616.0322060000
4,50.8635400000,-0.0940568333,56.9000000000,2.3750000000,0.1875000000,149.3125000000,image204.jpg,40816.7811310000
4,50.8635408333,-0.0940588333,56.9000000000,4.6250000000,-0.6875000000,146.8125000000,image205.jpg,41016.8447310000
4,50.8635415000,-0.0940610000,56.9000000000,4.5625000000,-2.3125000000,149.6250000000,image206.jpg,41217.0363870000
4,50.8635425000,-0.0940630000,56.9000000000,5.9375000000,-2.0625000000,156.1875000000,image207.jpg,41416.0328220000
4,50.8635435000,-0.0940646667,56.9000000000,5.2500000000,-0.8750000000,157.4375000000,image208.jpg,41616.1079300000
4,50.8635445000,-0.0940666667,56.9000000000,3.3125000000,-1.5625000000,155.4375000000,image209.jpg,41817.0686590000
4,50.8635453333,-0.0940685000,56.9000000000,5.0625000000,-2.1250000000,153.6250000000,image210.jpg,42017.1983520000
4,50.8635463333,-0.0940705000,56.9000000000,5.8750000000,-1.3125000000,153.6250000000,image211.jpg,42217.2562270000
4,50.8635473333,-0.0940725000,56.9000000000,4.4375000000,-1.5000000000,152.7500000000,image212.jpg,42416.3757770000
4,50.8635483333,-0.0940745000,56.9000000000,5.6875000000,-1.1250000000,151.3750000000,image213.jpg,42616.4689610000
4,50.8635493333,-0.0940765000,56.9000000000,6.1250000000,-0.4375000000,150.5000000000,image214.jpg,42816.9762610000
4,50.8635501667,-0.0940785000,56.9000000000,6.0000000000,-1.1250000000,150.1875000000,image215.jpg,43016.6015400000
4,50.8635510000,-0.0940805000,56.9000000000,6.0625000000,-0.7500000000,152.0625000000,image216.jpg,43216.6356710000
4,50.8635520000,-0.0940825000,56.9000000000,4.6250000000,-1.0000000000,154.2500000000,image217.jpg,43416.7267230000
4,50.8635531667,-0.0940843333,56.9000000000,3.5625000000,-0.9375000000,155.6250000000,image218.jpg,43616.7835610000
4,50.8635540000,-0.0940861667,56.9000000000,2.8125000000,0.3750000000,156.6875000000,image219.jpg,43816.8446160000
4,50.8635551667,-0.0940878333,56.9000000000,3.2500000000,0.7500000000,156.2500000000,image220.jpg,44016.9580680000
4,50.8635560000,-0.0940896667,56.9000000000,4.3125000000,0.3750000000,154.0000000000,image221.jpg,44216.9774110000
4,50.8635571667,-0.0940916667,56.9000000000,3.2500000000,-0.6875000000,154.4375000000,image222.jpg,44417.0807560000
4,50.8635580000,-0.0940935000,56.9000000000,5.0000000000,-1.6250000000,154.1875000000,image223.jpg,44617.1388970000
4,50.8635590000,-0.0940953333,56.9000000000,4.4375000000,0.0000000000,153.1875000000,image224.jpg,44817.2081310000
4,50.8635598333,-0.0940973333,56.9000000000,5.8125000000,-0.1875000000,152.0625000000,image225.jpg,45018.0691540000
4,50.8635606667,-0.0940991667,56.9000000000,5.6875000000,-0.0625000000,152.0625000000,image226.jpg,45218.3402390000
4,50.8635616667,-0.0941013333,56.9000000000,7.0000000000,0.5625000000,152.8125000000,image227.jpg,45418.3935890000
4,50.8635625000,-0.0941033333,56.9000000000,6.6250000000,0.5625000000,153.2500000000,image228.jpg,45618.1101570000
4,50.8635635000,-0.0941050000,56.9000000000,6.7500000000,-0.1250000000,153.6875000000,image229.jpg,45817.5510800000
4,50.8635645000,-0.0941070000,56.9000000000,7.0625000000,-0.5625000000,153.6250000000,image230.jpg,46017.7161430000
4,50.8635655000,-0.0941090000,57.0000000000,6.9375000000,-0.6875000000,154.2500000000,image231.jpg,46218.6138720000
4,50.8635665000,-0.0941108333,57.0000000000,6.1875000000,-1.3125000000,157.1250000000,image232.jpg,46418.6935200000
4,50.8635675000,-0.0941125000,57.0000000000,5.5000000000,0.3750000000,157.6875000000,image233.jpg,46618.7252050000
4,50.8635685000,-0.0941141667,57.0000000000,5.0625000000,-0.6250000000,159.0000000000,image234.jpg,46817.8563710000
4,50.8635696667,-0.0941158333,57.0000000000,5.4375000000,-0.9375000000,159.3125000000,image235.jpg,47017.9581580000
4,50.8635706667,-0.0941176667,57.0000000000,6.3125000000,-0.3125000000,159.1875000000,image236.jpg,47219.7578100000
4,50.8635718333,-0.0941193333,57.0000000000,6.0000000000,0.2500000000,159.7500000000,image237.jpg,47419.0173950000
4,50.8635726667,-0.0941210000,57.0000000000,5.0625000000,-1.0000000000,159.3750000000,image238.jpg,47619.0920930000
4,50.8635738333,-0.0941226667,57.0000000000,3.4375000000,-1.8750000000,156.3125000000,image239.jpg,47818.4283880000
4,50.8635746667,-0.0941245000,57.0000000000,2.1875000000,-0.6875000000,151.5000000000,image240.jpg,48018.7955570000
4,50.8635756667,-0.0941261667,57.0000000000,3.2500000000,-0.8125000000,151.8125000000,image241.jpg,48218.7632320000
4,50.8635765000,-0.0941281667,57.0000000000,2.5625000000,-2.0625000000,155.2500000000,image242.jpg,48418.9436940000
4,50.8635775000,-0.0941300000,57.0000000000,3.8750000000,-2.7500000000,159.3125000000,image243.jpg,48618.5199040000
4,50.8635788333,-0.0941315000,57.0000000000,3.3750000000,-2.3750000000,160.3750000000,image244.jpg,48819.0517320000
4,50.8635796667,-0.0941331667,57.0000000000,5.9375000000,-2.5000000000,160.0000000000,image245.jpg,49018.5824840000
4,50.8635808333,-0.0941350000,57.0000000000,5.6875000000,-0.4375000000,161.8750000000,image246.jpg,49218.6681590000
4,50.8635818333,-0.0941363333,57.0000000000,3.8750000000,-1.5000000000,161.8750000000,image247.jpg,49418.6888430000
4,50.8635828333,-0.0941380000,57.0000000000,4.5625000000,-1.5000000000,158.4375000000,image248.jpg,49618.8259710000
4,50.8635840000,-0.0941395000,57.0000000000,3.1875000000,-1.0625000000,157.6250000000,image249.jpg,49818.8545170000
4,50.8635848333,-0.0941411667,57.0000000000,3.8125000000,-2.3125000000,157.6875000000,image250.jpg,50018.9561330000
4,50.8635858333,-0.0941426667,57.0000000000,4.6875000000,0.3750000000,158.3750000000,image251.jpg,50219.0094610000
4,50.8635866667,-0.0941443333,57.0000000000,3.8750000000,0.0000000000,157.5000000000,image252.jpg,50420.0027330000
4,50.8635876667,-0.0941461667,57.0000000000,3.1250000000,-0.8125000000,155.5625000000,image253.jpg,50620.1894830000
4,50.8635885000,-0.0941476667,57.0000000000,4.8750000000,-1.0000000000,156.1250000000,image254.jpg,50820.2775470000
4,50.8635895000,-0.0941491667,57.0000000000,4.7500000000,0.2500000000,158.5000000000,image255.jpg,51019.8830660000
4,50.8635905000,-0.0941506667,57.0000000000,3.1875000000,-1.0000000000,160.5000000000,image256.jpg,51219.2953130000
4,50.8635916667,-0.0941521667,57.0000000000,4.5000000000,-0.3750000000,161.1875000000,image257.jpg,51419.7058830000
4,50.8635925000,-0.0941538333,57.0000000000,3.2500000000,0.0000000000,160.9375000000,image258.jpg,51620.4403210000
4,50.8635935000,-0.0941553333,57.0000000000,5.6875000000,0.0625000000,162.9375000000,image259.jpg,51820.5715480000
4,50.8635946667,-0.0941566667,57.0000000000,4.6875000000,-1.0000000000,167.4375000000,image260.jpg,52020.7183490000
4,50.8635960000,-0.0941581667,57.0000000000,4.8750000000,-1.6250000000,168.6250000000,image261.jpg,52219.7360470000
4,50.8635970000,-0.0941593333,57.0000000000,2.6875000000,-1.1250000000,168.6250000000,image262.jpg,52419.8038330000
4,50.8635983333,-0.0941606667,57.0000000000,4.8750000000,-0.8125000000,167.7500000000,image263.jpg,52620.7410500000
4,50.8635993333,-0.0941621667,57.0000000000,1.1250000000,-0.5000000000,165.1250000000,image264.jpg,52820.8815360000
4,50.8636006667,-0.0941635000,57.0000000000,3.8750000000,-0.2500000000,165.8125000000,image265.jpg,53021.0303050000
4,50.8636016667,-0.0941651667,57.0000000000,2.7500000000,-1.3125000000,166.1250000000,image266.jpg,53220.1277730000
4,50.8636030000,-0.0941665000,57.0000000000,3.0000000000,-0.9375000000,166.8750000000,image267.jpg,53420.2238240000
4,50.8636041667,-0.0941678333,57.0000000000,0.9375000000,-1.6875000000,164.8750000000,image268.jpg,53620.6876460000
4,50.8636053333,-0.0941693333,57.0000000000,2.1875000000,-2.3125000000,163.5625000000,image269.jpg,53820.3622880000
4,50.8636063333,-0.0941708333,57.0000000000,0.6875000000,-0.1250000000,164.0000000000,image270.jpg,54020.3414260000
4,50.8636076667,-0.0941723333,57.0000000000,0.1250000000,-1.0625000000,162.3750000000,image271.jpg,54220.4242890000
4,50.8636086667,-0.0941740000,57.0000000000,0.4375000000,-2.1250000000,159.8125000000,image272.jpg,54420.5072030000
4,50.8636098333,-0.0941755000,57.1000000000,-1.5625000000,0.6250000000,160.6875000000,image273.jpg,54620.7087500000
4,50.8636108333,-0.0941770000,57.1000000000,0.6875000000,0.3750000000,161.0000000000,image274.jpg,54820.6235590000
4,50.8636120000,-0.0941786667,57.1000000000,0.8125000000,-1.3750000000,157.8125000000,image275.jpg,55020.7941720000
4,50.8636130000,-0.0941801667,57.1000000000,1.8750000000,0.1875000000,155.8125000000,image276.jpg,55220.7623970000
4,50.8636138333,-0.0941820000,57.1000000000,2.3750000000,-0.9375000000,155.5625000000,image277.jpg,55420.9452860000
4,50.8636150000,-0.0941840000,57.1000000000,2.6250000000,-1.1250000000,155.8750000000,image278.jpg,55620.8918990000
4,50.8636160000,-0.0941856667,57.1000000000,0.6875000000,0.0000000000,156.5625000000,image279.jpg,55822.5751900000
4,50.8636170000,-0.0941873333,57.1000000000,1.5625000000,-1.8750000000,156.3125000000,image280.jpg,56022.0091010000
4,50.8636180000,-0.0941891667,57.1000000000,1.0625000000,-1.4375000000,156.4375000000,image281.jpg,56222.9112140000
4,50.8636191667,-0.0941908333,57.1000000000,1.2500000000,0.0000000000,160.1250000000,image282.jpg,56421.5084330000
4,50.8636203333,-0.0941921667,57.1000000000,2.2500000000,-1.5000000000,163.2500000000,image283.jpg,56621.4188880000
4,50.8636215000,-0.0941938333,57.1000000000,0.4375000000,-2.9375000000,163.3125000000,image284.jpg,56821.7106020000
4,50.8636226667,-0.0941955000,57.1000000000,2.6250000000,-2.3125000000,163.4375000000,image285.jpg,57022.9884010000
4,50.8636238333,-0.0941968333,57.1000000000,-0.3125000000,-2.4375000000,162.2500000000,image286.jpg,57222.6389200000
4,50.8636248333,-0.0941986667,57.1000000000,0.5625000000,-2.0000000000,159.1250000000,image287.jpg,57422.4997270000
4,50.8636258333,-0.0942000000,57.1000000000,-0.3125000000,-0.8750000000,158.8750000000,image288.jpg,57621.6977450000
4,50.8636268333,-0.0942016667,57.1000000000,0.3125000000,-0.3750000000,159.0625000000,image289.jpg,57821.8190440000
4,50.8636278333,-0.0942033333,57.1000000000,1.3125000000,-0.6250000000,158.6250000000,image290.jpg,58022.8772660000
4,50.8636290000,-0.0942048333,57.1000000000,0.4375000000,0.0000000000,156.4375000000,image291.jpg,58222.8876730000
4,50.8636298333,-0.0942061667,57.1000000000,1.3125000000,-0.5000000000,155.4375000000,image292.jpg,58422.8270990000
4,50.8636305000,-0.0942081667,57.1000000000,2.0000000000,-1.0000000000,154.7500000000,image293.jpg,58622.1340430000
4,50.8636315000,-0.0942095000,57.1000000000,2.8125000000,0.1875000000,152.7500000000,image294.jpg,58822.2110570000
4,50.8636320000,-0.0942110000,57.1000000000,3.8125000000,0.1875000000,150.8125000000,image295.jpg,59022.8651390000
4,50.8636326667,-0.0942126667,57.1000000000,0.2500000000,0.1250000000,145.6875000000,image296.jpg,59222.2659580000
4,50.8636331667,-0.0942145000,57.1000000000,2.0625000000,-0.1250000000,142.0000000000,image297.jpg,59422.4034660000
4,50.8636338333,-0.0942161667,57.1000000000,3.3750000000,0.6875000000,140.5000000000,image298.jpg,59622.4057290000
4,50.8636341667,-0.0942178333,57.1000000000,3.6875000000,-0.1250000000,140.8125000000,image299.jpg,59822.4655890000
4,50.8636348333,-0.0942196667,57.1000000000,3.3125000000,-0.7500000000,141.6250000000,image300.jpg,60022.7503160000
4,50.8636353333,-0.0942215000,57.1000000000,4.6250000000,-1.5000000000,142.0625000000,image301.jpg,60222.6191870000
4,50.8636358333,-0.0942231667,57.1000000000,3.5000000000,-0.6250000000,142.0000000000,image302.jpg,60422.7630260000
4,50.8636365000,-0.0942248333,57.1000000000,4.6875000000,0.2500000000,141.8125000000,image303.jpg,60622.6811100000
4,50.8636370000,-0.0942265000,57.1000000000,3.9375000000,0.3750000000,141.0000000000,image304.jpg,60822.9908170000
4,50.8636375000,-0.0942280000,57.1000000000,3.3125000000,-0.3125000000,141.0625000000,image305.jpg,61023.2713040000
4,50.8636380000,-0.0942298333,57.1000000000,3.4375000000,-0.8750000000,139.1875000000,image306.jpg,61224.4198000000
4,50.8636385000,-0.0942313333,57.2000000000,3.3750000000,0.0625000000,137.8750000000,image307.jpg,61424.4516510000
4,50.8636390000,-0.0942330000,57.2000000000,3.3750000000,-0.8125000000,138.0000000000,image308.jpg,61624.4004370000
4,50.8636393333,-0.0942348333,57.2000000000,2.4375000000,-1.1250000000,136.4375000000,image309.jpg,61823.4170350000
4,50.8636398333,-0.0942365000,57.2000000000,3.4375000000,-0.0625000000,135.1250000000,image310.jpg,62023.4560150000
4,50.8636401667,-0.0942381667,57.2000000000,3.4375000000,0.5625000000,135.2500000000,image311.jpg,62224.1621410000
4,50.8636406667,-0.0942398333,57.2000000000,3.1250000000,0.5625000000,135.6250000000,image312.jpg,62424.4662810000
4,50.8636411667,-0.0942413333,57.2000000000,3.2500000000,-0.3125000000,137.3750000000,image313.jpg,62624.7544840000
4,50.8636416667,-0.0942431667,57.2000000000,2.6250000000,-0.5625000000,138.5000000000,image314.jpg,62823.9368210000
4,50.8636421667,-0.0942446667,57.2000000000,3.1250000000,-0.1875000000,138.4375000000,image315.jpg,63023.7086700000
4,50.8636426667,-0.0942461667,57.2000000000,1.0000000000,1.9375000000,139.3125000000,image316.jpg,63224.0916300000
4,50.8636431667,-0.0942478333,57.2000000000,3.5000000000,-1.0000000000,139.4375000000,image317.jpg,63424.6351970000
4,50.8636436667,-0.0942496667,57.2000000000,2.1875000000,-1.1875000000,139.0000000000,image318.jpg,63624.8912430000
4,50.8636440000,-0.0942510000,57.2000000000,2.1250000000,-0.9375000000,138.3125000000,image319.jpg,63824.9020560000
4,50.8636445000,-0.0942526667,57.2000000000,1.3125000000,-0.4375000000,138.3750000000,image320.jpg,64024.0754560000
4,50.8636450000,-0.0942541667,57.2000000000,1.3750000000,-0.8125000000,140.0000000000,image321.jpg,64223.9949500000
4,50.8636453333,-0.0942556667,57.2000000000,3.3125000000,0.0000000000,142.1250000000,image322.jpg,64424.1395760000
4,50.8636460000,-0.0942571667,57.2000000000,0.7500000000,-1.5625000000,141.8750000000,image323.jpg,64624.2039500000
4,50.8636466667,-0.0942588333,57.2000000000,0.3125000000,-2.1875000000,140.6250000000,image324.jpg,64825.0542800000
4,50.8636470000,-0.0942605000,57.2000000000,1.7500000000,-1.2500000000,138.8125000000,image325.jpg,65024.7416060000
4,50.8636475000,-0.0942620000,57.2000000000,0.1875000000,-0.6875000000,136.0625000000,image326.jpg,65225.0692570000
4,50.8636476667,-0.0942635000,57.2000000000,2.8125000000,1.1250000000,134.9375000000,image327.jpg,65425.2126570000
4,50.8636481667,-0.0942651667,57.2000000000,1.6875000000,-0.6250000000,134.6250000000,image328.jpg,65625.0269270000
4,50.8636485000,-0.0942666667,57.2000000000,2.1250000000,0.5000000000,134.3125000000,image329.jpg,65825.1837110000
4,50.8636488333,-0.0942683333,57.2000000000,2.7500000000,-0.3750000000,135.7500000000,image330.jpg,66025.1920150000
4,50.8636493333,-0.0942698333,57.2000000000,2.1250000000,-0.8125000000,136.1250000000,image331.jpg,66225.2637790000
4,50.8636498333,-0.0942715000,57.2000000000,1.2500000000,-0.8125000000,136.6875000000,image332.jpg,66425.7481550000
4,50.8636503333,-0.0942731667,57.2000000000,2.3125000000,-1.4375000000,137.0625000000,image333.jpg,66626.6969070000
4,50.8636508333,-0.0942751667,57.2000000000,2.5625000000,-1.0000000000,136.6875000000,image334.jpg,66826.8374140000
4,50.8636513333,-0.0942768333,57.2000000000,2.4375000000,-0.5000000000,135.7500000000,image335.jpg,67026.7959550000
4,50.8636518333,-0.0942786667,57.3000000000,3.2500000000,-0.7500000000,135.0625000000,image336.jpg,67225.6168870000
4,50.8636521667,-0.0942803333,57.3000000000,4.3125000000,0.4375000000,134.3750000000,image337.jpg,67425.6938290000
4,50.8636526667,-0.0942821667,57.3000000000,3.6250000000,-1.0000000000,132.3125000000,image338.jpg,67626.5729230000
4,50.8636528333,-0.0942836667,57.3000000000,2.1875000000,0.3750000000,129.6875000000,image339.jpg,67826.9288450000
4,50.8636530000,-0.0942853333,57.3000000000,4.6875000000,0.5625000000,129.4375000000,image340.jpg,68026.9764070000
4,50.8636533333,-0.0942873333,57.3000000000,2.8750000000,-1.1250000000,129.2500000000,image341.jpg,68225.9020880000
4,50.8636536667,-0.0942891667,57.3000000000,3.3750000000,-0.1250000000,129.8750000000,image342.jpg,68426.0510220000
4,50.8636541667,-0.0942908333,57.3000000000,2.6250000000,-1.0625000000,130.4375000000,image343.jpg,68626.7689570000
4,50.8636545000,-0.0942930000,57.3000000000,2.6875000000,-1.1250000000,130.0625000000,image344.jpg,68827.3455000000
4,50.8636550000,-0.0942953333,57.3000000000,1.6875000000,-1.5000000000,129.6250000000,image345.jpg,69028.3965680000
4,50.8636553333,-0.0942975000,57.3000000000,1.6250000000,-1.5000000000,129.6875000000,image346.jpg,69227.5650550000
4,50.8636558333,-0.0943000000,57.3000000000,2.3750000000,-1.5000000000,130.6250000000,image347.jpg,69426.8098870000
4,50.8636563333,-0.0943023333,57.3000000000,1.5000000000,-1.3750000000,129.8125000000,image348.jpg,69626.8329170000
4,50.8636566667,-0.0943045000,57.3000000000,2.1250000000,-0.5000000000,127.9375000000,image349.jpg,69827.3883890000
4,50.8636570000,-0.0943068333,57.3000000000,1.3750000000,-0.0625000000,126.2500000000,image350.jpg,70027.3046500000
4,50.8636573333,-0.0943091667,57.3000000000,3.0625000000,-0.3125000000,124.8750000000,image351.jpg,70227.0589770000
4,50.8636575000,-0.0943115000,57.3000000000,3.0625000000,-0.2500000000,125.2500000000,image352.jpg,70427.0794730000
4,50.8636580000,-0.0943138333,57.3000000000,3.6875000000,-0.6250000000,128.1250000000,image353.jpg,70627.1459020000
4,50.8636583333,-0.0943161667,57.3000000000,2.3125000000,-1.3750000000,128.2500000000,image354.jpg,70827.3220580000
4,50.8636586667,-0.0943183333,57.3000000000,2.6875000000,-1.1250000000,127.4375000000,image355.jpg,71027.4542510000
4,50.8636590000,-0.0943205000,57.3000000000,1.9375000000,-0.7500000000,125.1875000000,image356.jpg,71227.5047090000
4,50.8636591667,-0.0943226667,57.3000000000,2.7500000000,-1.2500000000,122.6250000000,image357.jpg,71427.3897680000
4,50.8636593333,-0.0943251667,57.3000000000,3.1250000000,-0.2500000000,122.2500000000,image358.jpg,71627.4784510000
4,50.8636595000,-0.0943275000,57.3000000000,3.8750000000,0.4375000000,124.8125000000,image359.jpg,71828.2646640000
4,50.8636598333,-0.0943298333,57.3000000000,3.0000000000,-0.5625000000,127.8125000000,image360.jpg,72028.9006220000
4,50.8636603333,-0.0943321667,57.3000000000,4.3750000000,-0.8125000000,128.8125000000,image361.jpg,72229.2741870000
4,50.8636606667,-0.0943346667,57.3000000000,1.8125000000,-0.1250000000,129.4375000000,image362.jpg,72428.9958420000
4,50.8636610000,-0.0943368333,57.3000000000,3.9375000000,-0.8750000000,130.2500000000,image363.jpg,72628.4117490000
4,50.8636615000,-0.0943391667,57.3000000000,3.5000000000,-1.5625000000,131.0000000000,image364.jpg,72828.5337250000
4,50.8636620000,-0.0943416667,57.3000000000,3.9375000000,-0.3750000000,131.3750000000,image365.jpg,73029.5489830000
4,50.8636625000,-0.0943441667,57.3000000000,2.5625000000,-1.1875000000,128.9375000000,image366.jpg,73229.4803700000
4,50.8636628333,-0.0943466667,57.3000000000,2.2500000000,-1.8750000000,125.5000000000,image367.jpg,73429.9113920000
4,50.8636631667,-0.0943491667,57.3000000000,2.6875000000,-1.5000000000,123.3125000000,image368.jpg,73628.7258150000
4,50.8636633333,-0.0943520000,57.3000000000,3.0000000000,-1.6250000000,122.9375000000,image369.jpg,73828.9117060000
4,50.8636636667,-0.0943543333,57.3000000000,4.0625000000,-0.5625000000,123.7500000000,image370.jpg,74029.6642460000
4,50.8636638333,-0.0943568333,57.3000000000,4.8750000000,-1.1250000000,124.3750000000,image371.jpg,74230.0747110000
4,50.8636641667,-0.0943591667,57.3000000000,3.2500000000,-1.8125000000,123.1250000000,image372.jpg,74429.9407030000
4,50.8636645000,-0.0943613333,57.4000000000,2.7500000000,-1.0000000000,119.1250000000,image373.jpg,74630.3404920000
4,50.8636645000,-0.0943635000,57.4000000000,3.0625000000,-2.0625000000,115.6250000000,image374.jpg,74829.8558960000
4,50.8636645000,-0.0943660000,57.3000000000,3.1875000000,-4.1250000000,115.8750000000,image375.jpg,75030.0029930000
4,50.8636645000,-0.0943685000,57.4000000000,5.6250000000,-3.0625000000,116.8125000000,image376.jpg,75230.0149720000
4,50.8636646667,-0.0943708333,57.3000000000,4.5000000000,-3.6875000000,119.6250000000,image377.jpg,75430.1088690000
4,50.8636650000,-0.0943733333,57.4000000000,4.9375000000,-3.3750000000,120.8750000000,image378.jpg,75630.1011110000
4,50.8636650000,-0.0943756667,57.3000000000,4.5625000000,-4.1875000000,120.6875000000,image379.jpg,75830.5415860000
4,50.8636651667,-0.0943781667,57.3000000000,3.9375000000,-3.5625000000,120.6875000000,image380.jpg,76030.6940590000
4,50.8636653333,-0.0943808333,57.3000000000,4.6250000000,-3.0000000000,120.7500000000,image381.jpg,76230.9553990000
4,50.8636656667,-0.0943833333,57.3000000000,3.1250000000,-3.2500000000,120.8750000000,image382.jpg,76430.7736080000
4,50.8636656667,-0.0943858333,57.3000000000,5.2500000000,-2.6875000000,120.4375000000,image383.jpg,76630.8559560000
4,50.8636660000,-0.0943883333,57.3000000000,4.0000000000,-3.4375000000,120.5625000000,image384.jpg,76830.9579890000
4,50.8636661667,-0.0943911667,57.3000000000,2.6250000000,-2.9375000000,120.8750000000,image385.jpg,77031.0838110000
4,50.8636663333,-0.0943935000,57.3000000000,5.3750000000,-1.7500000000,121.8750000000,image386.jpg,77231.5687320000
4,50.8636665000,-0.0943960000,57.3000000000,2.6875000000,-0.2500000000,123.1250000000,image387.jpg,77432.1720250000
4,50.8636670000,-0.0943981667,57.3000000000,4.5000000000,-1.0000000000,125.1250000000,image388.jpg,77632.4393650000
4,50.8636671667,-0.0944006667,57.3000000000,2.4375000000,-1.4375000000,125.6250000000,image389.jpg,77832.5540120000
4,50.8636675000,-0.0944028333,57.3000000000,3.4375000000,-0.8125000000,126.2500000000,image390.jpg,78031.6465160000
4,50.8636678333,-0.0944051667,57.3000000000,3.2500000000,-0.8125000000,126.1875000000,image391.jpg,78231.7402380000
4,50.8636681667,-0.0944076667,57.3000000000,2.1250000000,-1.5000000000,125.2500000000,image392.jpg,78432.4368130000
4,50.8636685000,-0.0944100000,57.3000000000,2.0000000000,0.3125000000,123.0000000000,image393.jpg,78632.6593760000
4,50.8636686667,-0.0944123333,57.3000000000,3.0625000000,0.6250000000,122.2500000000,image394.jpg,78832.9755750000
4,50.8636690000,-0.0944146667,57.3000000000,0.8125000000,0.0000000000,122.0625000000,image395.jpg,79032.1379760000
4,50.8636691667,-0.0944170000,57.3000000000,3.1875000000,-0.2500000000,122.0625000000,image396.jpg,79231.9433000000
4,50.8636693333,-0.0944195000,57.3000000000,2.5000000000,-0.3750000000,122.7500000000,image397.jpg,79432.3372080000
4,50.8636696667,-0.0944218333,57.4000000000,1.6250000000,-0.5625000000,122.5625000000,image398.jpg,79633.1368020000
4,50.8636698333,-0.0944243333,57.4000000000,3.8125000000,1.0625000000,121.6250000000,image399.jpg,79833.5568530000
4,50.8636700000,-0.0944266667,57.3000000000,-0.8750000000,-0.9375000000,119.6250000000,image400.jpg,80033.0943280000
4,50.8636703333,-0.0944293333,57.4000000000,0.6250000000,-1.4375000000,118.5625000000,image401.jpg,80232.6232820000
4,50.8636703333,-0.0944318333,57.4000000000,0.0625000000,-0.8125000000,118.1875000000,image402.jpg,80432.5142820000
4,50.8636706667,-0.0944345000,57.4000000000,1.1875000000,-1.0625000000,118.8750000000,image403.jpg,80633.0448510000
4,50.8636705000,-0.0944370000,57.4000000000,-0.2500000000,0.5000000000,119.4375000000,image404.jpg,80832.8360700000
4,50.8636710000,-0.0944396667,57.4000000000,1.6875000000,-0.5625000000,119.1875000000,image405.jpg,81032.9327130000
4,50.8636710000,-0.0944421667,57.4000000000,0.2500000000,-0.6875000000,120.0625000000,image406.jpg,81232.9679240000
4,50.8636713333,-0.0944446667,57.4000000000,1.2500000000,-1.0000000000,123.1875000000,image407.jpg,81433.1573900000
4,50.8636713333,-0.0944471667,57.4000000000,1.2500000000,0.0625000000,126.0000000000,image408.jpg,81633.2410330000
4,50.8636720000,-0.0944496667,57.4000000000,2.3125000000,-0.3125000000,127.5000000000,image409.jpg,81833.1060020000
4,50.8636723333,-0.0944523333,57.4000000000,0.0000000000,-1.6250000000,128.4375000000,image410.jpg,82033.3394590000
4,50.8636726667,-0.0944546667,57.4000000000,2.3750000000,-0.8750000000,129.7500000000,image411.jpg,82233.2164120000
4,50.8636731667,-0.0944570000,57.4000000000,0.0625000000,1.1250000000,130.0000000000,image412.jpg,82433.4246320000
4,50.8636736667,-0.0944593333,57.4000000000,-0.7500000000,-0.4375000000,125.9375000000,image413.jpg,82633.9753160000
4,50.8636738333,-0.0944616667,57.4000000000,0.6250000000,-1.9375000000,120.5000000000,image414.jpg,82834.4928820000
4,50.8636740000,-0.0944638333,57.4000000000,2.2500000000,-1.5625000000,116.8750000000,image415.jpg,83035.0796770000
4,50.8636736667,-0.0944663333,57.4000000000,0.1875000000,0.6250000000,117.8125000000,image416.jpg,83234.6565940000
4,50.8636740000,-0.0944685000,57.4000000000,0.6250000000,-1.0625000000,117.6250000000,image417.jpg,83433.7520320000
4,50.8636740000,-0.0944710000,57.4000000000,-0.7500000000,-0.3750000000,117.5625000000,image418.jpg,83633.8858560000
4,50.8636743333,-0.0944731667,57.4000000000,1.3750000000,0.8750000000,118.3125000000,image419.jpg,83835.3178950000
4,50.8636743333,-0.0944755000,57.4000000000,0.1875000000,-0.1250000000,118.2500000000,image420.jpg,84035.2240690000
4,50.8636745000,-0.0944780000,57.4000000000,3.5000000000,0.0625000000,119.4375000000,image421.jpg,84235.3257370000
4,50.8636745000,-0.0944801667,57.4000000000,3.8125000000,-2.6875000000,122.8750000000,image422.jpg,84434.1261710000
4,50.8636750000,-0.0944823333,57.4000000000,0.1875000000,-3.0625000000,127.2500000000,image423.jpg,84634.1754360000
4,50.8636755000,-0.0944843333,57.4000000000,0.9375000000,-1.6250000000,130.3125000000,image424.jpg,84835.2130240000
4,50.8636758333,-0.0944861667,57.4000000000,-0.4375000000,-1.5000000000,130.8750000000,image425.jpg,85035.7308450000
4,50.8636763333,-0.0944883333,57.4000000000,2.6875000000,-1.0000000000,131.7500000000,image426.jpg,85235.7044610000
4,50.8636766667,-0.0944903333,57.4000000000,1.2500000000,0.3750000000,132.5625000000,image427.jpg,85434.5158240000
4,50.8636771667,-0.0944926667,57.4000000000,4.4375000000,-1.6875000000,134.0625000000,image428.jpg,85634.5919560000
4,50.8636776667,-0.0944950000,57.4000000000,2.3125000000,-0.1875000000,136.5625000000,image429.jpg,85835.1757660000
4,50.8636783333,-0.0944970000,57.4000000000,2.3125000000,-1.2500000000,139.7500000000,image430.jpg,86034.7497930000
4,50.8636791667,-0.0944993333,57.4000000000,3.2500000000,-1.6250000000,140.6250000000,image431.jpg,86234.8721200000
4,50.8636798333,-0.0945013333,57.4000000000,0.2500000000,0.0000000000,140.1875000000,image432.jpg,86434.8375490000
4,50.8636806667,-0.0945033333,57.4000000000,0.4375000000,-1.6875000000,134.2500000000,image433.jpg,86635.1421940000
4,50.8636808333,-0.0945058333,57.4000000000,0.4375000000,0.0000000000,127.7500000000,image434.jpg,86835.5782640000
4,50.8636813333,-0.0945080000,57.4000000000,3.0625000000,-0.7500000000,124.3125000000,image435.jpg,87035.0890970000
4,50.8636813333,-0.0945103333,57.4000000000,2.3125000000,-2.1250000000,125.8750000000,image436.jpg,87235.1942270000
4,50.8636818333,-0.0945126667,57.4000000000,4.0000000000,-1.3750000000,133.5625000000,image437.jpg,87435.2917510000
4,50.8636825000,-0.0945148333,57.4000000000,-0.0625000000,-1.2500000000,135.0000000000,image438.jpg,87635.2951990000
4,50.8636831667,-0.0945170000,57.4000000000,2.8125000000,-1.0000000000,135.6875000000,image439.jpg,87836.1277250000
4,50.8636836667,-0.0945193333,57.4000000000,2.6875000000,-1.3750000000,134.6250000000,image440.jpg,88036.4377280000
4,50.8636843333,-0.0945216667,57.4000000000,3.3750000000,-1.0000000000,134.0625000000,image441.jpg,88236.6360960000
4,50.8636846667,-0.0945241667,57.4000000000,0.8750000000,0.0625000000,130.3750000000,image442.jpg,88436.6934540000
4,50.8636851667,-0.0945263333,57.4000000000,3.8750000000,-1.8750000000,127.0625000000,image443.jpg,88636.1057210000
4,50.8636855000,-0.0945288333,57.4000000000,3.0000000000,-1.1875000000,128.0000000000,image444.jpg,88836.3706600000
4,50.8636860000,-0.0945311667,57.4000000000,4.5000000000,-1.3125000000,132.6875000000,image445.jpg,89037.0914470000
4,50.8636866667,-0.0945335000,57.4000000000,2.8125000000,-2.5625000000,136.9375000000,image446.jpg,89237.1709410000
4,50.8636875000,-0.0945360000,57.4000000000,4.0000000000,-2.3750000000,139.9375000000,image447.jpg,89436.9124200000
4,50.8636881667,-0.0945385000,57.5000000000,4.7500000000,-2.0625000000,139.5625000000,image448.jpg,89636.1291890000
4,50.8636891667,-0.0945411667,57.5000000000,4.1250000000,-1.3750000000,141.3125000000,image449.jpg,89836.4339760000
4,50.8636898333,-0.0945435000,57.5000000000,5.2500000000,-0.7500000000,141.7500000000,image450.jpg,90037.4317260000
4,50.8636906667,-0.0945458333,57.5000000000,3.1875000000,-1.8750000000,142.5625000000,image451.jpg,90237.4813730000
4,50.8636916667,-0.0945483333,57.5000000000,4.3125000000,-1.5625000000,146.5000000000,image452.jpg,90437.6021240000
4,50.8636926667,-0.0945505000,57.5000000000,5.1875000000,-0.5000000000,148.2500000000,image453.jpg,90636.5029650000
4,50.8636936667,-0.0945528333,57.5000000000,3.8750000000,-2.0625000000,149.0000000000,image454.jpg,90836.5794910000
4,50.8636948333,-0.0945551667,57.5000000000,5.5625000000,-3.0625000000,150.6250000000,image455.jpg,91037.4074260000
4,50.8636960000,-0.0945575000,57.5000000000,3.4375000000,-2.0000000000,156.8750000000,image456.jpg,91236.6781670000
4,50.8636973333,-0.0945595000,57.5000000000,4.8125000000,-2.5625000000,157.3125000000,image457.jpg,91436.7234420000
4,50.8636986667,-0.0945613333,57.5000000000,3.5000000000,-1.8750000000,157.4375000000,image458.jpg,91636.9215500000
4,50.8637000000,-0.0945635000,57.5000000000,4.8125000000,-3.5000000000,156.4375000000,image459.jpg,91837.0040690000
4,50.8637011667,-0.0945655000,57.5000000000,4.3125000000,-2.1875000000,157.0000000000,image460.jpg,92037.3510040000
4,50.8637025000,-0.0945675000,57.5000000000,4.1875000000,-2.0625000000,157.0625000000,image461.jpg,92237.1979230000
4,50.8637038333,-0.0945695000,57.5000000000,5.0625000000,-2.7500000000,157.8750000000,image462.jpg,92437.2737280000
4,50.8637051667,-0.0945715000,57.5000000000,3.3125000000,-4.0000000000,158.5000000000,image463.jpg,92637.2228490000
4,50.8637065000,-0.0945735000,57.5000000000,4.4375000000,-2.1875000000,160.4375000000,image464.jpg,92837.6982910000
4,50.8637078333,-0.0945755000,57.5000000000,3.5000000000,-3.3750000000,162.1250000000,image465.jpg,93038.2795330000
4,50.8637095000,-0.0945773333,57.5000000000,3.5000000000,-0.8125000000,165.6875000000,image466.jpg,93238.7691510000
4,50.8637110000,-0.0945788333,57.5000000000,3.1875000000,-1.5625000000,167.8750000000,image467.jpg,93438.5814910000
4,50.8637125000,-0.0945805000,57.5000000000,4.1875000000,-2.1250000000,172.2500000000,image468.jpg,93638.3966950000
4,50.8637140000,-0.0945815000,57.5000000000,6.6875000000,0.7500000000,180.3750000000,image469.jpg,93837.8645620000
4,50.8637156667,-0.0945826667,57.5000000000,6.8125000000,-0.4375000000,188.0625000000,image470.jpg,94038.2543280000
4,50.8637171667,-0.0945830000,57.5000000000,5.6875000000,0.6250000000,194.3750000000,image471.jpg,94239.1393730000
4,50.8637188333,-0.0945830000,57.5000000000,7.4375000000,-0.6250000000,203.2500000000,image472.jpg,94439.1213290000
4,50.8637205000,-0.0945826667,57.5000000000,6.1875000000,-3.6875000000,211.3125000000,image473.jpg,94638.8471050000
4,50.8637220000,-0.0945821667,57.5000000000,5.0000000000,-2.3750000000,218.4375000000,image474.jpg,94838.1213630000
4,50.8637235000,-0.0945811667,57.5000000000,5.6875000000,-2.5625000000,226.6875000000,image475.jpg,95038.5977660000
4,50.8637251667,-0.0945798333,57.5000000000,5.5625000000,-2.2500000000,234.3750000000,image476.jpg,95239.2473220000
4,50.8637263333,-0.0945781667,57.5000000000,5.7500000000,-1.6875000000,240.6250000000,image477.jpg,95440.2029080000
4,50.8637273333,-0.0945763333,57.5000000000,4.6875000000,-2.4375000000,249.7500000000,image478.jpg,95640.7031210000
4,50.8637283333,-0.0945741667,57.5000000000,3.6875000000,-1.8125000000,257.0000000000,image479.jpg,95838.9912740000
4,50.8637290000,-0.0945716667,57.5000000000,2.8125000000,-1.5625000000,264.2500000000,image480.jpg,96039.3151690000
4,50.8637295000,-0.0945695000,57.6000000000,4.7500000000,-4.5000000000,271.6875000000,image481.jpg,96239.8115420000
4,50.8637300000,-0.0945670000,57.6000000000,3.8750000000,-3.7500000000,280.1250000000,image482.jpg,96439.5393260000
4,50.8637301667,-0.0945643333,57.5000000000,5.4375000000,-3.8125000000,288.4375000000,image483.jpg,96639.6148110000
4,50.8637301667,-0.0945616667,57.5000000000,3.2500000000,-4.0625000000,296.9375000000,image484.jpg,96839.6397160000
4,50.8637298333,-0.0945590000,57.5000000000,5.2500000000,-4.5000000000,304.3750000000,image485.jpg,97039.6077990000
4,50.8637293333,-0.0945566667,57.5000000000,4.6875000000,-2.8125000000,311.0625000000,image486.jpg,97240.0989280000
4,50.8637285000,-0.0945543333,57.5000000000,4.0625000000,-2.8750000000,314.5000000000,image487.jpg,97440.0007100000
4,50.8637278333,-0.0945516667,57.6000000000,2.5000000000,-2.6250000000,314.7500000000,image488.jpg,97640.0077660000
4,50.8637268333,-0.0945493333,57.5000000000,3.2500000000,-3.1875000000,315.0625000000,image489.jpg,97840.0549830000
4,50.8637261667,-0.0945465000,57.5000000000,4.5625000000,-3.4375000000,315.7500000000,image490.jpg,98040.1940960000
4,50.8637253333,-0.0945440000,57.5000000000,5.5000000000,-5.0000000000,316.6875000000,image491.jpg,98240.6762310000
4,50.8637245000,-0.0945410000,57.5000000000,3.3125000000,-2.6250000000,317.5000000000,image492.jpg,98441.5349770000
4,50.8637236667,-0.0945385000,57.5000000000,2.4375000000,-3.5000000000,316.6875000000,image493.jpg,98641.3703120000
4,50.8637226667,-0.0945356667,57.5000000000,2.0625000000,-3.8125000000,317.2500000000,image494.jpg,98841.1978850000
4,50.8637220000,-0.0945331667,57.5000000000,0.0000000000,-3.6875000000,315.1875000000,image495.jpg,99040.4756600000
4,50.8637211667,-0.0945305000,57.5000000000,0.6250000000,-2.0625000000,309.5000000000,image496.jpg,99240.6678850000
4,50.8637206667,-0.0945280000,57.5000000000,0.0625000000,-1.3125000000,303.0000000000,image497.jpg,99441.8362730000
4,50.8637203333,-0.0945251667,57.5000000000,0.9375000000,-2.3125000000,298.6875000000,image498.jpg,99641.8332650000
4,50.8637201667,-0.0945223333,57.5000000000,1.6875000000,-3.0625000000,297.6250000000,image499.jpg,99841.7233160000
4,50.8637200000,-0.0945196667,57.5000000000,2.6875000000,-2.3125000000,297.5000000000,image500.jpg,100040.9141770000
4,50.8637198333,-0.0945168333,57.5000000000,3.4375000000,-3.9375000000,298.5000000000,image501.jpg,100240.8484240000
4,50.8637195000,-0.0945138333,57.5000000000,4.4375000000,-3.8125000000,302.9375000000,image502.jpg,100441.9587550000
4,50.8637190000,-0.0945108333,57.5000000000,4.2500000000,-3.0625000000,306.6250000000,image503.jpg,100642.0755770000
4,50.8637186667,-0.0945083333,57.5000000000,3.5625000000,-2.8750000000,306.8750000000,image504.jpg,100842.0944710000
4,50.8637180000,-0.0945053333,57.5000000000,2.0625000000,-2.3125000000,307.1875000000,image505.jpg,101041.1327340000
4,50.8637173333,-0.0945028333,57.5000000000,4.2500000000,-2.6250000000,308.5000000000,image506.jpg,101241.4094980000
4,50.8637168333,-0.0945001667,57.5000000000,4.3750000000,-2.6875000000,309.1250000000,image507.jpg,101442.1230340000
4,50.8637163333,-0.0944975000,57.5000000000,3.5000000000,-2.6875000000,310.5625000000,image508.jpg,101641.5366200000
4,50.8637156667,-0.0944950000,57.5000000000,2.9375000000,-1.6875000000,310.8750000000,image509.jpg,101841.6379460000
4,50.8637148333,-0.0944921667,57.5000000000,3.6250000000,-4.6250000000,312.3125000000,image510.jpg,102041.6788600000
4,50.8637145000,-0.0944896667,57.5000000000,3.2500000000,-4.6250000000,313.5000000000,image511.jpg,102241.7297400000
4,50.8637136667,-0.0944873333,57.5000000000,4.5625000000,-2.4375000000,314.4375000000,image512.jpg,102441.9351690000
4,50.8637128333,-0.0944846667,57.5000000000,2.8750000000,-3.8125000000,312.2500000000,image513.jpg,102641.8229040000
4,50.8637123333,-0.0944820000,57.5000000000,-0.5625000000,-5.3125000000,304.0625000000,image514.jpg,102842.0430740000
4,50.8637120000,-0.0944793333,57.5000000000,1.8750000000,-5.1250000000,297.7500000000,image515.jpg,103041.9605140000
4,50.8637118333,-0.0944765000,57.5000000000,4.3125000000,-3.7500000000,297.5000000000,image516.jpg,103241.9025050000
4,50.8637116667,-0.0944736667,57.5000000000,3.2500000000,-4.7500000000,297.9375000000,image517.jpg,103442.7406450000
