gps quality,lat,lon,altitude,roll,pitch,yaw,image name,timestamp
4,50.8651123333,-0.0919476667,71.8000000000,2.4375000000,-6.4375000000,359.9375000000,image0.jpg,3.6674480000
4,50.8651123333,-0.0919475000,71.8000000000,2.4375000000,-6.4375000000,359.9375000000,image1.jpg,202.6868230000
4,50.8651123333,-0.0919475000,71.8000000000,2.4375000000,-6.3750000000,359.9375000000,image2.jpg,402.8209380000
4,50.8651123333,-0.0919475000,71.8000000000,3.1250000000,-6.3750000000,359.8750000000,image3.jpg,602.6908850000
4,50.8651120000,-0.0919470000,71.8000000000,3.1875000000,-6.1250000000,359.2500000000,image4.jpg,801.8296350000
4,50.8651116667,-0.0919468333,71.8000000000,1.7500000000,-6.5000000000,357.1250000000,image5.jpg,1001.8881250000
4,50.8651110000,-0.0919461667,71.7000000000,1.8125000000,-5.6875000000,354.6250000000,image6.jpg,1202.1979160000
4,50.8651106667,-0.0919453333,71.7000000000,2.0000000000,-6.5000000000,352.5625000000,image7.jpg,1403.0451040000
4,50.8651101667,-0.0919443333,71.7000000000,2.1250000000,-6.9375000000,351.1875000000,image8.jpg,1603.3292180000
4,50.8651096667,-0.0919438333,71.7000000000,0.6875000000,-7.0625000000,350.3125000000,image9.jpg,1803.3955200000
4,50.8651091667,-0.0919431667,71.7000000000,0.8125000000,-7.3750000000,350.1250000000,image10.jpg,2003.2324990000
4,50.8651088333,-0.0919425000,71.7000000000,1.0625000000,-7.2500000000,350.0625000000,image11.jpg,2202.3913020000
4,50.8651085000,-0.0919420000,71.7000000000,1.5000000000,-6.1250000000,350.0000000000,image12.jpg,2402.4708850000
4,50.8651078333,-0.0919411667,71.7000000000,2.6875000000,-6.0000000000,349.6250000000,image13.jpg,2602.9831760000
4,50.8651071667,-0.0919401667,71.7000000000,2.1875000000,-7.1250000000,349.5000000000,image14.jpg,2803.5378640000
4,50.8651065000,-0.0919390000,71.7000000000,2.5000000000,-7.8125000000,349.3125000000,image15.jpg,3003.7941140000
4,50.8651060000,-0.0919383333,71.7000000000,1.8750000000,-7.8125000000,349.5625000000,image16.jpg,3203.6463530000
4,50.8651053333,-0.0919373333,71.7000000000,1.5000000000,-7.5000000000,349.5625000000,image17.jpg,3402.7907280000
4,50.8651048333,-0.0919363333,71.7000000000,3.4375000000,-6.6250000000,349.1250000000,image18.jpg,3602.9448430000
4,50.8651041667,-0.0919355000,71.7000000000,3.1250000000,-7.5625000000,348.7500000000,image19.jpg,3803.1057800000
4,50.8651033333,-0.0919343333,71.7000000000,1.1875000000,-7.6875000000,348.7500000000,image20.jpg,4002.9884880000
4,50.8651026667,-0.0919331667,71.7000000000,2.6875000000,-8.3125000000,348.6875000000,image21.jpg,4203.1057280000
4,50.8651020000,-0.0919320000,71.6000000000,3.1250000000,-7.8750000000,348.6875000000,image22.jpg,4403.1468220000
4,50.8651011667,-0.0919310000,71.6000000000,2.1250000000,-7.6875000000,348.4375000000,image23.jpg,4603.2352070000
4,50.8651006667,-0.0919298333,71.6000000000,3.0625000000,-6.9375000000,348.5000000000,image24.jpg,4803.4046340000
4,50.8651001667,-0.0919288333,71.6000000000,2.6875000000,-6.0000000000,348.3125000000,image25.jpg,5003.2702590000
4,50.8650995000,-0.0919278333,71.6000000000,2.8750000000,-5.0625000000,348.1250000000,image26.jpg,5203.6954150000
4,50.8650986667,-0.0919268333,71.6000000000,1.3125000000,-5.1250000000,348.5000000000,image27.jpg,5403.5303110000
4,50.8650980000,-0.0919258333,71.6000000000,2.1250000000,-5.5625000000,348.0625000000,image28.jpg,5603.5911960000
4,50.8650973333,-0.0919246667,71.6000000000,1.6875000000,-5.6875000000,347.5625000000,image29.jpg,5803.6473420000
4,50.8650965000,-0.0919233333,71.6000000000,1.6250000000,-5.6250000000,346.9375000000,image30.jpg,6003.7288000000
4,50.8650956667,-0.0919221667,71.6000000000,1.0000000000,-5.4375000000,347.0000000000,image31.jpg,6203.8509350000
4,50.8650950000,-0.0919210000,71.6000000000,1.0000000000,-5.5625000000,346.8750000000,image32.jpg,6404.0659870000
4,50.8650943333,-0.0919196667,71.5000000000,0.6250000000,-5.5625000000,345.7500000000,image33.jpg,6604.9332270000
4,50.8650935000,-0.0919183333,71.5000000000,0.0000000000,-6.3750000000,343.7500000000,image34.jpg,6805.3134350000
4,50.8650926667,-0.0919168333,71.5000000000,0.6875000000,-6.6875000000,343.1250000000,image35.jpg,7005.1238520000
4,50.8650918333,-0.0919153333,71.5000000000,-0.0625000000,-6.6250000000,342.7500000000,image36.jpg,7205.4343200000
4,50.8650910000,-0.0919136667,71.5000000000,-0.5625000000,-6.5000000000,342.2500000000,image37.jpg,7404.3960390000
4,50.8650901667,-0.0919121667,71.5000000000,-0.8750000000,-5.8750000000,341.1250000000,image38.jpg,7604.4253620000
4,50.8650895000,-0.0919106667,71.5000000000,-0.7500000000,-4.9375000000,340.6250000000,image39.jpg,7804.7883830000
4,50.8650886667,-0.0919090000,71.5000000000,1.0000000000,-4.3750000000,340.3750000000,image40.jpg,8005.6992680000
4,50.8650878333,-0.0919076667,71.5000000000,0.2500000000,-5.9375000000,339.9375000000,image41.jpg,8205.7558300000
4,50.8650873333,-0.0919060000,71.5000000000,0.0625000000,-6.0000000000,340.5000000000,image42.jpg,8405.8613510000
4,50.8650865000,-0.0919045000,71.5000000000,0.0000000000,-3.8750000000,340.3750000000,image43.jpg,8605.6647370000
4,50.8650858333,-0.0919026667,71.5000000000,1.6875000000,-4.2500000000,341.0000000000,image44.jpg,8804.9446840000
4,50.8650850000,-0.0919013333,71.5000000000,0.1875000000,-5.8750000000,341.5000000000,image45.jpg,9005.0430700000
4,50.8650840000,-0.0918996667,71.5000000000,-0.7500000000,-6.3125000000,343.7500000000,image46.jpg,9205.6182780000
4,50.8650830000,-0.0918980000,71.4000000000,0.8125000000,-5.3125000000,344.8750000000,image47.jpg,9406.1903090000
4,50.8650823333,-0.0918965000,71.4000000000,0.6875000000,-4.1250000000,345.4375000000,image48.jpg,9606.2539030000
4,50.8650815000,-0.0918955000,71.4000000000,0.2500000000,-3.1875000000,346.3125000000,image49.jpg,9806.4521320000
4,50.8650806667,-0.0918940000,71.4000000000,1.3125000000,-5.6875000000,347.5625000000,image50.jpg,10005.5954130000
4,50.8650801667,-0.0918933333,71.4000000000,2.0000000000,-6.1875000000,349.5000000000,image51.jpg,10205.4893710000
4,50.8650788333,-0.0918911667,71.4000000000,3.1250000000,-5.7500000000,350.8125000000,image52.jpg,10405.4945800000
4,50.8650778333,-0.0918900000,71.4000000000,1.5625000000,-4.7500000000,352.0625000000,image53.jpg,10606.4310900000
4,50.8650770000,-0.0918890000,71.4000000000,2.1875000000,-2.4375000000,353.6250000000,image54.jpg,10805.8235900000
4,50.8650758333,-0.0918878333,71.4000000000,1.4375000000,-2.8125000000,355.3125000000,image55.jpg,11005.7596310000
4,50.8650746667,-0.0918866667,71.4000000000,2.0625000000,-5.5625000000,356.1875000000,image56.jpg,11205.8346830000
4,50.8650735000,-0.0918855000,71.4000000000,0.1875000000,-5.3750000000,359.0000000000,image57.jpg,11406.0289020000
4,50.8650725000,-0.0918843333,71.4000000000,2.8750000000,-6.6250000000,0.5625000000,image58.jpg,11606.0906210000
4,50.8650710000,-0.0918831667,71.4000000000,1.8750000000,-5.3750000000,2.1250000000,image59.jpg,11806.2478600000
4,50.8650700000,-0.0918820000,71.4000000000,4.5000000000,-3.7500000000,3.6875000000,image60.jpg,12006.1998390000
4,50.8650688333,-0.0918810000,71.4000000000,4.0000000000,-3.5625000000,3.9375000000,image61.jpg,12206.3251000000
4,50.8650676667,-0.0918800000,71.3000000000,2.7500000000,-4.0625000000,3.1250000000,image62.jpg,12406.3749430000
4,50.8650665000,-0.0918785000,71.3000000000,6.3125000000,-7.1875000000,2.9375000000,image63.jpg,12606.4128600000
4,50.8650650000,-0.0918773333,71.3000000000,5.5625000000,-8.8125000000,2.8125000000,image64.jpg,12806.5368700000
4,50.8650635000,-0.0918761667,71.3000000000,7.6875000000,-5.0625000000,5.1875000000,image65.jpg,13006.5999950000
4,50.8650623333,-0.0918750000,71.2000000000,10.5000000000,-6.2500000000,6.5625000000,image66.jpg,13207.5505680000
4,50.8650610000,-0.0918738333,71.2000000000,10.6250000000,-7.3125000000,8.4375000000,image67.jpg,13407.8482240000
4,50.8650593333,-0.0918733333,71.2000000000,9.9375000000,-7.5625000000,11.1250000000,image68.jpg,13607.9406200000
4,50.8650581667,-0.0918721667,71.2000000000,11.8125000000,-8.6875000000,13.1250000000,image69.jpg,13808.0016100000
4,50.8650566667,-0.0918711667,71.2000000000,8.6250000000,-4.1250000000,16.4375000000,image70.jpg,14008.2336930000
4,50.8650553333,-0.0918708333,71.2000000000,11.1875000000,-2.1250000000,19.0000000000,image71.jpg,14207.1172870000
4,50.8650541667,-0.0918703333,71.1000000000,9.9375000000,-3.8750000000,19.4375000000,image72.jpg,14407.3809320000
4,50.8650523333,-0.0918696667,71.1000000000,8.3125000000,-5.5000000000,20.0000000000,image73.jpg,14608.0060880000
4,50.8650510000,-0.0918691667,71.1000000000,7.2500000000,-3.9375000000,20.8750000000,image74.jpg,14808.5254630000
4,50.8650491667,-0.0918688333,71.1000000000,5.2500000000,-5.0000000000,22.3750000000,image75.jpg,15008.5193700000
4,50.8650476667,-0.0918686667,71.1000000000,5.8125000000,-3.9375000000,23.8750000000,image76.jpg,15208.4796820000
4,50.8650461667,-0.0918690000,71.1000000000,5.3750000000,-3.1875000000,25.5000000000,image77.jpg,15407.5108280000
4,50.8650450000,-0.0918691667,71.1000000000,5.7500000000,-3.5625000000,27.1875000000,image78.jpg,15607.7641610000
4,50.8650435000,-0.0918685000,71.1000000000,6.3125000000,-3.8125000000,28.3125000000,image79.jpg,15808.1422860000
4,50.8650418333,-0.0918686667,71.1000000000,4.5000000000,-3.9375000000,29.8750000000,image80.jpg,16008.7722340000
4,50.8650401667,-0.0918680000,71.0000000000,3.6250000000,-2.5000000000,31.1250000000,image81.jpg,16208.7647860000
4,50.8650390000,-0.0918673333,71.0000000000,4.6250000000,-2.8750000000,31.0000000000,image82.jpg,16408.9095770000
4,50.8650375000,-0.0918670000,70.9000000000,6.8125000000,-2.8750000000,29.6875000000,image83.jpg,16608.3965040000
4,50.8650356667,-0.0918673333,70.9000000000,4.6875000000,-4.0625000000,31.5000000000,image84.jpg,16808.1075980000
4,50.8650343333,-0.0918671667,70.9000000000,6.3125000000,-6.3750000000,34.3125000000,image85.jpg,17008.0415040000
4,50.8650325000,-0.0918675000,70.9000000000,5.5000000000,-5.9375000000,33.1875000000,image86.jpg,17208.6711400000
4,50.8650305000,-0.0918681667,70.9000000000,4.3750000000,-3.9375000000,34.4375000000,image87.jpg,17408.3508790000
4,50.8650286667,-0.0918686667,70.9000000000,5.3750000000,-2.6875000000,31.1875000000,image88.jpg,17608.3069730000
4,50.8650273333,-0.0918685000,70.9000000000,5.4375000000,-3.7500000000,28.9375000000,image89.jpg,17808.4030140000
4,50.8650261667,-0.0918680000,70.9000000000,4.3750000000,-4.6250000000,28.3125000000,image90.jpg,18008.4579100000
4,50.8650246667,-0.0918680000,70.9000000000,4.5000000000,-5.0625000000,29.3125000000,image91.jpg,18208.4885870000
4,50.8650230000,-0.0918678333,70.9000000000,4.0000000000,-6.4375000000,26.6875000000,image92.jpg,18408.7081700000
4,50.8650211667,-0.0918676667,70.9000000000,3.0000000000,-4.6875000000,24.0625000000,image93.jpg,18608.6854620000
4,50.8650200000,-0.0918663333,70.8000000000,1.3750000000,-3.3125000000,22.8750000000,image94.jpg,18808.6180660000
4,50.8650181667,-0.0918658333,70.8000000000,2.3125000000,-5.0000000000,23.5000000000,image95.jpg,19008.7809310000
4,50.8650165000,-0.0918650000,70.8000000000,1.3125000000,-4.4375000000,23.6875000000,image96.jpg,19208.8959830000
4,50.8650148333,-0.0918651667,70.7000000000,0.3125000000,-5.3750000000,23.8125000000,image97.jpg,19409.0464510000
4,50.8650128333,-0.0918646667,70.7000000000,0.5000000000,-5.1250000000,24.3125000000,image98.jpg,19609.2401490000
4,50.8650111667,-0.0918646667,70.7000000000,0.0625000000,-4.2500000000,25.1875000000,image99.jpg,19809.9310860000
4,50.8650096667,-0.0918636667,70.7000000000,0.0625000000,-4.0625000000,24.4375000000,image100.jpg,20010.3323880000
4,50.8650078333,-0.0918628333,70.6000000000,-0.1875000000,-4.5000000000,23.1875000000,image101.jpg,20210.1800450000
4,50.8650065000,-0.0918626667,70.6000000000,-1.6250000000,-3.0625000000,22.0000000000,image102.jpg,20410.3067630000
4,50.8650045000,-0.0918623333,70.6000000000,-1.1875000000,-4.8125000000,20.9375000000,image103.jpg,20609.4643150000
4,50.8650028333,-0.0918623333,70.6000000000,-1.0625000000,-5.1250000000,21.1250000000,image104.jpg,20809.3903050000
5,50.8650015000,-0.0918611667,70.6000000000,-0.5000000000,-4.7500000000,22.6250000000,image105.jpg,21009.7525960000
5,50.8649996667,-0.0918608333,70.6000000000,-1.6250000000,-4.1250000000,22.3125000000,image106.jpg,21210.6420230000
5,50.8649983333,-0.0918605000,70.6000000000,-0.5625000000,-4.3750000000,22.5000000000,image107.jpg,21410.5656170000
5,50.8649966667,-0.0918596667,70.5000000000,-1.3125000000,-4.7500000000,22.3125000000,image108.jpg,21610.6077000000
2,50.8649950000,-0.0918593333,70.5000000000,-0.1250000000,-5.0000000000,22.6250000000,image109.jpg,21810.6461900000
5,50.8649933333,-0.0918586667,70.5000000000,0.0000000000,-5.0625000000,22.7500000000,image110.jpg,22009.8936900000
5,50.8649920000,-0.0918585000,70.5000000000,0.4375000000,-4.6875000000,22.4375000000,image111.jpg,22209.9483770000
5,50.8649903333,-0.0918578333,70.5000000000,1.8125000000,-4.3750000000,22.3125000000,image112.jpg,22410.5298350000
5,50.8649888333,-0.0918573333,70.6000000000,0.7500000000,-5.3125000000,22.0000000000,image113.jpg,22611.0433250000
5,50.8649870000,-0.0918566667,70.5000000000,1.3125000000,-5.0625000000,22.5000000000,image114.jpg,22811.1541580000
5,50.8649851667,-0.0918568333,70.5000000000,1.3750000000,-4.1250000000,23.0625000000,image115.jpg,23011.2938980000
5,50.8649833333,-0.0918561667,70.5000000000,1.9375000000,-5.4375000000,22.0625000000,image116.jpg,23210.6272830000
5,50.8649816667,-0.0918556667,70.4000000000,2.4375000000,-3.6250000000,20.6875000000,image117.jpg,23410.3822830000
5,50.8649800000,-0.0918548333,70.4000000000,3.1250000000,-3.2500000000,19.3750000000,image118.jpg,23610.5007730000
5,50.8649780000,-0.0918541667,70.4000000000,3.2500000000,-3.4375000000,18.0625000000,image119.jpg,23811.3218140000
5,50.8649765000,-0.0918536667,70.4000000000,3.6250000000,-3.8750000000,17.1250000000,image120.jpg,24010.6115540000
5,50.8649750000,-0.0918528333,70.4000000000,3.5625000000,-3.0625000000,16.6875000000,image121.jpg,24210.5783760000
5,50.8649731667,-0.0918518333,70.3000000000,2.4375000000,-3.3125000000,16.6250000000,image122.jpg,24410.7518660000
5,50.8649711667,-0.0918513333,70.3000000000,2.5000000000,-2.3750000000,15.9375000000,image123.jpg,24610.7801470000
5,50.8649696667,-0.0918506667,70.3000000000,4.3750000000,-1.5000000000,16.1875000000,image124.jpg,24810.8460320000
5,50.8649676667,-0.0918501667,70.3000000000,1.2500000000,-2.4375000000,16.6875000000,image125.jpg,25011.0817620000
5,50.8649653333,-0.0918493333,70.3000000000,1.7500000000,-3.5000000000,19.9375000000,image126.jpg,25211.1574910000
5,50.8649638333,-0.0918490000,70.3000000000,1.9375000000,-3.5625000000,22.2500000000,image127.jpg,25411.3252510000
5,50.8649620000,-0.0918485000,70.3000000000,1.4375000000,-3.2500000000,21.4375000000,image128.jpg,25611.1740010000
5,50.8649603333,-0.0918478333,70.3000000000,1.8125000000,-4.1250000000,20.6250000000,image129.jpg,25811.3421780000
5,50.8649588333,-0.0918463333,70.2000000000,1.6875000000,-3.5625000000,19.3750000000,image130.jpg,26011.2816570000
5,50.8649565000,-0.0918456667,70.2000000000,3.3125000000,-3.1875000000,17.2500000000,image131.jpg,26211.3228030000
5,50.8649545000,-0.0918451667,70.2000000000,1.6875000000,-3.1250000000,16.1875000000,image132.jpg,26412.2815010000
5,50.8649526667,-0.0918443333,70.1000000000,0.1250000000,-3.1250000000,15.0625000000,image133.jpg,26612.3866570000
5,50.8649506667,-0.0918433333,70.1000000000,0.9375000000,-3.0625000000,16.3125000000,image134.jpg,26812.4619170000
5,50.8649488333,-0.0918433333,70.1000000000,-1.4375000000,-3.6250000000,17.4375000000,image135.jpg,27012.7345730000
5,50.8649470000,-0.0918428333,70.1000000000,-2.6250000000,-2.8125000000,16.6875000000,image136.jpg,27211.6303020000
5,50.8649453333,-0.0918418333,70.1000000000,-1.1875000000,-2.6875000000,15.3125000000,image137.jpg,27411.7131670000
5,50.8649440000,-0.0918405000,70.1000000000,-1.7500000000,-2.7500000000,15.7500000000,image138.jpg,27612.0853540000
5,50.8649423333,-0.0918395000,70.1000000000,0.0625000000,-5.5625000000,17.1875000000,image139.jpg,27812.9742600000
5,50.8649403333,-0.0918390000,70.1000000000,-5.3750000000,-3.7500000000,15.0625000000,image140.jpg,28013.2005620000
5,50.8649383333,-0.0918386667,70.1000000000,-2.0000000000,-3.6250000000,17.6250000000,image141.jpg,28212.9114480000
5,50.8649363333,-0.0918378333,70.0000000000,-2.8750000000,-2.5625000000,15.2500000000,image142.jpg,28413.0545730000
5,50.8649350000,-0.0918370000,70.1000000000,-1.6875000000,-2.6250000000,15.3125000000,image143.jpg,28612.0992600000
5,50.8649330000,-0.0918358333,70.0000000000,-1.1875000000,-3.6250000000,14.5625000000,image144.jpg,28812.1783750000
5,50.8649316667,-0.0918348333,70.0000000000,-1.7500000000,-5.1250000000,14.8750000000,image145.jpg,29012.5732700000
5,50.8649305000,-0.0918338333,70.0000000000,-0.3750000000,-4.9375000000,15.0625000000,image146.jpg,29213.2785830000
5,50.8649293333,-0.0918330000,70.0000000000,-2.6250000000,-4.6875000000,14.1875000000,image147.jpg,29413.3369680000
5,50.8649276667,-0.0918320000,70.0000000000,-0.0625000000,-6.6875000000,15.1250000000,image148.jpg,29613.4278010000
2,50.8649263333,-0.0918315000,70.0000000000,0.2500000000,-5.5000000000,19.8750000000,image149.jpg,29813.1671760000
5,50.8649243333,-0.0918308333,70.0000000000,0.6875000000,-4.1875000000,19.6875000000,image150.jpg,30012.6386350000
5,50.8649231667,-0.0918300000,69.9000000000,2.3125000000,-4.2500000000,19.8750000000,image151.jpg,30212.6972800000
5,50.8649215000,-0.0918291667,69.9000000000,1.9375000000,-4.3125000000,18.0625000000,image152.jpg,30413.3793640000
5,50.8649198333,-0.0918283333,69.9000000000,3.6250000000,-2.5000000000,16.6875000000,image153.jpg,30612.8512390000
2,50.8649180000,-0.0918280000,69.9000000000,0.8125000000,-3.9375000000,14.4375000000,image154.jpg,30812.9231660000
5,50.8649165000,-0.0918268333,69.9000000000,-3.1875000000,-3.1250000000,14.5000000000,image155.jpg,31013.0175410000
5,50.8649148333,-0.0918258333,69.8000000000,-0.0625000000,-6.1250000000,12.0625000000,image156.jpg,31213.0637900000
5,50.8649126667,-0.0918251667,69.8000000000,-2.3750000000,-5.1250000000,10.0625000000,image157.jpg,31413.1480090000
5,50.8649116667,-0.0918236667,69.8000000000,-0.7500000000,-5.1875000000,5.4375000000,image158.jpg,31613.3198320000
5,50.8649098333,-0.0918225000,69.8000000000,-1.1250000000,-4.1250000000,3.0625000000,image159.jpg,31813.2860820000
5,50.8649091667,-0.0918211667,69.8000000000,-3.1250000000,-2.5000000000,2.1875000000,image160.jpg,32013.3554570000
5,50.8649076667,-0.0918201667,69.8000000000,-7.6875000000,-0.9375000000,2.8125000000,image161.jpg,32213.4256130000
5,50.8649068333,-0.0918188333,69.8000000000,1.9375000000,-0.3125000000,4.7500000000,image162.jpg,32413.5349880000
2,50.8649058333,-0.0918171667,69.8000000000,-1.4375000000,-4.5625000000,3.7500000000,image163.jpg,32613.4733730000
2,50.8649043333,-0.0918168333,69.8000000000,-2.4375000000,-5.9375000000,5.3750000000,image164.jpg,32813.6725920000
5,50.8649033333,-0.0918150000,69.8000000000,0.3750000000,-3.9375000000,4.0625000000,image165.jpg,33014.3837380000
5,50.8649015000,-0.0918145000,69.8000000000,-6.6875000000,-3.7500000000,0.8750000000,image166.jpg,33214.7116020000
5,50.8649013333,-0.0918128333,69.7000000000,-1.1875000000,-2.1875000000,359.6250000000,image167.jpg,33414.9022270000
5,50.8649001667,-0.0918118333,69.7000000000,-5.0625000000,-0.1875000000,0.0625000000,image168.jpg,33615.0277480000
5,50.8648991667,-0.0918101667,69.7000000000,0.3125000000,-1.0000000000,0.6875000000,image169.jpg,33814.3448310000
5,50.8648973333,-0.0918086667,69.6000000000,2.5625000000,-3.5625000000,4.5625000000,image170.jpg,34014.0660290000
5,50.8648965000,-0.0918075000,69.6000000000,2.3125000000,-2.6875000000,7.5000000000,image171.jpg,34214.2337370000
2,50.8648950000,-0.0918061667,69.5000000000,0.8125000000,-5.9375000000,10.6250000000,image172.jpg,34414.8555080000
2,50.8648933333,-0.0918065000,69.5000000000,4.6250000000,-6.0000000000,8.4375000000,image173.jpg,34615.2391540000
2,50.8648913333,-0.0918070000,69.5000000000,-1.0000000000,-4.8125000000,8.3125000000,image174.jpg,34815.4908200000
2,50.8648900000,-0.0918051667,69.5000000000,-0.3750000000,-4.3750000000,7.3750000000,image175.jpg,35015.3404040000
2,50.8648881667,-0.0918045000,69.4000000000,-2.8125000000,-3.5625000000,7.7500000000,image176.jpg,35214.6231640000
2,50.8648873333,-0.0918036667,69.4000000000,-2.7500000000,-2.0625000000,7.7500000000,image177.jpg,35414.5478510000
2,50.8648860000,-0.0918035000,69.4000000000,-1.8125000000,-3.2500000000,8.6250000000,image178.jpg,35615.1455600000
2,50.8648853333,-0.0918028333,69.3000000000,-3.6875000000,-3.3750000000,12.8750000000,image179.jpg,35815.6894660000
2,50.8648846667,-0.0918021667,69.3000000000,-0.4375000000,-5.3125000000,18.9375000000,image180.jpg,36015.6994660000
2,50.8648831667,-0.0918015000,69.3000000000,-2.6875000000,-4.7500000000,18.1875000000,image181.jpg,36216.0755070000
2,50.8648826667,-0.0918000000,69.3000000000,-1.3750000000,-3.8750000000,17.0625000000,image182.jpg,36415.7719660000
2,50.8648816667,-0.0917998333,69.3000000000,-0.4375000000,-4.4375000000,14.9375000000,image183.jpg,36615.3438400000
2,50.8648803333,-0.0917981667,69.2000000000,-0.0625000000,-3.6250000000,12.6875000000,image184.jpg,36815.0273300000
5,50.8648781667,-0.0917978333,69.3000000000,-0.6875000000,-2.6875000000,12.3125000000,image185.jpg,37015.6514440000
5,50.8648761667,-0.0917973333,69.2000000000,-0.4375000000,-1.3750000000,14.4375000000,image186.jpg,37215.1725900000
2,50.8648748333,-0.0917961667,69.2000000000,-1.1250000000,-3.5000000000,15.4375000000,image187.jpg,37415.2489440000
2,50.8648728333,-0.0917956667,69.2000000000,-1.0000000000,-1.0000000000,16.1875000000,image188.jpg,37615.3188400000
2,50.8648716667,-0.0917941667,69.2000000000,2.1250000000,-0.9375000000,16.3125000000,image189.jpg,37815.3694650000
2,50.8648700000,-0.0917941667,69.2000000000,1.7500000000,-0.0625000000,14.7500000000,image190.jpg,38015.4446730000
2,50.8648695000,-0.0917930000,69.2000000000,-1.6875000000,0.9375000000,16.3750000000,image191.jpg,38215.5544130000
2,50.8648676667,-0.0917931667,69.2000000000,1.1875000000,0.0625000000,15.3125000000,image192.jpg,38415.9577460000
2,50.8648665000,-0.0917931667,69.3000000000,-1.1250000000,-2.1250000000,13.3125000000,image193.jpg,38615.6533190000
2,50.8648648333,-0.0917915000,69.2000000000,1.0000000000,-0.3125000000,15.5000000000,image194.jpg,38815.6476940000
5,50.8648635000,-0.0917908333,69.2000000000,0.5625000000,-1.5000000000,16.0000000000,image195.jpg,39015.7218600000
5,50.8648623333,-0.0917901667,69.2000000000,-0.6875000000,-1.3750000000,16.4375000000,image196.jpg,39215.7989440000
5,50.8648613333,-0.0917893333,69.2000000000,-0.1250000000,-1.1875000000,17.7500000000,image197.jpg,39415.8611830000
2,50.8648598333,-0.0917885000,69.2000000000,-1.2500000000,-2.1250000000,18.5625000000,image198.jpg,39616.6289960000
2,50.8648586667,-0.0917878333,69.2000000000,-1.6250000000,-1.3750000000,19.5625000000,image199.jpg,39816.9820160000
2,50.8648578333,-0.0917876667,69.3000000000,0.2500000000,-1.6250000000,21.1875000000,image200.jpg,40017.0208180000
2,50.8648568333,-0.0917871667,69.3000000000,-1.8750000000,-1.4375000000,20.5625000000,image201.jpg,40217.0639430000
2,50.8648548333,-0.0917876667,69.3000000000,0.5000000000,-0.0625000000,22.3125000000,image202.jpg,40416.6494120000
2,50.8648523333,-0.0917871667,69.2000000000,-1.5625000000,-0.5625000000,23.1250000000,image203.jpg,40616.1851930000
2,50.8648510000,-0.0917873333,69.3000000000,0.0000000000,-1.5625000000,22.4375000000,image204.jpg,40816.2437870000
5,50.8648491667,-0.0917876667,69.3000000000,-1.0625000000,-1.3125000000,23.8750000000,image205.jpg,41017.0483700000
5,50.8648476667,-0.0917866667,69.3000000000,-1.3125000000,0.0000000000,24.3125000000,image206.jpg,41217.3208700000
2,50.8648460000,-0.0917870000,69.3000000000,-1.1250000000,-1.0000000000,24.0000000000,image207.jpg,41417.4415990000
2,50.8648441667,-0.0917863333,69.3000000000,0.4375000000,-2.2500000000,25.5625000000,image208.jpg,41617.4575890000
2,50.8648426667,-0.0917863333,69.3000000000,0.1250000000,-2.0000000000,26.6250000000,image209.jpg,41816.6046200000
5,50.8648405000,-0.0917861667,69.3000000000,1.8750000000,-1.6250000000,25.8750000000,image210.jpg,42016.6804010000
5,50.8648401667,-0.0917856667,69.3000000000,3.0000000000,-0.6875000000,25.9375000000,image211.jpg,42217.0662860000
5,50.8648385000,-0.0917853333,69.3000000000,0.8125000000,-0.5625000000,20.4375000000,image212.jpg,42417.8007650000
5,50.8648370000,-0.0917845000,69.3000000000,0.0625000000,-1.0000000000,18.6250000000,image213.jpg,42617.8570670000
5,50.8648351667,-0.0917840000,69.3000000000,-2.4375000000,-0.1250000000,18.8125000000,image214.jpg,42817.9492550000
5,50.8648333333,-0.0917835000,69.3000000000,-4.2500000000,0.5000000000,18.5625000000,image215.jpg,43017.5501400000
5,50.8648320000,-0.0917826667,69.2000000000,-6.4375000000,-1.0000000000,18.8125000000,image216.jpg,43217.1005050000
5,50.8648306667,-0.0917821667,69.2000000000,-6.0000000000,-1.5625000000,18.3750000000,image217.jpg,43417.1725880000
5,50.8648290000,-0.0917820000,69.2000000000,-5.7500000000,-2.3750000000,22.8125000000,image218.jpg,43617.6112340000
5,50.8648273333,-0.0917815000,69.2000000000,-3.8125000000,-1.0000000000,23.7500000000,image219.jpg,43817.2154520000
5,50.8648261667,-0.0917811667,69.2000000000,-5.3750000000,0.0000000000,24.5000000000,image220.jpg,44017.4460770000
5,50.8648245000,-0.0917803333,69.2000000000,-4.5000000000,-0.5625000000,24.3125000000,image221.jpg,44217.3997230000
2,50.8648221667,-0.0917798333,69.2000000000,-4.3125000000,-1.8125000000,22.4375000000,image222.jpg,44417.4628480000
2,50.8648205000,-0.0917796667,69.2000000000,-5.6875000000,-0.9375000000,21.1875000000,image223.jpg,44617.5472750000
2,50.8648191667,-0.0917791667,69.1000000000,-4.3750000000,-1.3750000000,21.8125000000,image224.jpg,44817.7984730000
5,50.8648176667,-0.0917786667,69.1000000000,-3.9375000000,-0.5000000000,21.3750000000,image225.jpg,45017.6857640000
5,50.8648165000,-0.0917778333,69.1000000000,-5.5000000000,0.8750000000,21.5625000000,image226.jpg,45217.7392540000
2,50.8648148333,-0.0917771667,69.1000000000,-4.8125000000,-0.1250000000,19.4375000000,image227.jpg,45417.7232640000
2,50.8648130000,-0.0917771667,69.1000000000,-5.6875000000,-1.3750000000,19.1250000000,image228.jpg,45617.9019100000
2,50.8648111667,-0.0917776667,69.0000000000,-5.3125000000,0.3750000000,19.2500000000,image229.jpg,45817.9613890000
5,50.8648103333,-0.0917775000,69.0000000000,-5.7500000000,0.6250000000,19.3750000000,image230.jpg,46018.0217540000
5,50.8648088333,-0.0917768333,69.0000000000,-7.5000000000,-0.1875000000,18.8750000000,image231.jpg,46218.8577430000
5,50.8648081667,-0.0917760000,69.1000000000,-6.4375000000,0.2500000000,17.0625000000,image232.jpg,46419.2361800000
2,50.8648075000,-0.0917761667,69.1000000000,-8.7500000000,-2.5000000000,17.1875000000,image233.jpg,46619.3043570000
2,50.8648061667,-0.0917750000,69.1000000000,-7.6250000000,-3.1250000000,16.6250000000,image234.jpg,46819.3144620000
5,50.8648048333,-0.0917746667,69.1000000000,-8.3125000000,0.2500000000,16.5625000000,image235.jpg,47018.6970140000
5,50.8648026667,-0.0917740000,69.1000000000,-9.6875000000,-0.1875000000,16.6875000000,image236.jpg,47218.4419610000
5,50.8648013333,-0.0917735000,69.1000000000,-8.6875000000,0.0000000000,16.8750000000,image237.jpg,47418.5117010000
5,50.8647998333,-0.0917723333,69.0000000000,-7.6875000000,-0.6875000000,14.0000000000,image238.jpg,47619.3594090000
5,50.8647981667,-0.0917716667,69.0000000000,-8.8125000000,0.0000000000,13.6875000000,image239.jpg,47819.5661280000
5,50.8647971667,-0.0917710000,69.0000000000,-4.0000000000,1.3750000000,14.8750000000,image240.jpg,48019.6299300000
5,50.8647960000,-0.0917698333,69.0000000000,-7.1875000000,-0.3750000000,14.2500000000,image241.jpg,48219.7988360000
5,50.8647946667,-0.0917685000,68.9000000000,-4.4375000000,-0.3125000000,15.6875000000,image242.jpg,48418.8560760000
5,50.8647930000,-0.0917676667,69.0000000000,-7.0000000000,-1.1250000000,17.1250000000,image243.jpg,48618.9257110000
2,50.8647918333,-0.0917666667,68.9000000000,-5.3750000000,-3.0000000000,16.1250000000,image244.jpg,48819.2892520000
5,50.8647900000,-0.0917661667,68.9000000000,-5.8750000000,-2.6875000000,15.5625000000,image245.jpg,49020.2726380000
2,50.8647881667,-0.0917645000,68.9000000000,-5.5625000000,-0.9375000000,15.9375000000,image246.jpg,49220.0377420000
2,50.8647871667,-0.0917638333,68.9000000000,-6.3750000000,0.5625000000,16.6875000000,image247.jpg,49420.1015440000
2,50.8647861667,-0.0917626667,68.9000000000,-7.5625000000,0.4375000000,15.1250000000,image248.jpg,49619.9400860000
2,50.8647855000,-0.0917621667,68.8000000000,-9.3750000000,1.2500000000,15.8125000000,image249.jpg,49819.3285750000
5,50.8647840000,-0.0917608333,68.8000000000,-5.7500000000,0.3750000000,15.0625000000,image250.jpg,50019.3509190000
2,50.8647818333,-0.0917601667,68.8000000000,-5.5625000000,-0.1250000000,13.6875000000,image251.jpg,50220.2460230000
2,50.8647798333,-0.0917593333,68.8000000000,-7.1875000000,-2.9375000000,15.0000000000,image252.jpg,50419.5212310000
2,50.8647781667,-0.0917583333,68.7000000000,-5.6875000000,-3.1875000000,14.7500000000,image253.jpg,50619.6302930000
2,50.8647765000,-0.0917580000,68.7000000000,-9.2500000000,0.0000000000,14.1250000000,image254.jpg,50819.9319080000
5,50.8647753333,-0.0917570000,68.7000000000,-7.8125000000,-0.5625000000,15.3125000000,image255.jpg,51019.7529500000
2,50.8647730000,-0.0917561667,68.7000000000,-9.0000000000,-1.3750000000,15.8750000000,image256.jpg,51219.8281580000
2,50.8647713333,-0.0917555000,68.6000000000,-8.2500000000,0.3750000000,16.8125000000,image257.jpg,51419.9718040000
2,50.8647696667,-0.0917551667,68.6000000000,-6.9375000000,0.5000000000,17.5000000000,image258.jpg,51619.9788350000
2,50.8647696667,-0.0917533333,68.6000000000,-7.0625000000,0.0000000000,16.6250000000,image259.jpg,51820.0007620000
5,50.8647676667,-0.0917523333,68.6000000000,-5.3125000000,0.2500000000,15.1250000000,image260.jpg,52020.1081580000
5,50.8647668333,-0.0917518333,68.6000000000,-5.0625000000,1.0625000000,15.3750000000,image261.jpg,52220.1707620000
2,50.8647655000,-0.0917510000,68.7000000000,-6.2500000000,1.0000000000,15.0625000000,image262.jpg,52420.2419070000
2,50.8647641667,-0.0917505000,68.6000000000,-5.2500000000,0.6875000000,15.0000000000,image263.jpg,52620.2489910000
2,50.8647636667,-0.0917496667,68.6000000000,-6.3750000000,-1.8750000000,15.5000000000,image264.jpg,52821.2688340000
5,50.8647626667,-0.0917481667,68.7000000000,-1.9375000000,-2.6250000000,14.0000000000,image265.jpg,53021.2955530000
5,50.8647611667,-0.0917468333,68.6000000000,-5.5625000000,0.6250000000,13.8125000000,image266.jpg,53221.4111780000
5,50.8647596667,-0.0917450000,68.6000000000,-3.0625000000,-0.5000000000,13.6875000000,image267.jpg,53421.4828440000
2,50.8647581667,-0.0917448333,68.6000000000,-4.3125000000,0.8125000000,14.3750000000,image268.jpg,53620.6373240000
2,50.8647566667,-0.0917441667,68.6000000000,-3.4375000000,1.8750000000,14.7500000000,image269.jpg,53820.6959170000
5,50.8647565000,-0.0917426667,68.6000000000,-4.3125000000,1.8750000000,13.5625000000,image270.jpg,54020.9360210000
5,50.8647555000,-0.0917415000,68.6000000000,-5.1250000000,-0.2500000000,12.8750000000,image271.jpg,54221.7741460000
2,50.8647546667,-0.0917406667,68.6000000000,-3.6250000000,0.5000000000,13.0000000000,image272.jpg,54421.8413340000
2,50.8647536667,-0.0917395000,68.6000000000,-5.6875000000,-0.6875000000,12.8125000000,image273.jpg,54621.8515420000
2,50.8647518333,-0.0917381667,68.6000000000,-2.8125000000,-2.8750000000,16.1250000000,image274.jpg,54822.1813860000
5,50.8647505000,-0.0917375000,68.5000000000,-0.3125000000,0.0625000000,14.8125000000,image275.jpg,55021.1230520000
2,50.8647485000,-0.0917366667,68.5000000000,-2.9375000000,-0.7500000000,16.1250000000,image276.jpg,55221.2369580000
2,50.8647470000,-0.0917360000,68.5000000000,0.1875000000,-1.4375000000,16.1250000000,image277.jpg,55421.7410730000
2,50.8647456667,-0.0917358333,68.5000000000,-1.3750000000,-2.6250000000,18.7500000000,image278.jpg,55622.2161250000
2,50.8647446667,-0.0917351667,68.5000000000,0.2500000000,-1.8125000000,18.5625000000,image279.jpg,55822.3832080000
5,50.8647433333,-0.0917333333,68.4000000000,-0.6250000000,-0.7500000000,17.3125000000,image280.jpg,56022.4744060000
5,50.8647420000,-0.0917321667,68.4000000000,2.8125000000,-0.1875000000,17.4375000000,image281.jpg,56221.5700830000
2,50.8647406667,-0.0917316667,68.4000000000,1.3125000000,-0.1875000000,15.1875000000,image282.jpg,56421.5814890000
2,50.8647395000,-0.0917306667,68.5000000000,2.0625000000,2.1250000000,15.7500000000,image283.jpg,56621.8498740000
2,50.8647393333,-0.0917303333,68.5000000000,1.1250000000,4.2500000000,17.0625000000,image284.jpg,56821.7052910000
5,50.8647376667,-0.0917298333,68.5000000000,2.5000000000,-1.3750000000,15.9375000000,image285.jpg,57021.7947180000
2,50.8647368333,-0.0917290000,68.5000000000,-0.1875000000,-4.2500000000,13.4375000000,image286.jpg,57221.8228950000
2,50.8647351667,-0.0917280000,68.5000000000,2.3750000000,-1.3750000000,12.9375000000,image287.jpg,57421.9597180000
2,50.8647335000,-0.0917273333,68.4000000000,1.5625000000,-1.8750000000,12.8750000000,image288.jpg,57622.0476350000
2,50.8647323333,-0.0917263333,68.4000000000,-0.1250000000,-0.6250000000,12.8125000000,image289.jpg,57822.1277910000
2,50.8647310000,-0.0917255000,68.4000000000,-0.0625000000,0.3125000000,13.1875000000,image290.jpg,58022.7630510000
2,50.8647295000,-0.0917243333,68.4000000000,-0.5625000000,-0.1875000000,13.4375000000,image291.jpg,58222.2548740000
2,50.8647278333,-0.0917233333,68.4000000000,-0.8750000000,0.6875000000,14.2500000000,image292.jpg,58422.3437280000
2,50.8647265000,-0.0917225000,68.4000000000,0.0000000000,0.1875000000,15.7500000000,image293.jpg,58622.6120610000
2,50.8647256667,-0.0917216667,68.3000000000,0.0000000000,0.3750000000,17.2500000000,image294.jpg,58822.5743530000
5,50.8647240000,-0.0917201667,68.3000000000,1.2500000000,0.6875000000,17.9375000000,image295.jpg,59022.5736240000
5,50.8647225000,-0.0917191667,68.3000000000,1.1250000000,-0.2500000000,18.0000000000,image296.jpg,59223.1189880000
2,50.8647208333,-0.0917181667,68.2000000000,0.5625000000,-0.1875000000,17.4375000000,image297.jpg,59423.8152380000
2,50.8647193333,-0.0917166667,68.2000000000,1.0000000000,0.3750000000,14.9375000000,image298.jpg,59623.6547170000
2,50.8647170000,-0.0917165000,68.3000000000,1.1250000000,-1.0000000000,13.1875000000,image299.jpg,59823.7047170000
2,50.8647163333,-0.0917150000,68.3000000000,-1.8125000000,0.5625000000,11.0625000000,image300.jpg,60023.4826340000
2,50.8647150000,-0.0917141667,68.3000000000,-1.0625000000,0.0000000000,11.0000000000,image301.jpg,60222.9313840000
2,50.8647131667,-0.0917130000,68.3000000000,-2.3125000000,-0.4375000000,10.5000000000,image302.jpg,60422.9690920000
2,50.8647116667,-0.0917121667,68.2000000000,0.5000000000,0.5000000000,10.5625000000,image303.jpg,60623.5970600000
2,50.8647103333,-0.0917111667,68.2000000000,-3.6875000000,1.4375000000,9.8750000000,image304.jpg,60823.9696650000
5,50.8647085000,-0.0917100000,68.3000000000,-2.6875000000,1.6875000000,8.6875000000,image305.jpg,61024.1184670000
5,50.8647066667,-0.0917090000,68.3000000000,-4.0000000000,1.5625000000,8.1875000000,image306.jpg,61224.3535710000
5,50.8647055000,-0.0917071667,68.3000000000,-5.8125000000,2.1250000000,6.3750000000,image307.jpg,61423.2619560000
5,50.8647035000,-0.0917063333,68.3000000000,-5.8750000000,1.5000000000,5.3750000000,image308.jpg,61623.3257060000
2,50.8647020000,-0.0917051667,68.3000000000,-7.6875000000,2.8125000000,4.9375000000,image309.jpg,61823.7707580000
5,50.8647005000,-0.0917040000,68.3000000000,-6.9375000000,2.5625000000,4.6875000000,image310.jpg,62024.6730500000
2,50.8646991667,-0.0917030000,68.3000000000,-7.3750000000,3.5000000000,5.0000000000,image311.jpg,62224.9220080000
2,50.8646973333,-0.0917020000,68.3000000000,-4.0000000000,3.7500000000,3.9375000000,image312.jpg,62424.5419560000
2,50.8646955000,-0.0917008333,68.3000000000,-3.6875000000,2.6250000000,359.6250000000,image313.jpg,62624.6971120000
2,50.8646943333,-0.0916988333,68.3000000000,-0.4375000000,3.9375000000,357.6875000000,image314.jpg,62823.8639870000
5,50.8646925000,-0.0916975000,68.3000000000,0.6250000000,3.6875000000,354.6875000000,image315.jpg,63023.9076320000
5,50.8646910000,-0.0916955000,68.3000000000,0.1250000000,4.1250000000,353.3750000000,image316.jpg,63224.5703930000
5,50.8646895000,-0.0916935000,68.3000000000,0.3750000000,2.7500000000,354.2500000000,image317.jpg,63424.1228410000
5,50.8646876667,-0.0916920000,68.2000000000,-0.6875000000,3.0625000000,354.9375000000,image318.jpg,63624.3922160000
5,50.8646861667,-0.0916896667,68.2000000000,-1.7500000000,1.4375000000,352.1250000000,image319.jpg,63824.1632570000
5,50.8646846667,-0.0916883333,68.2000000000,-1.0000000000,2.8750000000,349.9375000000,image320.jpg,64024.2590380000
2,50.8646831667,-0.0916868333,68.2000000000,-2.5000000000,1.3750000000,347.2500000000,image321.jpg,64224.3267990000
2,50.8646815000,-0.0916853333,68.2000000000,0.4375000000,2.3750000000,345.3750000000,image322.jpg,64424.5227360000
2,50.8646803333,-0.0916841667,68.2000000000,-3.3125000000,7.0000000000,344.9375000000,image323.jpg,64624.4607570000
2,50.8646790000,-0.0916825000,68.3000000000,1.1875000000,2.4375000000,348.3125000000,image324.jpg,64824.4708090000
5,50.8646770000,-0.0916816667,68.2000000000,-6.5000000000,-1.0000000000,354.1250000000,image325.jpg,65024.6827880000
5,50.8646751667,-0.0916805000,68.2000000000,0.0000000000,-0.0625000000,0.8125000000,image326.jpg,65224.7125800000
5,50.8646731667,-0.0916798333,68.2000000000,-4.3750000000,-0.3750000000,357.3125000000,image327.jpg,65424.7977880000
2,50.8646716667,-0.0916786667,68.3000000000,2.1250000000,-0.8125000000,350.6250000000,image328.jpg,65625.3271630000
2,50.8646706667,-0.0916766667,68.2000000000,-0.6250000000,1.9375000000,344.6875000000,image329.jpg,65825.8281000000
5,50.8646695000,-0.0916741667,68.2000000000,1.1250000000,2.3125000000,339.8750000000,image330.jpg,66026.2158600000
2,50.8646686667,-0.0916721667,68.2000000000,1.1875000000,0.0000000000,333.5625000000,image331.jpg,66226.0198190000
