gps quality,lat,lon,altitude,roll,pitch,yaw,image name,timestamp
4,50.8634171667,-0.0939376667,56.6000000000,6.6875000000,-1.6875000000,0.0000000000,image0.jpg,2.5672020000
4,50.8634170000,-0.0939376667,56.6000000000,6.6875000000,-1.6875000000,0.0000000000,image1.jpg,201.8718980000
4,50.8634170000,-0.0939376667,56.6000000000,6.6875000000,-1.6875000000,0.0000000000,image2.jpg,402.5323250000
4,50.8634170000,-0.0939375000,56.6000000000,6.6875000000,-1.6875000000,0.0000000000,image3.jpg,603.3194510000
4,50.8634170000,-0.0939376667,56.6000000000,6.6875000000,-1.6875000000,0.0000000000,image4.jpg,803.0060220000
4,50.8634170000,-0.0939376667,56.6000000000,6.6875000000,-1.6875000000,0.0000000000,image5.jpg,1001.9618240000
4,50.8634171667,-0.0939376667,56.6000000000,6.6875000000,-1.6875000000,0.0000000000,image6.jpg,1202.2304250000
4,50.8634170000,-0.0939376667,56.6000000000,6.6875000000,-1.6875000000,0.0000000000,image7.jpg,1402.3659830000
4,50.8634170000,-0.0939376667,56.6000000000,6.6875000000,-1.6875000000,0.0000000000,image8.jpg,1603.4182930000
4,50.8634170000,-0.0939375000,56.6000000000,6.6875000000,-1.6875000000,0.0000000000,image9.jpg,1803.3557230000
4,50.8634170000,-0.0939376667,56.6000000000,6.6875000000,-1.6875000000,0.0000000000,image10.jpg,2003.5378540000
4,50.8634170000,-0.0939376667,56.6000000000,6.8125000000,-1.6875000000,359.9375000000,image11.jpg,2202.2545420000
4,50.8634170000,-0.0939376667,56.6000000000,6.9375000000,-1.5625000000,359.9375000000,image12.jpg,2402.3999090000
4,50.8634171667,-0.0939378333,56.6000000000,6.8750000000,-1.3125000000,359.8750000000,image13.jpg,2603.4265540000
4,50.8634176667,-0.0939383333,56.6000000000,6.2500000000,-0.6250000000,0.5000000000,image14.jpg,2803.5204520000
4,50.8634185000,-0.0939390000,56.6000000000,7.5625000000,-1.8125000000,0.7500000000,image15.jpg,3003.5751210000
4,50.8634193333,-0.0939400000,56.6000000000,7.1250000000,-0.9375000000,1.3750000000,image16.jpg,3202.7693530000
4,50.8634196667,-0.0939405000,56.6000000000,8.1250000000,-2.0625000000,0.5625000000,image17.jpg,3402.6998950000
4,50.8634208333,-0.0939418333,56.6000000000,7.8125000000,-1.6250000000,0.0625000000,image18.jpg,3603.6405040000
4,50.8634216667,-0.0939426667,56.6000000000,8.0625000000,-2.8750000000,359.9375000000,image19.jpg,3802.9315630000
4,50.8634223333,-0.0939436667,56.6000000000,7.1250000000,-2.3125000000,0.8750000000,image20.jpg,4002.8967060000
4,50.8634228333,-0.0939440000,56.6000000000,7.1875000000,-1.4375000000,1.2500000000,image21.jpg,4203.1184270000
4,50.8634236667,-0.0939446667,56.6000000000,8.0000000000,-1.3750000000,1.4375000000,image22.jpg,4403.1310550000
4,50.8634243333,-0.0939456667,56.7000000000,7.4375000000,-0.7500000000,1.6250000000,image23.jpg,4603.2340850000
4,50.8634255000,-0.0939468333,56.7000000000,8.1250000000,-0.3125000000,2.3750000000,image24.jpg,4803.3241950000
4,50.8634260000,-0.0939471667,56.7000000000,6.8125000000,-1.3125000000,3.0625000000,image25.jpg,5003.2776540000
4,50.8634273333,-0.0939486667,56.7000000000,7.5625000000,-1.8125000000,3.6250000000,image26.jpg,5203.4343960000
4,50.8634278333,-0.0939490000,56.7000000000,7.8125000000,-1.6250000000,3.3750000000,image27.jpg,5403.4541440000
4,50.8634295000,-0.0939505000,56.7000000000,7.3750000000,-1.7500000000,4.3125000000,image28.jpg,5603.7820710000
4,50.8634306667,-0.0939515000,56.7000000000,7.5000000000,-2.2500000000,4.6250000000,image29.jpg,5804.2806150000
4,50.8634316667,-0.0939526667,56.7000000000,7.3750000000,-2.3125000000,4.5625000000,image30.jpg,6005.1224780000
4,50.8634325000,-0.0939535000,56.7000000000,8.8125000000,-2.1250000000,4.7500000000,image31.jpg,6204.6433190000
4,50.8634331667,-0.0939540000,56.7000000000,9.0625000000,-2.0000000000,5.3750000000,image32.jpg,6404.5867480000
4,50.8634346667,-0.0939553333,56.7000000000,7.5000000000,-1.9375000000,3.5000000000,image33.jpg,6604.0385130000
4,50.8634351667,-0.0939558333,56.7000000000,7.8750000000,-1.9375000000,2.3125000000,image34.jpg,6804.0152570000
4,50.8634365000,-0.0939573333,56.7000000000,9.0625000000,-2.2500000000,2.0625000000,image35.jpg,7005.4346150000
4,50.8634376667,-0.0939585000,56.7000000000,8.6250000000,-2.3125000000,2.5000000000,image36.jpg,7205.0701250000
4,50.8634385000,-0.0939595000,56.7000000000,9.1250000000,-3.1875000000,3.0625000000,image37.jpg,7405.0667510000
4,50.8634396667,-0.0939603333,56.7000000000,8.8750000000,-2.6875000000,3.7500000000,image38.jpg,7604.2473110000
4,50.8634406667,-0.0939613333,56.7000000000,8.7500000000,-2.3750000000,4.6250000000,image39.jpg,7804.3878070000
4,50.8634416667,-0.0939621667,56.7000000000,8.1875000000,-2.1250000000,5.2500000000,image40.jpg,8005.1501820000
4,50.8634428333,-0.0939631667,56.7000000000,7.0000000000,-2.0000000000,5.8125000000,image41.jpg,8205.4482180000
4,50.8634433333,-0.0939635000,56.7000000000,6.3125000000,-2.1250000000,6.5625000000,image42.jpg,8405.3686390000
4,50.8634450000,-0.0939648333,56.7000000000,6.6250000000,-1.6875000000,6.6875000000,image43.jpg,8605.4855530000
4,50.8634461667,-0.0939658333,56.7000000000,6.6250000000,-2.1250000000,7.0000000000,image44.jpg,8804.6019500000
4,50.8634471667,-0.0939668333,56.7000000000,6.5000000000,-1.0625000000,8.0000000000,image45.jpg,9005.0764050000
4,50.8634483333,-0.0939676667,56.7000000000,6.7500000000,-1.2500000000,8.6250000000,image46.jpg,9204.8886580000
4,50.8634490000,-0.0939681667,56.7000000000,7.1250000000,-2.0625000000,10.0000000000,image47.jpg,9404.7617540000
4,50.8634508333,-0.0939691667,56.7000000000,6.2500000000,-1.6875000000,12.3750000000,image48.jpg,9605.3694460000
4,50.8634518333,-0.0939698333,56.7000000000,7.4375000000,-0.3750000000,14.5000000000,image49.jpg,9805.0629450000
4,50.8634531667,-0.0939706667,56.7000000000,7.3750000000,0.8125000000,15.6250000000,image50.jpg,10005.1440430000
4,50.8634541667,-0.0939710000,56.7000000000,7.3750000000,-0.1875000000,17.2500000000,image51.jpg,10205.2773420000
4,50.8634548333,-0.0939715000,56.7000000000,7.5625000000,-0.3750000000,19.7500000000,image52.jpg,10405.1442690000
4,50.8634566667,-0.0939720000,56.7000000000,8.0000000000,-1.7500000000,21.1875000000,image53.jpg,10605.5304790000
4,50.8634578333,-0.0939725000,56.7000000000,9.5000000000,-0.7500000000,23.0000000000,image54.jpg,10805.5593060000
4,50.8634591667,-0.0939726667,56.7000000000,8.2500000000,-0.5625000000,25.6875000000,image55.jpg,11005.4333530000
4,50.8634603333,-0.0939731667,56.7000000000,9.6250000000,-0.8750000000,27.9375000000,image56.jpg,11206.0980710000
4,50.8634610000,-0.0939731667,56.7000000000,7.7500000000,-0.6250000000,28.8750000000,image57.jpg,11406.4981880000
4,50.8634630000,-0.0939735000,56.7000000000,8.0000000000,-1.0000000000,30.6250000000,image58.jpg,11606.8042610000
4,50.8634641667,-0.0939735000,56.7000000000,8.0625000000,-1.3750000000,31.3125000000,image59.jpg,11806.5239350000
4,50.8634653333,-0.0939736667,56.7000000000,7.8750000000,-0.4375000000,31.3750000000,image60.jpg,12005.8139700000
4,50.8634665000,-0.0939738333,56.7000000000,7.3750000000,-0.2500000000,30.6875000000,image61.jpg,12205.7132210000
4,50.8634673333,-0.0939738333,56.7000000000,8.0000000000,-0.5625000000,29.5625000000,image62.jpg,12406.4903470000
4,50.8634691667,-0.0939741667,56.7000000000,8.5000000000,-1.3125000000,28.4375000000,image63.jpg,12607.3727070000
4,50.8634703333,-0.0939745000,56.8000000000,7.0000000000,-1.1250000000,27.2500000000,image64.jpg,12806.9695340000
4,50.8634716667,-0.0939748333,56.8000000000,7.6875000000,-2.2500000000,26.6875000000,image65.jpg,13006.2906140000
4,50.8634728333,-0.0939750000,56.8000000000,6.5625000000,-1.8125000000,24.7500000000,image66.jpg,13206.0786350000
4,50.8634735000,-0.0939751667,56.8000000000,7.4375000000,-1.9375000000,23.4375000000,image67.jpg,13406.3783470000
4,50.8634753333,-0.0939756667,56.8000000000,6.5000000000,-1.2500000000,23.0000000000,image68.jpg,13607.4542460000
4,50.8634766667,-0.0939763333,56.8000000000,7.3125000000,-1.6875000000,22.4375000000,image69.jpg,13807.3514640000
4,50.8634780000,-0.0939766667,56.8000000000,7.0625000000,-2.7500000000,21.4375000000,image70.jpg,14007.3948120000
4,50.8634791667,-0.0939771667,56.8000000000,6.5000000000,-3.2500000000,20.8750000000,image71.jpg,14206.7278250000
4,50.8634800000,-0.0939775000,56.8000000000,6.8125000000,-2.9375000000,20.5625000000,image72.jpg,14406.4434370000
4,50.8634818333,-0.0939781667,56.8000000000,6.6875000000,-2.6875000000,20.1875000000,image73.jpg,14608.6003960000
4,50.8634831667,-0.0939786667,56.8000000000,6.3750000000,-2.2500000000,19.9375000000,image74.jpg,14806.7916210000
4,50.8634843333,-0.0939791667,56.8000000000,5.7500000000,-2.5625000000,20.3750000000,image75.jpg,15006.8548260000
4,50.8634856667,-0.0939798333,56.8000000000,5.5625000000,-2.8750000000,20.4375000000,image76.jpg,15206.9238140000
4,50.8634863333,-0.0939801667,56.8000000000,6.1875000000,-3.3125000000,21.2500000000,image77.jpg,15406.7892140000
4,50.8634881667,-0.0939808333,56.8000000000,5.6250000000,-3.3125000000,20.4375000000,image78.jpg,15607.4353400000
4,50.8634888333,-0.0939810000,56.8000000000,3.3750000000,-2.4375000000,18.6875000000,image79.jpg,15806.9203950000
4,50.8634908333,-0.0939818333,56.7000000000,1.0000000000,-2.6875000000,16.2500000000,image80.jpg,16007.5457350000
4,50.8634920000,-0.0939823333,56.8000000000,0.5625000000,-3.3125000000,14.6250000000,image81.jpg,16207.1995820000
4,50.8634933333,-0.0939830000,56.8000000000,2.0625000000,-2.3750000000,11.8750000000,image82.jpg,16407.2836480000
4,50.8634941667,-0.0939840000,56.7000000000,3.0625000000,-1.5000000000,10.3125000000,image83.jpg,16607.3792410000
4,50.8634948333,-0.0939845000,56.7000000000,5.3125000000,-0.1875000000,9.5000000000,image84.jpg,16808.4483050000
4,50.8634965000,-0.0939856667,56.8000000000,5.0625000000,-0.1250000000,11.5625000000,image85.jpg,17008.6223020000
4,50.8634976667,-0.0939866667,56.8000000000,7.6875000000,-0.3750000000,13.3125000000,image86.jpg,17208.4754910000
4,50.8634983333,-0.0939871667,56.8000000000,6.7500000000,-1.9375000000,13.6250000000,image87.jpg,17407.4537860000
4,50.8635001667,-0.0939880000,56.8000000000,4.8125000000,-0.2500000000,14.5000000000,image88.jpg,17607.9158510000
4,50.8635006667,-0.0939883333,56.8000000000,6.9375000000,-2.1875000000,14.7500000000,image89.jpg,17808.1248830000
4,50.8635026667,-0.0939893333,56.8000000000,4.6875000000,-2.5000000000,15.0000000000,image90.jpg,18009.2185630000
4,50.8635038333,-0.0939903333,56.8000000000,6.4375000000,-1.1875000000,14.1250000000,image91.jpg,18209.0435420000
4,50.8635045000,-0.0939906667,56.8000000000,5.3750000000,-0.8125000000,12.6875000000,image92.jpg,18408.5238180000
4,50.8635063333,-0.0939920000,56.8000000000,6.8125000000,-1.5000000000,10.8125000000,image93.jpg,18608.1591480000
4,50.8635070000,-0.0939923333,56.8000000000,6.3125000000,-1.8750000000,10.1250000000,image94.jpg,18808.1384160000
4,50.8635088333,-0.0939938333,56.8000000000,7.1875000000,-2.5625000000,10.1875000000,image95.jpg,19009.2957370000
4,50.8635100000,-0.0939946667,56.8000000000,7.1250000000,-2.1250000000,9.9375000000,image96.jpg,19209.1617480000
4,50.8635113333,-0.0939955000,56.8000000000,6.5625000000,-3.1250000000,8.5625000000,image97.jpg,19409.1490600000
4,50.8635125000,-0.0939966667,56.8000000000,7.1875000000,-3.0000000000,6.8125000000,image98.jpg,19608.4521590000
4,50.8635131667,-0.0939973333,56.8000000000,7.0625000000,-3.2500000000,5.8750000000,image99.jpg,19808.2740310000
4,50.8635148333,-0.0939988333,56.8000000000,8.2500000000,-2.9375000000,5.6250000000,image100.jpg,20009.3055760000
4,50.8635161667,-0.0940000000,56.8000000000,7.8125000000,-3.1250000000,6.5625000000,image101.jpg,20209.5422900000
4,50.8635166667,-0.0940005000,56.8000000000,7.5625000000,-2.2500000000,5.1875000000,image102.jpg,20408.5131430000
4,50.8635185000,-0.0940020000,56.8000000000,6.4375000000,-3.0625000000,4.4375000000,image103.jpg,20608.9309330000
4,50.8635190000,-0.0940026667,56.8000000000,5.4375000000,-3.0000000000,2.8125000000,image104.jpg,20808.6175550000
4,50.8635208333,-0.0940045000,56.8000000000,5.4375000000,-3.4375000000,1.4375000000,image105.jpg,21009.2020020000
4,50.8635218333,-0.0940058333,56.8000000000,5.5625000000,-3.0625000000,358.8750000000,image106.jpg,21208.8960730000
4,50.8635223333,-0.0940063333,56.8000000000,5.2500000000,-3.9375000000,357.8125000000,image107.jpg,21408.8221540000
4,50.8635240000,-0.0940081667,56.8000000000,5.3750000000,-3.2500000000,358.3125000000,image108.jpg,21609.2100900000
4,50.8635251667,-0.0940096667,56.8000000000,6.8125000000,-3.1250000000,358.3750000000,image109.jpg,21809.0464320000
4,50.8635263333,-0.0940110000,56.8000000000,5.3125000000,-4.3125000000,359.2500000000,image110.jpg,22009.3289260000
4,50.8635273333,-0.0940123333,56.8000000000,6.0000000000,-4.2500000000,359.5000000000,image111.jpg,22210.2986180000
4,50.8635285000,-0.0940135000,56.8000000000,6.0000000000,-4.8750000000,359.0625000000,image112.jpg,22410.2059940000
4,50.8635295000,-0.0940148333,56.8000000000,5.3750000000,-4.8750000000,357.9375000000,image113.jpg,22610.4971370000
4,50.8635306667,-0.0940163333,56.8000000000,6.3750000000,-4.0625000000,356.2500000000,image114.jpg,22809.3636090000
4,50.8635316667,-0.0940178333,56.8000000000,5.9375000000,-4.6250000000,354.7500000000,image115.jpg,23009.6456870000
4,50.8635326667,-0.0940191667,56.8000000000,7.7500000000,-4.0625000000,353.8750000000,image116.jpg,23210.1097880000
4,50.8635336667,-0.0940206667,56.8000000000,6.5625000000,-4.3750000000,353.0625000000,image117.jpg,23410.5418750000
4,50.8635346667,-0.0940223333,56.8000000000,6.4375000000,-4.5000000000,352.7500000000,image118.jpg,23610.7655070000
4,50.8635358333,-0.0940236667,56.8000000000,5.1250000000,-5.3125000000,351.6875000000,image119.jpg,23810.6177470000
4,50.8635366667,-0.0940253333,56.8000000000,5.8125000000,-4.8750000000,351.8750000000,image120.jpg,24009.8191520000
4,50.8635376667,-0.0940266667,56.8000000000,6.0000000000,-3.1250000000,350.0625000000,image121.jpg,24210.1347850000
4,50.8635386667,-0.0940281667,56.8000000000,5.1250000000,-3.2500000000,349.5625000000,image122.jpg,24411.0460620000
4,50.8635395000,-0.0940298333,56.8000000000,6.5625000000,-3.8750000000,349.4375000000,image123.jpg,24611.1911440000
4,50.8635400000,-0.0940305000,56.8000000000,5.6250000000,-3.6250000000,347.8750000000,image124.jpg,24810.9809310000
4,50.8635415000,-0.0940328333,56.8000000000,4.3750000000,-2.5000000000,347.1875000000,image125.jpg,25010.4890360000
4,50.8635421667,-0.0940345000,56.8000000000,4.5625000000,-1.8750000000,346.0000000000,image126.jpg,25210.2601730000
4,50.8635430000,-0.0940361667,56.9000000000,5.4375000000,-2.9375000000,343.5625000000,image127.jpg,25411.1382250000
4,50.8635436667,-0.0940376667,56.9000000000,5.0625000000,-4.1250000000,342.6875000000,image128.jpg,25610.4402530000
4,50.8635440000,-0.0940386667,56.9000000000,6.5625000000,-4.2500000000,341.3125000000,image129.jpg,25810.4543290000
4,50.8635451667,-0.0940411667,56.9000000000,5.2500000000,-3.6875000000,340.1250000000,image130.jpg,26010.8316700000
4,50.8635458333,-0.0940426667,56.9000000000,5.7500000000,-3.5000000000,340.5625000000,image131.jpg,26210.7002940000
4,50.8635466667,-0.0940443333,56.9000000000,5.8125000000,-3.1250000000,342.3750000000,image132.jpg,26410.9530560000
4,50.8635475000,-0.0940460000,56.9000000000,5.3125000000,-3.1875000000,342.4375000000,image133.jpg,26610.9496990000
4,50.8635480000,-0.0940470000,56.9000000000,5.7500000000,-3.8750000000,342.7500000000,image134.jpg,26810.8419430000
4,50.8635491667,-0.0940495000,56.9000000000,5.0000000000,-4.3750000000,343.3750000000,image135.jpg,27011.2661890000
4,50.8635501667,-0.0940513333,56.9000000000,5.1875000000,-4.3125000000,344.2500000000,image136.jpg,27211.1166000000
4,50.8635508333,-0.0940531667,56.9000000000,5.6250000000,-4.3125000000,344.7500000000,image137.jpg,27411.0847820000
4,50.8635518333,-0.0940548333,56.9000000000,4.7500000000,-4.0000000000,346.0625000000,image138.jpg,27612.4218760000
4,50.8635528333,-0.0940565000,56.9000000000,5.5625000000,-4.7500000000,346.8750000000,image139.jpg,27812.2722060000
4,50.8635538333,-0.0940583333,56.9000000000,4.3125000000,-4.0000000000,346.8125000000,image140.jpg,28012.4790810000
4,50.8635548333,-0.0940600000,56.9000000000,4.0000000000,-3.8750000000,347.3750000000,image141.jpg,28211.6229910000
4,50.8635558333,-0.0940616667,56.9000000000,5.0000000000,-3.4375000000,346.2500000000,image142.jpg,28411.6108910000
4,50.8635566667,-0.0940633333,56.9000000000,3.4375000000,-4.3125000000,345.8750000000,image143.jpg,28612.3746980000
4,50.8635571667,-0.0940641667,56.9000000000,2.1875000000,-5.2500000000,344.8125000000,image144.jpg,28812.6443760000
4,50.8635583333,-0.0940668333,56.9000000000,2.3125000000,-4.5625000000,345.0000000000,image145.jpg,29013.0011580000
4,50.8635593333,-0.0940685000,56.9000000000,2.3750000000,-3.5000000000,344.1875000000,image146.jpg,29212.8882960000
4,50.8635601667,-0.0940703333,56.9000000000,2.9375000000,-4.1250000000,342.0000000000,image147.jpg,29412.0091410000
4,50.8635610000,-0.0940721667,56.9000000000,4.3750000000,-3.6250000000,342.6250000000,image148.jpg,29612.2842170000
4,50.8635613333,-0.0940731667,56.9000000000,4.8750000000,-3.3125000000,341.0625000000,image149.jpg,29813.0844190000
4,50.8635626667,-0.0940758333,56.9000000000,4.9375000000,-4.0625000000,341.0000000000,image150.jpg,30013.5824120000
4,50.8635635000,-0.0940776667,56.9000000000,5.4375000000,-3.8750000000,340.9375000000,image151.jpg,30213.9044260000
4,50.8635638333,-0.0940786667,56.9000000000,6.1875000000,-4.5625000000,340.5000000000,image152.jpg,30412.3077390000
4,50.8635651667,-0.0940813333,56.9000000000,5.0625000000,-3.6250000000,340.1250000000,image153.jpg,30612.7425760000
4,50.8635658333,-0.0940833333,56.9000000000,5.6875000000,-3.9375000000,340.6250000000,image154.jpg,30813.1903850000
4,50.8635668333,-0.0940851667,57.0000000000,4.3750000000,-4.0625000000,341.3125000000,image155.jpg,31012.7587660000
4,50.8635675000,-0.0940870000,57.0000000000,4.7500000000,-3.8125000000,342.1875000000,image156.jpg,31212.6952040000
4,50.8635685000,-0.0940886667,57.0000000000,4.2500000000,-3.1875000000,344.5625000000,image157.jpg,31412.8115170000
4,50.8635695000,-0.0940905000,57.0000000000,3.8750000000,-2.9375000000,344.9375000000,image158.jpg,31612.8392660000
4,50.8635700000,-0.0940913333,57.0000000000,4.1250000000,-3.8750000000,345.0000000000,image159.jpg,31812.8163780000
4,50.8635713333,-0.0940940000,57.0000000000,3.3750000000,-3.8125000000,342.6875000000,image160.jpg,32013.1851450000
4,50.8635721667,-0.0940958333,57.0000000000,5.1875000000,-2.8750000000,342.4375000000,image161.jpg,32213.0879690000
4,50.8635730000,-0.0940975000,57.0000000000,4.5000000000,-3.6875000000,342.6875000000,image162.jpg,32413.0653840000
4,50.8635738333,-0.0940995000,57.0000000000,6.0625000000,-4.4375000000,342.6875000000,image163.jpg,32613.3177090000
4,50.8635746667,-0.0941011667,57.0000000000,7.2500000000,-4.6875000000,343.2500000000,image164.jpg,32813.2778290000
4,50.8635755000,-0.0941031667,57.0000000000,6.7500000000,-4.5000000000,343.6250000000,image165.jpg,33014.3202370000
4,50.8635763333,-0.0941046667,57.0000000000,6.8125000000,-3.0000000000,344.7500000000,image166.jpg,33214.6862870000
4,50.8635773333,-0.0941065000,57.0000000000,6.6250000000,-3.0625000000,344.1250000000,image167.jpg,33414.7608560000
4,50.8635783333,-0.0941083333,57.0000000000,4.8125000000,-3.4375000000,343.6250000000,image168.jpg,33613.7282880000
4,50.8635791667,-0.0941101667,57.0000000000,6.2500000000,-4.7500000000,343.5625000000,image169.jpg,33813.5734280000
4,50.8635801667,-0.0941121667,57.0000000000,6.6875000000,-5.5625000000,342.5000000000,image170.jpg,34014.1717140000
4,50.8635810000,-0.0941140000,57.0000000000,7.5000000000,-6.1250000000,342.8125000000,image171.jpg,34214.8406430000
4,50.8635820000,-0.0941160000,57.0000000000,8.0625000000,-5.0625000000,343.4375000000,image172.jpg,34414.8252910000
4,50.8635830000,-0.0941180000,57.0000000000,7.1875000000,-6.3750000000,344.5625000000,image173.jpg,34614.7648260000
4,50.8635840000,-0.0941200000,57.0000000000,5.3125000000,-7.0000000000,345.8125000000,image174.jpg,34814.0157100000
4,50.8635850000,-0.0941218333,57.0000000000,5.8125000000,-5.2500000000,345.9375000000,image175.jpg,35014.2131190000
4,50.8635860000,-0.0941236667,57.0000000000,4.3125000000,-5.7500000000,345.8125000000,image176.jpg,35215.1198100000
4,50.8635870000,-0.0941256667,57.0000000000,6.9375000000,-5.2500000000,347.1250000000,image177.jpg,35415.3023690000
4,50.8635880000,-0.0941273333,57.0000000000,6.7500000000,-5.3750000000,347.1875000000,image178.jpg,35615.2565970000
4,50.8635890000,-0.0941291667,57.0000000000,6.8125000000,-5.1250000000,348.3125000000,image179.jpg,35814.3005070000
4,50.8635900000,-0.0941310000,57.0000000000,7.0625000000,-5.3750000000,348.0000000000,image180.jpg,36014.4259730000
4,50.8635910000,-0.0941326667,57.0000000000,6.3750000000,-5.3125000000,348.3125000000,image181.jpg,36214.9476790000
4,50.8635920000,-0.0941343333,57.0000000000,6.7500000000,-5.5000000000,349.8750000000,image182.jpg,36414.4076230000
4,50.8635931667,-0.0941356667,57.0000000000,4.5000000000,-5.2500000000,352.1250000000,image183.jpg,36614.7265250000
4,50.8635941667,-0.0941375000,57.0000000000,6.6875000000,-4.7500000000,352.3750000000,image184.jpg,36814.5497900000
4,50.8635955000,-0.0941390000,57.1000000000,4.6875000000,-5.6875000000,352.7500000000,image185.jpg,37014.7779940000
4,50.8635965000,-0.0941406667,57.0000000000,5.1875000000,-6.2500000000,353.5625000000,image186.jpg,37214.9296690000
4,50.8635975000,-0.0941421667,57.1000000000,5.8125000000,-5.4375000000,354.5625000000,image187.jpg,37414.8243050000
4,50.8635986667,-0.0941436667,57.1000000000,6.0625000000,-4.7500000000,356.8750000000,image188.jpg,37614.8110020000
4,50.8635998333,-0.0941450000,57.1000000000,6.8750000000,-5.1875000000,358.0625000000,image189.jpg,37814.8590150000
4,50.8636010000,-0.0941461667,57.1000000000,5.9375000000,-4.6875000000,359.0000000000,image190.jpg,38015.0301300000
4,50.8636021667,-0.0941478333,57.1000000000,5.6875000000,-4.6875000000,357.7500000000,image191.jpg,38215.3630540000
4,50.8636033333,-0.0941490000,57.1000000000,4.4375000000,-5.5000000000,357.8125000000,image192.jpg,38416.4540210000
4,50.8636045000,-0.0941505000,57.1000000000,5.6250000000,-5.4375000000,358.0625000000,image193.jpg,38616.4826140000
4,50.8636056667,-0.0941518333,57.1000000000,4.3125000000,-6.0625000000,358.3125000000,image194.jpg,38816.6938530000
4,50.8636068333,-0.0941533333,57.1000000000,5.1250000000,-5.5625000000,357.6250000000,image195.jpg,39016.2879160000
4,50.8636078333,-0.0941548333,57.0000000000,5.1875000000,-4.4375000000,355.7500000000,image196.jpg,39216.0509260000
4,50.8636083333,-0.0941551667,57.0000000000,5.8125000000,-5.2500000000,356.1250000000,image197.jpg,39416.5106630000
4,50.8636098333,-0.0941575000,57.1000000000,5.8750000000,-5.2500000000,353.5000000000,image198.jpg,39617.6557800000
4,50.8636108333,-0.0941590000,57.1000000000,4.4375000000,-5.4375000000,349.7500000000,image199.jpg,39817.0070410000
4,50.8636116667,-0.0941606667,57.1000000000,4.2500000000,-5.6250000000,349.4375000000,image200.jpg,40017.1348890000
4,50.8636126667,-0.0941621667,57.1000000000,5.5625000000,-4.5625000000,347.6875000000,image201.jpg,40216.1012150000
4,50.8636131667,-0.0941631667,57.1000000000,4.1875000000,-3.8125000000,347.4375000000,image202.jpg,40416.2125540000
4,50.8636145000,-0.0941655000,57.1000000000,4.9375000000,-5.5000000000,345.5000000000,image203.jpg,40617.7419960000
4,50.8636153333,-0.0941675000,57.1000000000,5.2500000000,-4.8750000000,342.4375000000,image204.jpg,40817.4484080000
4,50.8636163333,-0.0941691667,57.1000000000,5.6250000000,-4.6250000000,342.9375000000,image205.jpg,41017.8883250000
4,50.8636171667,-0.0941710000,57.1000000000,7.0000000000,-4.8125000000,346.8125000000,image206.jpg,41216.4298820000
4,50.8636181667,-0.0941723333,57.1000000000,6.3750000000,-4.6875000000,352.3750000000,image207.jpg,41416.8645950000
4,50.8636193333,-0.0941738333,57.1000000000,6.0625000000,-4.8125000000,355.5625000000,image208.jpg,41617.3115120000
4,50.8636205000,-0.0941751667,57.1000000000,4.5000000000,-4.1875000000,355.6875000000,image209.jpg,41816.7245940000
4,50.8636216667,-0.0941768333,57.1000000000,5.5625000000,-5.6875000000,355.3750000000,image210.jpg,42016.7484430000
4,50.8636228333,-0.0941781667,57.1000000000,2.8750000000,-5.5625000000,351.6875000000,image211.jpg,42216.9014900000
4,50.8636238333,-0.0941801667,57.1000000000,4.0625000000,-4.6875000000,348.3125000000,image212.jpg,42417.2030150000
4,50.8636248333,-0.0941816667,57.1000000000,5.0000000000,-5.5000000000,349.5000000000,image213.jpg,42617.1985460000
4,50.8636251667,-0.0941825000,57.1000000000,6.6875000000,-5.5625000000,350.3125000000,image214.jpg,42817.3275460000
4,50.8636270000,-0.0941848333,57.1000000000,5.1875000000,-6.6875000000,353.5000000000,image215.jpg,43017.4379480000
4,50.8636280000,-0.0941865000,57.1000000000,6.1875000000,-5.8125000000,353.4375000000,image216.jpg,43218.0389850000
4,50.8636291667,-0.0941881667,57.1000000000,4.3750000000,-6.0000000000,350.1875000000,image217.jpg,43417.5215940000
4,50.8636300000,-0.0941896667,57.1000000000,6.0000000000,-4.5000000000,349.9375000000,image218.jpg,43617.7087570000
4,50.8636306667,-0.0941906667,57.1000000000,5.3750000000,-5.0000000000,350.3750000000,image219.jpg,43818.0627810000
4,50.8636321667,-0.0941930000,57.1000000000,5.8125000000,-5.3125000000,350.3125000000,image220.jpg,44018.7726700000
4,50.8636331667,-0.0941945000,57.1000000000,5.6875000000,-5.2500000000,349.6250000000,image221.jpg,44219.1171610000
4,50.8636340000,-0.0941963333,57.1000000000,4.3125000000,-4.9375000000,346.3125000000,image222.jpg,44418.0002300000
4,50.8636350000,-0.0941980000,57.1000000000,4.8125000000,-4.0625000000,345.1250000000,image223.jpg,44618.2709810000
4,50.8636358333,-0.0941998333,57.1000000000,4.5625000000,-3.5000000000,345.5000000000,image224.jpg,44818.1245520000
4,50.8636366667,-0.0942016667,57.1000000000,6.0000000000,-3.8125000000,346.0625000000,image225.jpg,45018.8500960000
4,50.8636376667,-0.0942035000,57.1000000000,5.6250000000,-4.8125000000,345.7500000000,image226.jpg,45219.0771390000
4,50.8636385000,-0.0942050000,57.1000000000,5.3125000000,-4.7500000000,343.1875000000,image227.jpg,45418.8724260000
4,50.8636395000,-0.0942070000,57.1000000000,5.4375000000,-4.2500000000,342.3125000000,image228.jpg,45618.0906720000
4,50.8636403333,-0.0942088333,57.1000000000,4.8125000000,-4.3750000000,342.8125000000,image229.jpg,45818.1214490000
4,50.8636413333,-0.0942106667,57.1000000000,5.2500000000,-4.3125000000,343.2500000000,image230.jpg,46019.2106480000
4,50.8636421667,-0.0942125000,57.1000000000,3.8750000000,-4.8125000000,343.4375000000,image231.jpg,46219.2349130000
4,50.8636430000,-0.0942145000,57.1000000000,3.6250000000,-4.3125000000,341.5625000000,image232.jpg,46419.4536090000
4,50.8636440000,-0.0942165000,57.1000000000,2.6250000000,-4.4375000000,338.9375000000,image233.jpg,46618.3577000000
4,50.8636446667,-0.0942185000,57.2000000000,2.9375000000,-4.5000000000,338.9375000000,image234.jpg,46818.4940020000
4,50.8636456667,-0.0942205000,57.1000000000,2.4375000000,-5.2500000000,339.4375000000,image235.jpg,47019.2509160000
4,50.8636463333,-0.0942225000,57.2000000000,2.9375000000,-4.1875000000,336.0625000000,image236.jpg,47218.6097990000
4,50.8636471667,-0.0942245000,57.2000000000,0.9375000000,-4.5625000000,334.6875000000,image237.jpg,47418.6608850000
4,50.8636476667,-0.0942265000,57.1000000000,2.6875000000,-4.1250000000,332.6875000000,image238.jpg,47619.2271640000
4,50.8636485000,-0.0942285000,57.2000000000,0.4375000000,-2.8750000000,331.0625000000,image239.jpg,47819.1449080000
4,50.8636490000,-0.0942305000,57.2000000000,0.9375000000,-2.7500000000,328.8125000000,image240.jpg,48019.4449800000
4,50.8636493333,-0.0942325000,57.2000000000,1.9375000000,-2.6250000000,327.9375000000,image241.jpg,48219.1309000000
4,50.8636500000,-0.0942346667,57.2000000000,1.3750000000,-3.7500000000,328.8125000000,image242.jpg,48419.4628140000
4,50.8636506667,-0.0942366667,57.2000000000,2.4375000000,-4.2500000000,330.6250000000,image243.jpg,48619.5627720000
4,50.8636513333,-0.0942383333,57.2000000000,2.8125000000,-3.3125000000,332.8125000000,image244.jpg,48819.5568730000
4,50.8636520000,-0.0942405000,57.2000000000,1.7500000000,-4.8750000000,333.4375000000,image245.jpg,49019.6298970000
4,50.8636526667,-0.0942425000,57.2000000000,2.5000000000,-5.1250000000,332.4375000000,image246.jpg,49220.6036500000
4,50.8636533333,-0.0942445000,57.2000000000,2.0000000000,-3.6875000000,330.0000000000,image247.jpg,49420.5446260000
4,50.8636538333,-0.0942466667,57.2000000000,-0.1250000000,-5.1250000000,330.0000000000,image248.jpg,49620.9465670000
4,50.8636545000,-0.0942486667,57.2000000000,2.1875000000,-4.6250000000,330.1875000000,image249.jpg,49819.7430340000
4,50.8636550000,-0.0942506667,57.2000000000,1.5000000000,-3.5000000000,332.3125000000,image250.jpg,50019.8731410000
4,50.8636556667,-0.0942525000,57.2000000000,2.7500000000,-4.5000000000,333.4375000000,image251.jpg,50220.3966720000
4,50.8636561667,-0.0942545000,57.2000000000,2.4375000000,-3.8125000000,332.6250000000,image252.jpg,50420.8811480000
4,50.8636568333,-0.0942565000,57.2000000000,3.8125000000,-3.8125000000,330.9375000000,image253.jpg,50621.1471600000
4,50.8636573333,-0.0942585000,57.2000000000,3.8750000000,-4.1250000000,330.1875000000,image254.jpg,50821.0954430000
4,50.8636580000,-0.0942605000,57.2000000000,3.3125000000,-3.6250000000,329.1875000000,image255.jpg,51020.2203080000
4,50.8636583333,-0.0942625000,57.2000000000,4.2500000000,-3.8750000000,329.1875000000,image256.jpg,51220.4271400000
4,50.8636590000,-0.0942643333,57.2000000000,2.7500000000,-3.6875000000,329.0000000000,image257.jpg,51421.2839290000
4,50.8636595000,-0.0942665000,57.2000000000,2.0000000000,-3.6875000000,323.8750000000,image258.jpg,51621.5006500000
4,50.8636598333,-0.0942686667,57.2000000000,1.0000000000,-3.1250000000,322.9375000000,image259.jpg,51821.3552560000
4,50.8636603333,-0.0942708333,57.3000000000,1.4375000000,-2.7500000000,320.8125000000,image260.jpg,52020.4263490000
4,50.8636606667,-0.0942728333,57.3000000000,1.6875000000,-3.9375000000,319.8750000000,image261.jpg,52220.6993330000
4,50.8636611667,-0.0942748333,57.3000000000,-0.2500000000,-4.0625000000,318.3125000000,image262.jpg,52421.1360170000
4,50.8636613333,-0.0942771667,57.3000000000,0.0000000000,-4.8125000000,316.0625000000,image263.jpg,52620.6600190000
4,50.8636615000,-0.0942793333,57.3000000000,-0.7500000000,-3.8750000000,313.7500000000,image264.jpg,52820.8395360000
4,50.8636616667,-0.0942815000,57.3000000000,0.3750000000,-4.8750000000,312.3750000000,image265.jpg,53020.9828980000
4,50.8636618333,-0.0942838333,57.3000000000,-1.3125000000,-5.2500000000,312.6875000000,image266.jpg,53220.7704500000
4,50.8636621667,-0.0942860000,57.3000000000,1.2500000000,-5.2500000000,314.0625000000,image267.jpg,53421.1537310000
4,50.8636625000,-0.0942883333,57.3000000000,0.2500000000,-4.8750000000,316.0000000000,image268.jpg,53620.9878510000
4,50.8636626667,-0.0942906667,57.3000000000,1.4375000000,-4.0000000000,315.5000000000,image269.jpg,53821.0713500000
4,50.8636628333,-0.0942926667,57.3000000000,0.8750000000,-2.6875000000,313.1250000000,image270.jpg,54021.2670100000
4,50.8636630000,-0.0942946667,57.3000000000,2.0000000000,-1.3125000000,312.4375000000,image271.jpg,54221.3670240000
4,50.8636631667,-0.0942968333,57.3000000000,1.6250000000,-2.6250000000,312.8125000000,image272.jpg,54421.9103360000
4,50.8636631667,-0.0942988333,57.3000000000,2.6250000000,-3.1875000000,312.7500000000,image273.jpg,54622.6399170000
4,50.8636635000,-0.0943010000,57.3000000000,2.5625000000,-3.9375000000,313.1875000000,image274.jpg,54822.4476200000
4,50.8636636667,-0.0943035000,57.3000000000,3.5625000000,-4.1875000000,315.6875000000,image275.jpg,55022.6008710000
4,50.8636640000,-0.0943056667,57.3000000000,2.5000000000,-4.6875000000,315.5625000000,image276.jpg,55221.6302710000
4,50.8636640000,-0.0943078333,57.3000000000,3.0625000000,-4.8125000000,314.8125000000,image277.jpg,55421.6928980000
4,50.8636643333,-0.0943100000,57.3000000000,2.6250000000,-4.5000000000,311.5625000000,image278.jpg,55622.5533390000
4,50.8636645000,-0.0943121667,57.3000000000,2.2500000000,-4.8750000000,310.1875000000,image279.jpg,55822.8136950000
4,50.8636645000,-0.0943145000,57.3000000000,3.6250000000,-5.4375000000,309.8750000000,image280.jpg,56023.0446690000
4,50.8636646667,-0.0943165000,57.3000000000,1.6250000000,-5.0000000000,309.5625000000,image281.jpg,56221.9783690000
4,50.8636646667,-0.0943186667,57.3000000000,2.1250000000,-3.3125000000,309.4375000000,image282.jpg,56422.0932970000
4,50.8636650000,-0.0943210000,57.3000000000,0.3750000000,-5.7500000000,309.4375000000,image283.jpg,56622.5347360000
4,50.8636650000,-0.0943230000,57.3000000000,0.6250000000,-5.8750000000,306.0000000000,image284.jpg,56823.1601750000
4,50.8636651667,-0.0943250000,57.3000000000,0.5000000000,-3.1875000000,304.5000000000,image285.jpg,57023.1914160000
4,50.8636651667,-0.0943271667,57.3000000000,2.5000000000,-3.1250000000,307.9375000000,image286.jpg,57223.0806970000
4,50.8636653333,-0.0943290000,57.3000000000,3.0625000000,-2.0625000000,312.3125000000,image287.jpg,57422.7121830000
4,50.8636656667,-0.0943308333,57.3000000000,2.6875000000,-2.3750000000,318.2500000000,image288.jpg,57622.8528240000
4,50.8636660000,-0.0943326667,57.3000000000,4.8125000000,-3.3125000000,324.7500000000,image289.jpg,57822.5897810000
4,50.8636665000,-0.0943345000,57.4000000000,3.3125000000,-3.0625000000,325.0000000000,image290.jpg,58023.6272410000
4,50.8636670000,-0.0943365000,57.4000000000,2.1875000000,-3.4375000000,323.8750000000,image291.jpg,58222.8620520000
4,50.8636673333,-0.0943386667,57.4000000000,3.5000000000,-3.6875000000,322.6875000000,image292.jpg,58422.8624250000
4,50.8636676667,-0.0943410000,57.4000000000,3.5000000000,-4.6250000000,322.8125000000,image293.jpg,58622.9794710000
4,50.8636681667,-0.0943431667,57.4000000000,4.8750000000,-5.0000000000,325.1250000000,image294.jpg,58822.9875330000
4,50.8636688333,-0.0943451667,57.4000000000,3.3125000000,-5.0000000000,327.6250000000,image295.jpg,59023.0537340000
4,50.8636693333,-0.0943475000,57.4000000000,4.1875000000,-5.8125000000,327.6250000000,image296.jpg,59223.2542880000
4,50.8636698333,-0.0943493333,57.4000000000,3.3750000000,-5.2500000000,328.9375000000,image297.jpg,59423.2130920000
4,50.8636703333,-0.0943515000,57.4000000000,3.0000000000,-4.4375000000,327.2500000000,image298.jpg,59623.2524680000
4,50.8636706667,-0.0943538333,57.4000000000,3.3125000000,-5.6250000000,324.3750000000,image299.jpg,59824.2629500000
4,50.8636711667,-0.0943558333,57.4000000000,2.8125000000,-5.9375000000,323.6250000000,image300.jpg,60024.5908280000
4,50.8636715000,-0.0943580000,57.4000000000,1.9375000000,-4.6250000000,320.0000000000,image301.jpg,60224.7619010000
4,50.8636718333,-0.0943603333,57.4000000000,1.7500000000,-5.1250000000,320.1875000000,image302.jpg,60424.6239180000
4,50.8636721667,-0.0943626667,57.4000000000,1.8750000000,-7.3125000000,318.7500000000,image303.jpg,60623.9953350000
4,50.8636726667,-0.0943648333,57.4000000000,2.1875000000,-6.0000000000,316.3125000000,image304.jpg,60824.0806120000
4,50.8636728333,-0.0943673333,57.3000000000,0.8125000000,-5.9375000000,314.7500000000,image305.jpg,61025.1537700000
4,50.8636728333,-0.0943696667,57.3000000000,1.7500000000,-6.5625000000,312.0000000000,image306.jpg,61225.1141750000
4,50.8636730000,-0.0943720000,57.3000000000,0.2500000000,-6.7500000000,312.5625000000,image307.jpg,61425.2157310000
4,50.8636731667,-0.0943745000,57.3000000000,2.5000000000,-7.0625000000,313.5625000000,image308.jpg,61624.4287350000
4,50.8636735000,-0.0943768333,57.3000000000,2.3125000000,-6.6875000000,316.4375000000,image309.jpg,61824.3150680000
4,50.8636738333,-0.0943793333,57.3000000000,1.3750000000,-8.7500000000,316.5000000000,image310.jpg,62025.1248390000
4,50.8636741667,-0.0943818333,57.3000000000,0.3750000000,-8.8750000000,312.5625000000,image311.jpg,62225.6310530000
4,50.8636741667,-0.0943843333,57.3000000000,1.0000000000,-7.6250000000,310.9375000000,image312.jpg,62425.6010770000
4,50.8636743333,-0.0943866667,57.3000000000,2.1875000000,-7.9375000000,311.3750000000,image313.jpg,62624.6037810000
4,50.8636743333,-0.0943888333,57.3000000000,2.0000000000,-8.0000000000,312.4375000000,image314.jpg,62824.7018380000
4,50.8636745000,-0.0943913333,57.3000000000,2.6875000000,-8.1250000000,313.6250000000,image315.jpg,63025.2184260000
4,50.8636748333,-0.0943936667,57.3000000000,3.4375000000,-6.6250000000,314.3125000000,image316.jpg,63224.7724010000
4,50.8636750000,-0.0943960000,57.3000000000,3.6250000000,-6.0000000000,314.3125000000,image317.jpg,63424.8495940000
4,50.8636751667,-0.0943983333,57.3000000000,2.8750000000,-5.0000000000,314.5625000000,image318.jpg,63624.9828770000
4,50.8636755000,-0.0944008333,57.3000000000,1.8750000000,-6.7500000000,313.3125000000,image319.jpg,63824.9813890000
4,50.8636756667,-0.0944031667,57.3000000000,3.5000000000,-6.2500000000,312.7500000000,image320.jpg,64025.2818970000
4,50.8636758333,-0.0944053333,57.3000000000,2.6250000000,-6.3750000000,312.1250000000,image321.jpg,64225.2032570000
4,50.8636758333,-0.0944078333,57.3000000000,3.0625000000,-6.2500000000,311.0625000000,image322.jpg,64425.2636340000
4,50.8636760000,-0.0944101667,57.3000000000,3.5625000000,-5.7500000000,311.0625000000,image323.jpg,64625.4018760000
4,50.8636761667,-0.0944120000,57.3000000000,4.4375000000,-4.2500000000,312.8750000000,image324.jpg,64826.2890380000
4,50.8636763333,-0.0944143333,57.3000000000,2.8750000000,-4.0625000000,314.0625000000,image325.jpg,65025.4112180000
4,50.8636765000,-0.0944168333,57.3000000000,1.9375000000,-6.1250000000,313.6875000000,image326.jpg,65226.4882670000
4,50.8636768333,-0.0944190000,57.3000000000,1.3125000000,-5.7500000000,312.8750000000,image327.jpg,65426.5881950000
4,50.8636768333,-0.0944213333,57.3000000000,1.2500000000,-5.7500000000,312.4375000000,image328.jpg,65627.0540770000
4,50.8636770000,-0.0944238333,57.3000000000,-0.0625000000,-5.5000000000,312.8750000000,image329.jpg,65825.7473180000
4,50.8636773333,-0.0944261667,57.3000000000,1.5625000000,-5.3125000000,315.1250000000,image330.jpg,66025.8817700000
4,50.8636775000,-0.0944281667,57.3000000000,0.1250000000,-5.3750000000,316.5000000000,image331.jpg,66226.4488200000
4,50.8636776667,-0.0944305000,57.3000000000,2.9375000000,-3.1875000000,317.4375000000,image332.jpg,66426.9265030000
4,50.8636781667,-0.0944326667,57.3000000000,1.7500000000,-3.1875000000,318.2500000000,image333.jpg,66627.0829540000
4,50.8636785000,-0.0944350000,57.3000000000,2.5625000000,-4.7500000000,318.3750000000,image334.jpg,66826.9052140000
4,50.8636786667,-0.0944373333,57.3000000000,3.1875000000,-5.2500000000,317.1250000000,image335.jpg,67026.1617220000
4,50.8636790000,-0.0944396667,57.4000000000,1.6875000000,-3.5625000000,317.3125000000,image336.jpg,67226.5420250000
4,50.8636793333,-0.0944420000,57.4000000000,3.1875000000,-4.1875000000,317.4375000000,image337.jpg,67427.5561970000
4,50.8636796667,-0.0944443333,57.4000000000,3.0000000000,-4.7500000000,318.1875000000,image338.jpg,67627.5909160000
4,50.8636798333,-0.0944466667,57.4000000000,2.6250000000,-6.3125000000,319.7500000000,image339.jpg,67827.5766660000
4,50.8636803333,-0.0944491667,57.4000000000,2.7500000000,-6.6875000000,318.1875000000,image340.jpg,68026.6095440000
4,50.8636805000,-0.0944513333,57.4000000000,3.3750000000,-4.9375000000,319.7500000000,image341.jpg,68226.7238120000
4,50.8636810000,-0.0944536667,57.4000000000,5.0000000000,-5.8750000000,324.0000000000,image342.jpg,68427.5677020000
4,50.8636816667,-0.0944558333,57.4000000000,2.5625000000,-6.5625000000,327.5625000000,image343.jpg,68626.9056130000
4,50.8636820000,-0.0944578333,57.4000000000,4.0625000000,-7.3750000000,328.1250000000,image344.jpg,68826.9289390000
4,50.8636828333,-0.0944600000,57.4000000000,1.5000000000,-6.4375000000,326.0625000000,image345.jpg,69026.9909720000
4,50.8636831667,-0.0944625000,57.4000000000,1.9375000000,-5.0625000000,325.8125000000,image346.jpg,69227.0852520000
4,50.8636838333,-0.0944645000,57.4000000000,0.5625000000,-4.6875000000,326.7500000000,image347.jpg,69427.3322010000
4,50.8636843333,-0.0944666667,57.4000000000,3.5000000000,-5.0000000000,327.8125000000,image348.jpg,69627.1666470000
4,50.8636848333,-0.0944688333,57.4000000000,1.1875000000,-5.1875000000,327.8125000000,image349.jpg,69827.2496920000
4,50.8636853333,-0.0944710000,57.4000000000,2.3750000000,-5.0000000000,323.0625000000,image350.jpg,70027.3028340000
4,50.8636855000,-0.0944731667,57.4000000000,1.5625000000,-3.3750000000,317.8750000000,image351.jpg,70227.3676970000
4,50.8636856667,-0.0944755000,57.4000000000,1.5625000000,-6.0000000000,313.7500000000,image352.jpg,70427.9713070000
4,50.8636856667,-0.0944778333,57.4000000000,3.2500000000,-5.9375000000,315.5625000000,image353.jpg,70628.5342690000
4,50.8636860000,-0.0944796667,57.4000000000,4.1250000000,-5.0000000000,316.8750000000,image354.jpg,70828.7745540000
4,50.8636863333,-0.0944820000,57.4000000000,3.4375000000,-5.6250000000,320.1250000000,image355.jpg,71028.7098230000
4,50.8636866667,-0.0944843333,57.4000000000,3.1250000000,-5.2500000000,320.0625000000,image356.jpg,71227.7130600000
4,50.8636870000,-0.0944865000,57.4000000000,3.6250000000,-6.0000000000,320.1875000000,image357.jpg,71427.8297560000
4,50.8636871667,-0.0944888333,57.4000000000,4.1250000000,-4.8125000000,319.7500000000,image358.jpg,71629.0421540000
4,50.8636876667,-0.0944911667,57.4000000000,4.5625000000,-6.2500000000,321.3750000000,image359.jpg,71829.3037660000
4,50.8636881667,-0.0944933333,57.4000000000,4.0000000000,-6.0000000000,324.1250000000,image360.jpg,72029.2484310000
4,50.8636886667,-0.0944956667,57.4000000000,4.2500000000,-5.0625000000,325.5625000000,image361.jpg,72228.1484350000
4,50.8636891667,-0.0944980000,57.4000000000,3.9375000000,-5.5000000000,325.6250000000,image362.jpg,72428.2086270000
4,50.8636896667,-0.0945001667,57.4000000000,4.8750000000,-4.3750000000,325.4375000000,image363.jpg,72629.1584350000
4,50.8636901667,-0.0945023333,57.4000000000,4.7500000000,-4.6250000000,325.3750000000,image364.jpg,72829.5885420000
4,50.8636906667,-0.0945046667,57.5000000000,4.2500000000,-6.7500000000,326.0625000000,image365.jpg,73029.6640910000
4,50.8636910000,-0.0945070000,57.4000000000,4.5625000000,-6.0000000000,326.9375000000,image366.jpg,73228.9126830000
4,50.8636916667,-0.0945093333,57.4000000000,2.1250000000,-5.8750000000,324.3125000000,image367.jpg,73428.6120860000
4,50.8636918333,-0.0945115000,57.4000000000,3.8750000000,-6.1875000000,323.1250000000,image368.jpg,73629.2065230000
4,50.8636923333,-0.0945136667,57.4000000000,2.3750000000,-4.8750000000,322.7500000000,image369.jpg,73828.8431400000
4,50.8636928333,-0.0945160000,57.5000000000,4.2500000000,-4.3125000000,323.3750000000,image370.jpg,74028.8978730000
4,50.8636931667,-0.0945183333,57.5000000000,4.1875000000,-4.1250000000,323.6250000000,image371.jpg,74229.0036060000
4,50.8636936667,-0.0945203333,57.5000000000,5.1250000000,-5.8125000000,325.3125000000,image372.jpg,74429.1145290000
4,50.8636941667,-0.0945225000,57.5000000000,4.9375000000,-6.0625000000,329.0625000000,image373.jpg,74629.1199500000
4,50.8636948333,-0.0945245000,57.5000000000,2.0000000000,-5.9375000000,331.2500000000,image374.jpg,74829.3358860000
4,50.8636953333,-0.0945266667,57.5000000000,4.3125000000,-6.5625000000,333.1250000000,image375.jpg,75029.3355760000
4,50.8636963333,-0.0945285000,57.5000000000,3.3125000000,-6.0625000000,337.4375000000,image376.jpg,75229.3048430000
4,50.8636970000,-0.0945303333,57.5000000000,6.3125000000,-6.0000000000,339.3750000000,image377.jpg,75429.3949000000
4,50.8636978333,-0.0945321667,57.5000000000,3.6250000000,-5.0000000000,340.4375000000,image378.jpg,75629.5139630000
4,50.8636986667,-0.0945341667,57.5000000000,5.5625000000,-6.3125000000,341.3750000000,image379.jpg,75830.4694110000
4,50.8636996667,-0.0945358333,57.5000000000,5.3125000000,-7.0625000000,343.7500000000,image380.jpg,76030.7871130000
4,50.8637005000,-0.0945373333,57.5000000000,4.3750000000,-6.3750000000,346.5625000000,image381.jpg,76230.7930250000
4,50.8637013333,-0.0945390000,57.5000000000,5.3750000000,-4.6250000000,347.4375000000,image382.jpg,76430.1772190000
4,50.8637023333,-0.0945405000,57.5000000000,5.5625000000,-5.5000000000,351.3750000000,image383.jpg,76629.9643050000
4,50.8637033333,-0.0945421667,57.5000000000,4.9375000000,-6.4375000000,352.0625000000,image384.jpg,76830.5339610000
4,50.8637045000,-0.0945435000,57.5000000000,5.2500000000,-5.6250000000,354.0000000000,image385.jpg,77031.1025240000
4,50.8637055000,-0.0945450000,57.5000000000,5.8750000000,-5.6250000000,354.8750000000,image386.jpg,77231.1502410000
4,50.8637068333,-0.0945465000,57.5000000000,6.1875000000,-5.3750000000,356.5625000000,image387.jpg,77430.9724750000
4,50.8637080000,-0.0945478333,57.5000000000,4.3750000000,-7.0000000000,355.8750000000,image388.jpg,77630.2447310000
4,50.8637090000,-0.0945496667,57.5000000000,6.3125000000,-6.7500000000,353.5000000000,image389.jpg,77830.6314550000
4,50.8637100000,-0.0945513333,57.5000000000,5.5625000000,-6.2500000000,350.0625000000,image390.jpg,78031.5381910000
4,50.8637106667,-0.0945531667,57.5000000000,6.3125000000,-5.6250000000,347.8125000000,image391.jpg,78231.5220130000
4,50.8637118333,-0.0945548333,57.5000000000,6.5000000000,-6.2500000000,348.3125000000,image392.jpg,78431.7160210000
4,50.8637126667,-0.0945566667,57.5000000000,5.8750000000,-5.2500000000,347.8125000000,image393.jpg,78630.5142390000
4,50.8637136667,-0.0945583333,57.5000000000,6.0000000000,-6.6875000000,347.5000000000,image394.jpg,78830.7057890000
4,50.8637146667,-0.0945600000,57.5000000000,6.9375000000,-6.6250000000,348.3125000000,image395.jpg,79031.5793140000
4,50.8637156667,-0.0945615000,57.5000000000,7.1250000000,-5.1875000000,353.4375000000,image396.jpg,79230.8423750000
4,50.8637166667,-0.0945630000,57.5000000000,6.6250000000,-5.5000000000,354.8750000000,image397.jpg,79430.9100280000
4,50.8637175000,-0.0945640000,57.5000000000,3.6875000000,-7.6875000000,354.8750000000,image398.jpg,79630.9479250000
4,50.8637175000,-0.0945638333,57.5000000000,3.1875000000,-6.1250000000,354.6250000000,image399.jpg,79831.0426050000
4,50.8637175000,-0.0945638333,57.6000000000,3.2500000000,-5.6250000000,354.6250000000,image400.jpg,80031.6381780000
4,50.8637175000,-0.0945638333,57.6000000000,3.6875000000,-4.9375000000,354.6875000000,image401.jpg,80231.9209210000
4,50.8637175000,-0.0945638333,57.6000000000,3.9375000000,-4.5625000000,354.6875000000,image402.jpg,80431.2794320000
4,50.8637175000,-0.0945638333,57.6000000000,4.0625000000,-4.3125000000,354.7500000000,image403.jpg,80631.2890170000
4,50.8637175000,-0.0945638333,57.6000000000,4.1875000000,-4.1250000000,354.7500000000,image404.jpg,80831.3474660000
4,50.8637175000,-0.0945638333,57.5000000000,4.3125000000,-3.9375000000,354.7500000000,image405.jpg,81032.1339950000
4,50.8637175000,-0.0945638333,57.5000000000,4.3750000000,-3.8750000000,354.7500000000,image406.jpg,81232.4503670000
4,50.8637175000,-0.0945638333,57.6000000000,4.4375000000,-3.7500000000,354.7500000000,image407.jpg,81432.5269300000
4,50.8637175000,-0.0945638333,57.6000000000,4.4375000000,-3.6875000000,354.7500000000,image408.jpg,81631.7192770000
4,50.8637175000,-0.0945638333,57.6000000000,4.5000000000,-3.6250000000,354.7500000000,image409.jpg,81831.6790350000
4,50.8637175000,-0.0945638333,57.6000000000,4.5625000000,-3.6250000000,354.7500000000,image410.jpg,82032.0697740000
4,50.8637175000,-0.0945638333,57.6000000000,4.5625000000,-3.6250000000,354.7500000000,image411.jpg,82232.8262730000
4,50.8637175000,-0.0945638333,57.6000000000,4.5625000000,-3.6250000000,354.7500000000,image412.jpg,82432.9493330000
4,50.8637175000,-0.0945638333,57.6000000000,4.5625000000,-3.6250000000,354.7500000000,image413.jpg,82633.0445670000
4,50.8637175000,-0.0945638333,57.6000000000,4.5625000000,-3.6250000000,354.7500000000,image414.jpg,82832.0801370000
4,50.8637175000,-0.0945638333,57.6000000000,4.5625000000,-3.6250000000,354.7500000000,image415.jpg,83032.1114500000
4,50.8637175000,-0.0945636667,57.6000000000,4.5625000000,-3.6250000000,354.7500000000,image416.jpg,83233.2423320000
4,50.8637175000,-0.0945638333,57.6000000000,4.5625000000,-3.6250000000,354.7500000000,image417.jpg,83433.3062940000
4,50.8637175000,-0.0945638333,57.5000000000,4.5625000000,-3.6250000000,354.7500000000,image418.jpg,83633.4104140000
4,50.8637175000,-0.0945638333,57.6000000000,4.5625000000,-3.6250000000,354.7500000000,image419.jpg,83832.4200710000
4,50.8637175000,-0.0945638333,57.5000000000,4.5625000000,-3.6250000000,354.7500000000,image420.jpg,84032.4782950000
4,50.8637175000,-0.0945638333,57.5000000000,4.5625000000,-3.6250000000,354.7500000000,image421.jpg,84233.3704550000
4,50.8637175000,-0.0945638333,57.5000000000,4.5625000000,-3.6250000000,354.7500000000,image422.jpg,84433.5704680000
4,50.8637175000,-0.0945638333,57.6000000000,4.5625000000,-3.6250000000,354.7500000000,image423.jpg,84633.6976960000
4,50.8637175000,-0.0945638333,57.6000000000,4.5625000000,-3.6250000000,354.7500000000,image424.jpg,84832.8505400000
4,50.8637175000,-0.0945638333,57.5000000000,4.5625000000,-3.6250000000,354.7500000000,image425.jpg,85032.9150980000
4,50.8637175000,-0.0945636667,57.5000000000,4.5625000000,-3.6250000000,354.7500000000,image426.jpg,85233.4513240000
4,50.8637175000,-0.0945638333,57.5000000000,4.5625000000,-3.6250000000,354.7500000000,image427.jpg,85433.9040280000
4,50.8637176667,-0.0945636667,57.5000000000,4.5625000000,-3.6250000000,354.7500000000,image428.jpg,85633.1323890000
4,50.8637176667,-0.0945638333,57.5000000000,4.5625000000,-3.6250000000,354.7500000000,image429.jpg,85833.2591270000
4,50.8637175000,-0.0945638333,57.5000000000,4.5625000000,-3.6250000000,354.7500000000,image430.jpg,86033.2873020000
4,50.8637175000,-0.0945638333,57.6000000000,4.5625000000,-3.5625000000,354.7500000000,image431.jpg,86233.8210580000
4,50.8637175000,-0.0945638333,57.6000000000,4.5625000000,-3.5000000000,354.7500000000,image432.jpg,86434.4806620000
4,50.8637175000,-0.0945638333,57.6000000000,4.5625000000,-3.4375000000,354.7500000000,image433.jpg,86634.4178590000
4,50.8637175000,-0.0945638333,57.5000000000,4.6250000000,-3.4375000000,354.7500000000,image434.jpg,86834.0518630000
4,50.8637175000,-0.0945638333,57.5000000000,4.6250000000,-3.4375000000,354.7500000000,image435.jpg,87033.5905860000
4,50.8637175000,-0.0945638333,57.6000000000,4.6250000000,-3.3750000000,354.7500000000,image436.jpg,87233.7151160000
4,50.8637175000,-0.0945636667,57.6000000000,4.6250000000,-3.3750000000,354.7500000000,image437.jpg,87434.7106090000
4,50.8637175000,-0.0945638333,57.6000000000,4.6250000000,-3.3750000000,354.7500000000,image438.jpg,87634.7095180000
4,50.8637176667,-0.0945636667,57.5000000000,4.6250000000,-3.3750000000,354.7500000000,image439.jpg,87834.7637010000
4,50.8637176667,-0.0945638333,57.6000000000,4.6250000000,-3.3750000000,354.7500000000,image440.jpg,88033.8545430000
4,50.8637175000,-0.0945638333,57.5000000000,4.6875000000,-3.3750000000,354.8125000000,image441.jpg,88233.9612370000
4,50.8637175000,-0.0945638333,57.5000000000,4.7500000000,-3.3750000000,354.7500000000,image442.jpg,88434.8164190000
4,50.8637175000,-0.0945638333,57.5000000000,5.5625000000,-3.3125000000,354.7500000000,image443.jpg,88635.0320760000
4,50.8637175000,-0.0945638333,57.5000000000,5.9375000000,-3.1875000000,354.7500000000,image444.jpg,88835.1452630000
4,50.8637176667,-0.0945638333,57.6000000000,6.1875000000,-3.2500000000,354.8750000000,image445.jpg,89034.1546620000
4,50.8637176667,-0.0945636667,57.6000000000,2.8125000000,2.3125000000,352.9375000000,image446.jpg,89234.2414880000
4,50.8637178333,-0.0945628333,57.7000000000,0.1250000000,8.5000000000,350.2500000000,image447.jpg,89434.5716390000
4,50.8637185000,-0.0945616667,57.9000000000,-1.5625000000,7.4375000000,340.3125000000,image448.jpg,89634.3835420000
4,50.8637193333,-0.0945600000,58.2000000000,-5.5625000000,4.0000000000,326.6875000000,image449.jpg,89834.4700380000
4,50.8637206667,-0.0945585000,58.4000000000,-9.6250000000,-1.8125000000,311.3125000000,image450.jpg,90034.5070430000
4,50.8637218333,-0.0945565000,58.5000000000,-9.8125000000,-2.1875000000,297.3125000000,image451.jpg,90234.5884860000
4,50.8637235000,-0.0945540000,58.5000000000,-9.3125000000,-2.8125000000,286.1875000000,image452.jpg,90434.8760560000
4,50.8637250000,-0.0945511667,58.5000000000,-7.5625000000,-4.1250000000,272.3125000000,image453.jpg,90634.7194070000
4,50.8637265000,-0.0945485000,58.5000000000,-8.6875000000,-4.8750000000,256.0625000000,image454.jpg,90834.8479770000
4,50.8637276667,-0.0945455000,58.5000000000,-6.6875000000,-6.8750000000,239.0625000000,image455.jpg,91034.8508940000
4,50.8637286667,-0.0945430000,58.5000000000,-6.3125000000,-6.1875000000,222.6875000000,image456.jpg,91234.9283070000
4,50.8637295000,-0.0945400000,58.5000000000,-9.1250000000,-7.8750000000,214.5000000000,image457.jpg,91435.4698750000
4,50.8637301667,-0.0945366667,58.5000000000,-4.2500000000,-6.8125000000,209.9375000000,image458.jpg,91636.0079460000
4,50.8637310000,-0.0945333333,58.5000000000,-5.8125000000,-6.5000000000,206.3125000000,image459.jpg,91836.0917500000
4,50.8637315000,-0.0945306667,58.5000000000,-8.8750000000,-9.1250000000,201.5625000000,image460.jpg,92036.1936300000
4,50.8637323333,-0.0945276667,58.6000000000,-6.0000000000,-11.5000000000,198.7500000000,image461.jpg,92235.2726790000
4,50.8637335000,-0.0945245000,58.5000000000,-6.1875000000,-11.8125000000,200.3125000000,image462.jpg,92435.3469390000
4,50.8637348333,-0.0945210000,58.5000000000,-0.8125000000,-8.3125000000,206.3750000000,image463.jpg,92636.4215180000
4,50.8637356667,-0.0945175000,58.5000000000,-1.8125000000,-5.5000000000,208.1875000000,image464.jpg,92836.4214840000
4,50.8637365000,-0.0945140000,58.5000000000,-2.8750000000,-4.6875000000,210.7500000000,image465.jpg,93036.5142310000
4,50.8637371667,-0.0945103333,58.6000000000,0.0625000000,-6.1250000000,211.0625000000,image466.jpg,93235.6134240000
4,50.8637376667,-0.0945066667,58.5000000000,-2.2500000000,-8.4375000000,214.0000000000,image467.jpg,93435.7014200000
4,50.8637380000,-0.0945025000,58.6000000000,-3.4375000000,-9.0625000000,219.9375000000,image468.jpg,93636.5163420000
4,50.8637383333,-0.0944981667,58.6000000000,-3.0625000000,-7.2500000000,224.2500000000,image469.jpg,93836.7976040000
4,50.8637385000,-0.0944943333,58.6000000000,-6.0625000000,-6.7500000000,222.4375000000,image470.jpg,94036.8601200000
4,50.8637391667,-0.0944910000,58.6000000000,-2.6250000000,-5.2500000000,216.1875000000,image471.jpg,94235.9536700000
4,50.8637400000,-0.0944876667,58.6000000000,-4.1875000000,-8.3750000000,213.3125000000,image472.jpg,94436.0465990000
4,50.8637408333,-0.0944835000,58.6000000000,-5.1875000000,-11.6250000000,217.6875000000,image473.jpg,94636.5593030000
4,50.8637416667,-0.0944790000,58.6000000000,-3.7500000000,-9.8125000000,221.2500000000,image474.jpg,94836.1664930000
4,50.8637426667,-0.0944753333,58.6000000000,-7.3125000000,-8.9375000000,222.6250000000,image475.jpg,95036.2290970000
4,50.8637436667,-0.0944716667,58.6000000000,-1.5625000000,-4.3750000000,219.3750000000,image476.jpg,95236.3006620000
4,50.8637446667,-0.0944678333,58.6000000000,-2.5000000000,-4.3125000000,220.6875000000,image477.jpg,95436.3811770000
4,50.8637453333,-0.0944633333,58.6000000000,-2.9375000000,-6.6875000000,228.1875000000,image478.jpg,95636.5638440000
4,50.8637456667,-0.0944586667,58.6000000000,-0.8125000000,-5.6250000000,235.3750000000,image479.jpg,95836.5130230000
4,50.8637456667,-0.0944550000,58.6000000000,-6.0000000000,-6.5625000000,241.5625000000,image480.jpg,96036.6158290000
4,50.8637455000,-0.0944511667,58.6000000000,-1.9375000000,-6.5625000000,246.1250000000,image481.jpg,96236.6523180000
4,50.8637450000,-0.0944473333,58.6000000000,-3.8750000000,-6.0000000000,250.1250000000,image482.jpg,96436.6771810000
4,50.8637441667,-0.0944435000,58.6000000000,-10.1250000000,-6.5625000000,257.6250000000,image483.jpg,96637.1564620000
4,50.8637430000,-0.0944395000,58.6000000000,-8.5625000000,-5.5000000000,265.6875000000,image484.jpg,96837.7528520000
4,50.8637416667,-0.0944360000,58.6000000000,-10.8750000000,-4.6875000000,270.1875000000,image485.jpg,97037.8285020000
4,50.8637408333,-0.0944326667,58.6000000000,-6.5000000000,-3.3750000000,270.4375000000,image486.jpg,97237.8973800000
4,50.8637400000,-0.0944295000,58.6000000000,-4.2500000000,-2.0000000000,267.5625000000,image487.jpg,97437.0542230000
4,50.8637393333,-0.0944258333,58.6000000000,-6.1250000000,-3.6875000000,266.3750000000,image488.jpg,97637.0642700000
4,50.8637383333,-0.0944216667,58.5000000000,-3.1250000000,-3.7500000000,265.8750000000,image489.jpg,97837.9537840000
4,50.8637376667,-0.0944176667,58.6000000000,-6.5625000000,-0.9375000000,263.8750000000,image490.jpg,98038.1263160000
4,50.8637370000,-0.0944136667,58.6000000000,-7.5625000000,-1.7500000000,260.6250000000,image491.jpg,98238.2390430000
4,50.8637363333,-0.0944100000,58.6000000000,-5.2500000000,-3.3750000000,260.5625000000,image492.jpg,98437.3768060000
4,50.8637356667,-0.0944065000,58.6000000000,-11.9375000000,-6.9375000000,268.4375000000,image493.jpg,98637.3878820000
4,50.8637351667,-0.0944038333,58.6000000000,-11.3750000000,-5.6250000000,276.8750000000,image494.jpg,98838.0047690000
4,50.8637346667,-0.0944026667,58.6000000000,-15.2500000000,-4.3125000000,279.0000000000,image495.jpg,99038.5020470000
4,50.8637346667,-0.0944021667,58.6000000000,-14.4375000000,-5.2500000000,282.4375000000,image496.jpg,99238.5506840000
4,50.8637348333,-0.0944028333,58.6000000000,-9.3125000000,-4.0000000000,286.1250000000,image497.jpg,99438.2104750000
4,50.8637348333,-0.0944046667,58.6000000000,-8.5625000000,-2.0000000000,292.2500000000,image498.jpg,99637.7451820000
4,50.8637348333,-0.0944073333,58.6000000000,-3.6250000000,-1.3750000000,301.2500000000,image499.jpg,99838.1588340000
4,50.8637345000,-0.0944100000,58.6000000000,-4.1250000000,0.6250000000,310.9375000000,image500.jpg,100037.8738930000
4,50.8637341667,-0.0944128333,58.6000000000,-9.6250000000,0.6875000000,317.1875000000,image501.jpg,100237.9896670000
4,50.8637340000,-0.0944161667,58.6000000000,-12.0000000000,0.0000000000,319.0000000000,image502.jpg,100438.0625570000
4,50.8637336667,-0.0944188333,58.6000000000,-8.3125000000,0.7500000000,324.5000000000,image503.jpg,100638.1366420000
4,50.8637340000,-0.0944205000,58.6000000000,-8.8750000000,0.3125000000,324.7500000000,image504.jpg,100838.2279170000
4,50.8637350000,-0.0944215000,58.7000000000,-8.4375000000,0.1250000000,316.3125000000,image505.jpg,101038.2939790000
4,50.8637361667,-0.0944218333,58.7000000000,-2.5625000000,-3.6250000000,307.0625000000,image506.jpg,101238.3364420000
4,50.8637370000,-0.0944215000,58.6000000000,-1.9375000000,-6.5000000000,298.7500000000,image507.jpg,101438.3913470000
4,50.8637375000,-0.0944210000,58.6000000000,-1.8750000000,-5.4375000000,293.1875000000,image508.jpg,101638.4961550000
4,50.8637380000,-0.0944201667,58.6000000000,-1.0625000000,-6.1875000000,295.9375000000,image509.jpg,101838.5339690000
4,50.8637381667,-0.0944191667,58.6000000000,-0.5625000000,-8.0625000000,299.1250000000,image510.jpg,102039.6742140000
4,50.8637381667,-0.0944181667,58.6000000000,1.3750000000,-8.0625000000,303.8750000000,image511.jpg,102239.6032020000
4,50.8637385000,-0.0944175000,58.6000000000,2.6875000000,-5.1875000000,304.2500000000,image512.jpg,102439.9136720000
4,50.8637388333,-0.0944171667,58.5000000000,2.6250000000,-5.0625000000,302.5625000000,image513.jpg,102638.9105140000
4,50.8637390000,-0.0944171667,58.5000000000,3.1250000000,-6.0000000000,301.7500000000,image514.jpg,102838.9708730000
4,50.8637393333,-0.0944175000,58.6000000000,2.2500000000,-4.8125000000,298.3750000000,image515.jpg,103039.5508780000
4,50.8637393333,-0.0944178333,58.6000000000,0.6250000000,-4.3125000000,297.1250000000,image516.jpg,103240.0008540000
4,50.8637393333,-0.0944181667,58.6000000000,1.0000000000,-3.1250000000,296.2500000000,image517.jpg,103440.0524530000
