speed,steering angle,gps quality,lat,lon,altitude,roll,pitch,yaw,image name,timestamp
0.0392156877,0.0000000000,5,50.8680441667,-0.0982003333,73.6000000000,0.0000000000,-4.5625000000,359.9375000000,image0.jpg,58.9810420000
0.0392156877,1.0000000000,5,50.8680440000,-0.0981993333,73.8000000000,0.0000000000,-4.5625000000,359.9375000000,image1.jpg,125.9814060000
0.0549019612,0.0000000000,5,50.8680440000,-0.0981993333,73.8000000000,0.0000000000,-4.5625000000,359.9375000000,image3.jpg,255.5267710000
0.0549019612,0.0000000000,5,50.8680440000,-0.0981991667,73.8000000000,0.0000000000,-4.5625000000,359.9375000000,image4.jpg,324.4677080000
0.0000000000,0.0000000000,5,50.8680440000,-0.0981993333,73.8000000000,0.0000000000,-4.5625000000,359.9375000000,image6.jpg,455.6176560000
0.0392156877,0.0000000000,5,50.8680440000,-0.0981991667,73.8000000000,0.0000000000,-4.5625000000,359.9375000000,image7.jpg,523.0907810000
0.0392156877,0.0000000000,5,50.8680440000,-0.0981991667,73.8000000000,0.0000000000,-4.6875000000,359.8125000000,image9.jpg,655.5786980000
0.0392156877,1.0000000000,5,50.8680440000,-0.0981991667,73.8000000000,0.0000000000,-4.5000000000,359.9375000000,image10.jpg,722.8618230000
0.0627451017,1.0000000000,5,50.8680440000,-0.0981990000,73.8000000000,-0.0625000000,-4.5625000000,359.8125000000,image12.jpg,855.6149480000
0.0156862754,0.0000000000,5,50.8680440000,-0.0981991667,73.8000000000,-0.0625000000,-4.5000000000,359.8125000000,image13.jpg,923.1745830000
0.1254902035,0.0000000000,5,50.8680440000,-0.0981991667,73.8000000000,-0.0625000000,-4.5625000000,359.8125000000,image15.jpg,1059.4828640000
0.1490196139,0.0000000000,5,50.8680440000,-0.0981990000,73.8000000000,-0.0625000000,-4.5625000000,359.8125000000,image16.jpg,1124.4732290000
0.1568627506,0.0000000000,5,50.8680440000,-0.0981990000,73.8000000000,-0.0625000000,-4.5625000000,359.8750000000,image18.jpg,1254.9917180000
0.1568627506,0.0000000000,5,50.8680440000,-0.0981990000,73.7000000000,-0.0625000000,-4.5625000000,359.8750000000,image19.jpg,1324.1951040000
0.2274509817,1.0000000000,5,50.8680440000,-0.0981990000,73.7000000000,0.0000000000,-4.5000000000,359.8125000000,image21.jpg,1454.9620830000
0.2823529541,0.0000000000,5,50.8680440000,-0.0981990000,73.7000000000,0.0000000000,-4.5625000000,359.8750000000,image22.jpg,1524.1052600000
0.2588235438,1.0000000000,5,50.8680440000,-0.0981990000,73.7000000000,1.0625000000,-4.3125000000,359.1250000000,image24.jpg,1654.9055720000
0.2980392277,0.0000000000,5,50.8680440000,-0.0981991667,73.7000000000,2.3125000000,-4.4375000000,358.9375000000,image25.jpg,1722.6503640000
0.3137255013,0.0000000000,5,50.8680440000,-0.0981998333,73.7000000000,5.2500000000,-5.5000000000,358.6250000000,image27.jpg,1855.3065100000
0.3137255013,1.0000000000,5,50.8680440000,-0.0982001667,73.7000000000,7.0625000000,-6.5000000000,358.2500000000,image28.jpg,1924.0530720000
0.3215686381,0.0000000000,5,50.8680440000,-0.0982005000,73.7000000000,5.1875000000,-5.6250000000,356.9375000000,image30.jpg,2059.2188540000
0.2823529541,0.0000000000,5,50.8680443333,-0.0982008333,73.8000000000,2.8125000000,-4.3750000000,357.0625000000,image31.jpg,2123.4836450000
0.2901960909,0.0000000000,5,50.8680443333,-0.0982013333,73.8000000000,6.4375000000,-1.9375000000,356.6875000000,image33.jpg,2258.9574990000
0.2901960909,0.0000000000,5,50.8680443333,-0.0982020000,73.8000000000,5.5625000000,-2.0000000000,355.6875000000,image34.jpg,2322.7101560000
0.2823529541,0.0000000000,5,50.8680445000,-0.0982021667,73.8000000000,2.0625000000,-2.2500000000,355.2500000000,image36.jpg,2453.9292700000
0.2901960909,0.0000000000,5,50.8680445000,-0.0982023333,73.8000000000,1.2500000000,-3.1250000000,355.1250000000,image37.jpg,2522.8649990000
0.3686274588,2.0000000000,5,50.8680446667,-0.0982028333,73.8000000000,0.9375000000,-4.9375000000,356.2500000000,image39.jpg,2654.5247910000
0.3450980484,0.0000000000,5,50.8680446667,-0.0982031667,73.8000000000,1.9375000000,-4.1875000000,356.8125000000,image40.jpg,2723.6832800000
0.3215686381,1.0000000000,5,50.8680445000,-0.0982033333,73.8000000000,4.7500000000,-1.7500000000,357.5625000000,image42.jpg,2859.2330720000
0.3607843220,-1.0000000000,5,50.8680445000,-0.0982038333,73.8000000000,4.8125000000,-1.8125000000,357.3125000000,image43.jpg,2924.1515090000
0.3607843220,0.0000000000,5,50.8680448333,-0.0982041667,73.8000000000,4.7500000000,-1.3750000000,357.1875000000,image45.jpg,3058.4831240000
0.3607843220,2.0000000000,5,50.8680446667,-0.0982045000,73.8000000000,6.0625000000,-0.8750000000,357.0000000000,image46.jpg,3127.1427070000
0.3686274588,0.0000000000,5,50.8680448333,-0.0982046667,73.9000000000,4.2500000000,-1.5000000000,356.5625000000,image48.jpg,3258.8034360000
0.3215686381,0.0000000000,5,50.8680450000,-0.0982051667,73.9000000000,3.5625000000,-1.2500000000,356.4375000000,image49.jpg,3324.1288010000
0.3529411852,0.0000000000,5,50.8680450000,-0.0982055000,73.9000000000,0.8750000000,-0.8125000000,356.1875000000,image51.jpg,3458.9739570000
0.3529411852,2.0000000000,5,50.8680453333,-0.0982063333,73.9000000000,1.0000000000,-1.3750000000,356.5000000000,image52.jpg,3522.9579680000
0.3215686381,2.0000000000,5,50.8680453333,-0.0982063333,74.0000000000,4.3750000000,-0.4375000000,357.1250000000,image54.jpg,3658.1545820000
0.3529411852,2.0000000000,5,50.8680451667,-0.0982065000,74.0000000000,4.1250000000,0.3750000000,357.0625000000,image55.jpg,3721.6058320000
0.3686274588,2.0000000000,2,50.8680453333,-0.0982070000,74.0000000000,2.0000000000,0.5000000000,357.5000000000,image57.jpg,3858.5226030000
0.3215686381,2.0000000000,2,50.8680456667,-0.0982075000,74.0000000000,1.2500000000,0.5625000000,357.8125000000,image58.jpg,3927.8193740000
0.3529411852,4.0000000000,5,50.8680456667,-0.0982080000,74.0000000000,2.3750000000,1.9375000000,357.6250000000,image60.jpg,4058.7340610000
0.3529411852,2.0000000000,5,50.8680458333,-0.0982083333,74.0000000000,4.2500000000,2.3750000000,357.2500000000,image61.jpg,4126.8435920000
0.3607843220,3.0000000000,5,50.8680458333,-0.0982090000,74.0000000000,2.7500000000,2.8125000000,356.3750000000,image63.jpg,4258.7008320000
0.3686274588,5.0000000000,5,50.8680460000,-0.0982095000,74.1000000000,1.4375000000,2.3125000000,356.3750000000,image64.jpg,4326.9656240000
0.3686274588,4.0000000000,5,50.8680461667,-0.0982098333,74.1000000000,0.7500000000,3.1875000000,358.0000000000,image66.jpg,4458.8819780000
0.3607843220,5.0000000000,5,50.8680460000,-0.0982100000,74.1000000000,1.1875000000,3.1875000000,357.5625000000,image67.jpg,4526.6906760000
0.3686274588,6.0000000000,5,50.8680461667,-0.0982108333,74.1000000000,2.0000000000,2.3125000000,357.3750000000,image69.jpg,4658.7201550000
0.3764705956,7.0000000000,5,50.8680463333,-0.0982113333,74.1000000000,2.0000000000,1.5625000000,356.8750000000,image70.jpg,4727.4537480000
0.2980392277,7.0000000000,5,50.8680465000,-0.0982116667,74.1000000000,1.2500000000,0.6250000000,357.3125000000,image72.jpg,4858.9161440000
0.4000000060,7.0000000000,5,50.8680465000,-0.0982120000,74.2000000000,1.5625000000,-0.9375000000,357.7500000000,image73.jpg,4928.5739050000
0.3921568692,10.0000000000,5,50.8680465000,-0.0982123333,74.2000000000,1.1250000000,-0.6250000000,358.8750000000,image75.jpg,5057.5520820000
0.3450980484,12.0000000000,5,50.8680466667,-0.0982128333,74.3000000000,0.6250000000,-1.3750000000,359.2500000000,image76.jpg,5128.0670290000
0.3921568692,17.0000000000,5,50.8680471667,-0.0982141667,74.3000000000,1.0000000000,-0.9375000000,358.6875000000,image78.jpg,5259.0511440000
0.3921568692,17.0000000000,5,50.8680473333,-0.0982145000,74.3000000000,0.6875000000,-0.7500000000,359.2500000000,image79.jpg,5329.3699980000
0.3921568692,19.0000000000,5,50.8680473333,-0.0982148333,74.3000000000,1.3125000000,-0.6250000000,1.1250000000,image81.jpg,5458.5017690000
0.4078431427,21.0000000000,5,50.8680473333,-0.0982155000,74.3000000000,2.5625000000,-0.9375000000,1.5625000000,image82.jpg,5528.8527580000
0.3921568692,21.0000000000,5,50.8680476667,-0.0982160000,74.3000000000,5.0000000000,0.9375000000,2.5000000000,image84.jpg,5662.4081230000
0.3921568692,22.0000000000,5,50.8680480000,-0.0982166667,74.3000000000,2.7500000000,1.1250000000,3.6875000000,image85.jpg,5726.9057790000
0.4000000060,20.0000000000,5,50.8680485000,-0.0982170000,74.3000000000,1.2500000000,-1.5625000000,5.9375000000,image87.jpg,5859.3772900000
0.3921568692,14.0000000000,5,50.8680486667,-0.0982181667,74.3000000000,1.1875000000,0.2500000000,5.9375000000,image88.jpg,5927.0269770000
0.3450980484,3.0000000000,5,50.8680488333,-0.0982180000,74.4000000000,-0.0625000000,1.8125000000,6.8125000000,image90.jpg,6065.5791120000
0.3921568692,-1.0000000000,5,50.8680491667,-0.0982183333,74.4000000000,-0.3125000000,2.5000000000,8.0000000000,image91.jpg,6128.0828620000
0.3843137324,-4.0000000000,5,50.8680490000,-0.0982186667,74.4000000000,1.0625000000,3.1250000000,8.0625000000,image93.jpg,6263.0511960000
0.3294117749,-3.0000000000,5,50.8680493333,-0.0982195000,74.4000000000,3.3125000000,2.0000000000,7.8750000000,image94.jpg,6327.0891640000
0.4000000060,2.0000000000,5,50.8680493333,-0.0982200000,74.5000000000,2.6250000000,3.6250000000,6.7500000000,image96.jpg,6459.3035390000
0.4000000060,5.0000000000,5,50.8680498333,-0.0982205000,74.5000000000,2.3125000000,4.6875000000,6.8750000000,image97.jpg,6528.5064560000
0.4156862795,14.0000000000,5,50.8680500000,-0.0982211667,74.5000000000,6.5625000000,3.5625000000,5.1875000000,image99.jpg,6662.5791640000
0.4078431427,16.0000000000,5,50.8680501667,-0.0982220000,74.5000000000,5.4375000000,2.5625000000,5.4375000000,image100.jpg,6726.1157270000
0.3921568692,21.0000000000,5,50.8680506667,-0.0982223333,74.5000000000,4.9375000000,1.5000000000,5.5625000000,image102.jpg,6862.8876020000
0.3921568692,21.0000000000,5,50.8680505000,-0.0982228333,74.5000000000,4.7500000000,2.0625000000,6.3750000000,image103.jpg,6927.0372370000
0.3921568692,21.0000000000,5,50.8680508333,-0.0982233333,74.5000000000,7.6250000000,3.3125000000,8.5000000000,image105.jpg,7063.5587470000
0.3921568692,20.0000000000,5,50.8680510000,-0.0982240000,74.5000000000,5.7500000000,3.4375000000,8.4375000000,image106.jpg,7126.7252060000
0.3215686381,21.0000000000,5,50.8680511667,-0.0982240000,74.6000000000,3.6250000000,4.4375000000,10.1875000000,image108.jpg,7263.5424970000
0.4078431427,23.0000000000,5,50.8680513333,-0.0982241667,74.6000000000,3.1875000000,3.9375000000,11.5000000000,image109.jpg,7331.2566640000
0.4000000060,23.0000000000,5,50.8680516667,-0.0982246667,74.6000000000,5.4375000000,3.2500000000,13.8750000000,image111.jpg,7463.4263510000
0.3607843220,23.0000000000,5,50.8680520000,-0.0982256667,74.6000000000,5.8125000000,2.6875000000,15.0625000000,image112.jpg,7531.1813510000
0.4000000060,11.0000000000,5,50.8680523333,-0.0982265000,74.6000000000,7.1250000000,1.8125000000,16.6250000000,image114.jpg,7663.5600490000
0.4000000060,7.0000000000,5,50.8680526667,-0.0982271667,74.6000000000,7.1250000000,1.0625000000,17.2500000000,image115.jpg,7730.7495810000
0.4156862795,0.0000000000,5,50.8680531667,-0.0982276667,74.6000000000,1.8125000000,-0.8125000000,17.8750000000,image117.jpg,7863.4179140000
0.4000000060,0.0000000000,5,50.8680535000,-0.0982278333,74.6000000000,0.8750000000,-0.8750000000,17.1250000000,image118.jpg,7931.1760390000
0.4000000060,0.0000000000,5,50.8680538333,-0.0982283333,74.6000000000,2.9375000000,0.0625000000,17.3125000000,image120.jpg,8062.9020800000
0.4000000060,0.0000000000,5,50.8680541667,-0.0982293333,74.6000000000,5.2500000000,-0.3125000000,16.9375000000,image121.jpg,8132.5740600000
0.4000000060,0.0000000000,5,50.8680543333,-0.0982298333,74.6000000000,4.7500000000,0.7500000000,16.4375000000,image123.jpg,8262.4973930000
0.3686274588,0.0000000000,5,50.8680546667,-0.0982300000,74.6000000000,4.8750000000,0.7500000000,16.4375000000,image124.jpg,8331.0351530000
0.3686274588,0.0000000000,5,50.8680550000,-0.0982308333,74.6000000000,4.9375000000,0.8750000000,15.5625000000,image126.jpg,8463.0306740000
0.4000000060,0.0000000000,5,50.8680551667,-0.0982311667,74.6000000000,2.4375000000,1.5000000000,15.0000000000,image127.jpg,8530.7343200000
0.4000000060,0.0000000000,5,50.8680558333,-0.0982320000,74.6000000000,2.8125000000,0.9375000000,15.4375000000,image129.jpg,8663.6366640000
0.3686274588,3.0000000000,5,50.8680558333,-0.0982326667,74.6000000000,4.0625000000,1.6250000000,15.5625000000,image130.jpg,8730.9717680000
0.4000000060,5.0000000000,5,50.8680560000,-0.0982331667,74.6000000000,4.0000000000,2.5625000000,15.2500000000,image132.jpg,8862.7051010000
0.4000000060,7.0000000000,5,50.8680565000,-0.0982338333,74.6000000000,3.6250000000,2.0625000000,15.0625000000,image133.jpg,8930.9675490000
0.3607843220,11.0000000000,5,50.8680568333,-0.0982345000,74.5000000000,1.3750000000,2.5625000000,15.1250000000,image135.jpg,9063.4341630000
0.3921568692,13.0000000000,5,50.8680571667,-0.0982350000,74.5000000000,2.5000000000,3.0625000000,15.5000000000,image136.jpg,9130.8746840000
0.3921568692,16.0000000000,5,50.8680576667,-0.0982360000,74.5000000000,6.4375000000,4.5000000000,16.3750000000,image138.jpg,9263.7020280000
0.3921568692,17.0000000000,5,50.8680578333,-0.0982365000,74.5000000000,5.3750000000,4.8125000000,16.6875000000,image139.jpg,9332.2590590000
0.3921568692,18.0000000000,5,50.8680583333,-0.0982368333,74.5000000000,0.0000000000,3.5000000000,18.3125000000,image141.jpg,9462.2823400000
0.3686274588,16.0000000000,5,50.8680586667,-0.0982373333,74.5000000000,-0.7500000000,5.0000000000,19.5000000000,image142.jpg,9530.8637470000
0.3921568692,14.0000000000,5,50.8680588333,-0.0982378333,74.5000000000,-1.4375000000,5.1875000000,20.0625000000,image144.jpg,9667.9812990000
0.3921568692,3.0000000000,5,50.8680591667,-0.0982380000,74.5000000000,-1.5625000000,5.7500000000,20.9375000000,image145.jpg,9731.7695800000
0.3921568692,-1.0000000000,5,50.8680593333,-0.0982385000,74.5000000000,1.6250000000,4.2500000000,24.1250000000,image147.jpg,9862.7182260000
0.3921568692,0.0000000000,2,50.8680595000,-0.0982391667,74.5000000000,4.6250000000,3.0000000000,24.0625000000,image148.jpg,9931.6687460000
0.4078431427,-2.0000000000,5,50.8680598333,-0.0982398333,74.5000000000,6.1875000000,3.4375000000,23.1875000000,image150.jpg,10066.5858820000
0.4000000060,-3.0000000000,2,50.8680603333,-0.0982401667,74.5000000000,4.3750000000,4.1250000000,22.5625000000,image151.jpg,10132.3235900000
0.3607843220,-6.0000000000,2,50.8680606667,-0.0982405000,74.5000000000,1.5625000000,4.4375000000,22.5000000000,image153.jpg,10263.7967150000
0.3921568692,-7.0000000000,2,50.8680610000,-0.0982411667,74.5000000000,0.1250000000,3.9375000000,21.9375000000,image154.jpg,10332.6506210000
0.3921568692,-10.0000000000,2,50.8680611667,-0.0982416667,74.5000000000,0.1875000000,2.5625000000,21.1875000000,image156.jpg,10467.3974440000
0.3921568692,-10.0000000000,2,50.8680615000,-0.0982423333,74.5000000000,0.5000000000,3.0000000000,20.6250000000,image157.jpg,10532.2303090000
0.4078431427,-10.0000000000,2,50.8680618333,-0.0982426667,74.5000000000,2.8750000000,2.6875000000,20.3125000000,image159.jpg,10667.4859340000
0.3529411852,-12.0000000000,2,50.8680620000,-0.0982431667,74.5000000000,3.6875000000,2.7500000000,19.8125000000,image160.jpg,10730.9951520000
0.3921568692,-13.0000000000,2,50.8680623333,-0.0982436667,74.5000000000,1.8125000000,2.1250000000,18.4375000000,image162.jpg,10867.9147880000
0.3921568692,-13.0000000000,2,50.8680626667,-0.0982440000,74.5000000000,-0.6875000000,2.5000000000,18.0625000000,image163.jpg,10932.4403610000
0.3921568692,-13.0000000000,5,50.8680631667,-0.0982446667,74.5000000000,-2.1250000000,4.8125000000,16.8750000000,image165.jpg,11070.0278610000
0.3921568692,-12.0000000000,5,50.8680631667,-0.0982450000,74.5000000000,-0.5000000000,5.7500000000,16.8125000000,image166.jpg,11137.5258290000
0.4000000060,-13.0000000000,5,50.8680633333,-0.0982453333,74.5000000000,1.6250000000,4.0625000000,14.9375000000,image168.jpg,11267.6735380000
0.4000000060,-12.0000000000,5,50.8680638333,-0.0982461667,74.5000000000,2.1250000000,4.9375000000,14.0625000000,image169.jpg,11333.9814020000
0.3372549117,-12.0000000000,5,50.8680641667,-0.0982471667,74.4000000000,4.9375000000,4.6875000000,12.2500000000,image171.jpg,11466.3507770000
0.3921568692,-13.0000000000,5,50.8680645000,-0.0982480000,74.4000000000,5.0625000000,3.9375000000,11.0625000000,image172.jpg,11536.0527560000
0.3921568692,-13.0000000000,5,50.8680646667,-0.0982486667,74.4000000000,4.0000000000,3.1875000000,9.5000000000,image174.jpg,11666.8994750000
0.4000000060,-12.0000000000,5,50.8680648333,-0.0982490000,74.4000000000,3.9375000000,1.7500000000,8.8750000000,image175.jpg,11735.3672350000
0.4078431427,-10.0000000000,5,50.8680650000,-0.0982498333,74.4000000000,4.0625000000,2.0625000000,8.1875000000,image177.jpg,11866.6167140000
0.3450980484,-10.0000000000,5,50.8680653333,-0.0982503333,74.4000000000,3.5000000000,2.4375000000,8.1250000000,image178.jpg,11935.9042140000
0.3921568692,-8.0000000000,5,50.8680653333,-0.0982510000,74.4000000000,4.4375000000,3.0625000000,7.1875000000,image180.jpg,12067.3747870000
0.3921568692,-4.0000000000,5,50.8680656667,-0.0982518333,74.4000000000,2.7500000000,3.3750000000,6.8125000000,image181.jpg,12135.9082770000
0.3921568692,-1.0000000000,5,50.8680660000,-0.0982526667,74.3000000000,3.4375000000,3.0625000000,5.8750000000,image183.jpg,12266.6290060000
0.3921568692,0.0000000000,5,50.8680663333,-0.0982535000,74.3000000000,5.8750000000,2.1875000000,4.8750000000,image184.jpg,12336.3696830000
0.4000000060,0.0000000000,5,50.8680663333,-0.0982543333,74.3000000000,8.3125000000,3.4375000000,4.2500000000,image186.jpg,12465.3464540000
0.3843137324,-1.0000000000,5,50.8680663333,-0.0982548333,74.3000000000,7.2500000000,2.6250000000,4.4375000000,image187.jpg,12534.7170270000
0.2980392277,1.0000000000,5,50.8680668333,-0.0982551667,74.3000000000,6.5000000000,2.5000000000,4.6875000000,image189.jpg,12665.9739540000
0.3921568692,0.0000000000,5,50.8680670000,-0.0982558333,74.2000000000,6.5000000000,2.1250000000,4.4375000000,image190.jpg,12735.0429640000
0.3921568692,0.0000000000,5,50.8680673333,-0.0982565000,74.2000000000,4.4375000000,0.9375000000,4.1875000000,image192.jpg,12866.4193700000
0.4156862795,0.0000000000,5,50.8680675000,-0.0982573333,74.2000000000,4.1250000000,0.9375000000,4.0625000000,image193.jpg,12935.0033290000
0.4000000060,-3.0000000000,5,50.8680676667,-0.0982585000,74.2000000000,5.1250000000,1.4375000000,4.9375000000,image195.jpg,13066.7843180000
0.3607843220,-2.0000000000,5,50.8680678333,-0.0982590000,74.2000000000,8.0000000000,0.5000000000,4.8750000000,image196.jpg,13134.9136410000
0.4000000060,-4.0000000000,5,50.8680680000,-0.0982598333,74.1000000000,7.4375000000,-0.9375000000,3.6875000000,image198.jpg,13266.8865580000
0.4000000060,-4.0000000000,5,50.8680685000,-0.0982606667,74.1000000000,7.1250000000,-0.9375000000,3.7500000000,image199.jpg,13335.7181200000
0.4000000060,-3.0000000000,5,50.8680688333,-0.0982615000,74.1000000000,4.5625000000,1.0000000000,2.6875000000,image201.jpg,13466.6860370000
0.4078431427,-2.0000000000,5,50.8680690000,-0.0982620000,74.1000000000,3.8125000000,2.6875000000,3.1250000000,image202.jpg,13536.5908280000
0.3921568692,-2.0000000000,5,50.8680691667,-0.0982625000,74.1000000000,5.1875000000,4.0000000000,2.5000000000,image204.jpg,13667.1765050000
0.3607843220,-2.0000000000,5,50.8680695000,-0.0982633333,74.1000000000,5.1875000000,3.3125000000,1.5625000000,image205.jpg,13736.1999950000
0.3607843220,-4.0000000000,5,50.8680695000,-0.0982640000,74.1000000000,7.1250000000,3.0000000000,1.6250000000,image207.jpg,13870.4564530000
0.3686274588,-10.0000000000,5,50.8680693333,-0.0982646667,74.0000000000,6.7500000000,3.0625000000,1.7500000000,image208.jpg,13935.9155680000
0.4000000060,-14.0000000000,5,50.8680698333,-0.0982656667,74.0000000000,7.1875000000,3.6250000000,0.6250000000,image210.jpg,14070.7779110000
0.4156862795,-12.0000000000,5,50.8680701667,-0.0982663333,73.9000000000,6.1875000000,4.1250000000,359.3750000000,image211.jpg,14136.0741090000
0.4000000060,-15.0000000000,5,50.8680703333,-0.0982673333,73.9000000000,3.9375000000,0.8750000000,358.6875000000,image213.jpg,14270.5065050000
0.3607843220,-14.0000000000,5,50.8680706667,-0.0982680000,73.9000000000,4.0625000000,-0.1250000000,358.1875000000,image214.jpg,14334.9456200000
0.4000000060,-18.0000000000,5,50.8680710000,-0.0982690000,73.9000000000,6.9375000000,0.0625000000,356.3125000000,image216.jpg,14470.5288490000
0.4000000060,-19.0000000000,5,50.8680710000,-0.0982698333,73.9000000000,6.7500000000,0.6250000000,355.0625000000,image217.jpg,14534.7754110000
0.3764705956,-17.0000000000,5,50.8680711667,-0.0982705000,73.8000000000,4.6250000000,-0.3750000000,353.9375000000,image219.jpg,14670.7250990000
0.4156862795,-16.0000000000,5,50.8680713333,-0.0982715000,73.8000000000,5.4375000000,-0.7500000000,353.7500000000,image220.jpg,14735.4231200000
0.4000000060,-14.0000000000,5,50.8680711667,-0.0982718333,73.8000000000,6.9375000000,-0.6875000000,351.5000000000,image222.jpg,14869.4259840000
0.3686274588,-14.0000000000,5,50.8680711667,-0.0982725000,73.8000000000,6.3125000000,-0.7500000000,351.0000000000,image223.jpg,14934.1361400000
0.3686274588,-9.0000000000,5,50.8680713333,-0.0982731667,73.8000000000,1.8125000000,-0.3125000000,350.1875000000,image225.jpg,15069.4460360000
0.3686274588,-9.0000000000,5,50.8680716667,-0.0982738333,73.7000000000,3.2500000000,-0.0625000000,350.0625000000,image226.jpg,15138.3196300000
0.4156862795,-6.0000000000,5,50.8680715000,-0.0982746667,73.7000000000,5.3750000000,0.5000000000,349.1250000000,image228.jpg,15269.6203590000
0.4000000060,-5.0000000000,5,50.8680716667,-0.0982751667,73.7000000000,6.5000000000,0.8125000000,348.6250000000,image229.jpg,15339.5404110000
0.3921568692,-9.0000000000,5,50.8680715000,-0.0982760000,73.7000000000,1.0000000000,2.0625000000,348.3125000000,image231.jpg,15470.7507760000
0.3921568692,-10.0000000000,5,50.8680718333,-0.0982768333,73.7000000000,2.3125000000,1.5625000000,348.5625000000,image232.jpg,15534.3588480000
0.3921568692,-10.0000000000,5,50.8680718333,-0.0982778333,73.6000000000,3.1250000000,1.9375000000,345.6875000000,image234.jpg,15671.9910880000
0.3921568692,-10.0000000000,5,50.8680721667,-0.0982790000,73.7000000000,2.5625000000,0.6875000000,345.0625000000,image235.jpg,15738.8039000000
0.3764705956,-8.0000000000,5,50.8680718333,-0.0982791667,73.6000000000,2.5000000000,0.8125000000,344.5625000000,image237.jpg,15871.9717130000
0.4000000060,-5.0000000000,5,50.8680720000,-0.0982800000,73.6000000000,3.1250000000,0.5000000000,344.3125000000,image238.jpg,15938.9663480000
0.4000000060,10.0000000000,5,50.8680721667,-0.0982808333,73.6000000000,5.7500000000,-0.1250000000,342.0000000000,image240.jpg,16074.2917650000
0.3137255013,14.0000000000,5,50.8680720000,-0.0982816667,73.6000000000,4.1875000000,-0.1875000000,341.9375000000,image241.jpg,16137.5144210000
0.4078431427,34.0000000000,2,50.8680721667,-0.0982823333,73.6000000000,4.6250000000,0.3125000000,343.1875000000,image243.jpg,16271.7184310000
0.3686274588,33.0000000000,2,50.8680726667,-0.0982831667,73.6000000000,4.7500000000,0.8750000000,343.6250000000,image244.jpg,16339.1378060000
0.4313725531,33.0000000000,2,50.8680726667,-0.0982838333,73.6000000000,3.6250000000,0.5000000000,347.1250000000,image246.jpg,16470.3674420000
0.4156862795,35.0000000000,2,50.8680726667,-0.0982843333,73.6000000000,3.3125000000,0.4375000000,348.3750000000,image247.jpg,16538.7275460000
0.4156862795,34.0000000000,2,50.8680730000,-0.0982855000,73.5000000000,5.7500000000,2.3750000000,352.6250000000,image249.jpg,16670.1113480000
0.4156862795,28.0000000000,2,50.8680731667,-0.0982860000,73.5000000000,6.8125000000,2.1875000000,353.6875000000,image250.jpg,16737.8173900000
0.4078431427,11.0000000000,2,50.8680735000,-0.0982868333,73.5000000000,7.2500000000,3.1875000000,355.7500000000,image252.jpg,16871.0402540000
0.4235294163,3.0000000000,2,50.8680731667,-0.0982868333,73.5000000000,6.5625000000,2.1875000000,356.8750000000,image253.jpg,16940.8819210000
0.3607843220,0.0000000000,5,50.8680731667,-0.0982875000,73.4000000000,6.4375000000,1.7500000000,357.5000000000,image255.jpg,17071.4456710000
0.4078431427,-1.0000000000,5,50.8680735000,-0.0982886667,73.4000000000,5.8750000000,2.3125000000,356.9375000000,image256.jpg,17139.0646290000
0.4078431427,-1.0000000000,5,50.8680733333,-0.0982891667,73.4000000000,8.1250000000,3.8750000000,355.8125000000,image258.jpg,17272.0031710000
0.3529411852,4.0000000000,5,50.8680733333,-0.0982898333,73.4000000000,5.5000000000,3.3750000000,356.1875000000,image259.jpg,17339.0728060000
0.4078431427,16.0000000000,5,50.8680736667,-0.0982905000,73.4000000000,4.5625000000,2.7500000000,356.8750000000,image261.jpg,17471.8575980000
0.3686274588,18.0000000000,5,50.8680738333,-0.0982915000,73.4000000000,4.8750000000,1.9375000000,355.9375000000,image262.jpg,17539.5289520000
0.4078431427,25.0000000000,5,50.8680740000,-0.0982921667,73.3000000000,3.6250000000,1.2500000000,357.5000000000,image264.jpg,17672.1445770000
0.4078431427,28.0000000000,5,50.8680743333,-0.0982930000,73.3000000000,4.1250000000,0.3125000000,358.6250000000,image265.jpg,17739.0316600000
0.4078431427,25.0000000000,5,50.8680745000,-0.0982940000,73.3000000000,5.0625000000,-0.1250000000,2.5000000000,image267.jpg,17875.7031700000
0.4078431427,15.0000000000,5,50.8680748333,-0.0982948333,73.3000000000,4.9375000000,-1.2500000000,3.0625000000,image268.jpg,17938.7656180000
0.4235294163,5.0000000000,5,50.8680758333,-0.0982961667,73.3000000000,2.9375000000,0.0000000000,5.3125000000,image270.jpg,18075.9676500000
0.4235294163,-1.0000000000,5,50.8680758333,-0.0982970000,73.3000000000,1.4375000000,-0.2500000000,5.5625000000,image271.jpg,18139.2654100000
0.3215686381,-1.0000000000,5,50.8680760000,-0.0982975000,73.2000000000,2.8750000000,1.9375000000,5.7500000000,image273.jpg,18275.2600450000
0.4078431427,-3.0000000000,5,50.8680761667,-0.0982980000,73.2000000000,3.8125000000,2.0625000000,5.4375000000,image274.jpg,18339.8880660000
0.4078431427,-3.0000000000,5,50.8680761667,-0.0982990000,73.2000000000,4.0000000000,2.1250000000,4.3125000000,image276.jpg,18473.8374930000
0.3215686381,-1.0000000000,5,50.8680765000,-0.0982998333,73.2000000000,4.0000000000,3.3750000000,4.5625000000,image277.jpg,18540.1268680000
0.4235294163,-5.0000000000,5,50.8680766667,-0.0983003333,73.2000000000,4.5625000000,3.4375000000,3.6875000000,image279.jpg,18674.6162430000
0.3764705956,-6.0000000000,5,50.8680768333,-0.0983011667,73.2000000000,5.8125000000,4.2500000000,3.5625000000,image280.jpg,18740.1005660000
0.4078431427,-5.0000000000,5,50.8680770000,-0.0983020000,73.2000000000,2.8125000000,1.8750000000,2.3125000000,image282.jpg,18874.2059830000
0.4078431427,-5.0000000000,5,50.8680775000,-0.0983028333,73.2000000000,3.3125000000,1.6250000000,2.0625000000,image283.jpg,18939.6387430000
0.4156862795,-1.0000000000,5,50.8680775000,-0.0983035000,73.1000000000,3.7500000000,5.2500000000,1.6250000000,image285.jpg,19074.9165030000
0.4156862795,0.0000000000,5,50.8680780000,-0.0983041667,73.1000000000,5.8750000000,3.8750000000,0.8125000000,image286.jpg,19143.9824930000
0.4313725531,1.0000000000,5,50.8680783333,-0.0983051667,73.1000000000,2.7500000000,3.0625000000,359.7500000000,image288.jpg,19275.5932220000
0.4156862795,1.0000000000,5,50.8680788333,-0.0983056667,73.1000000000,1.5000000000,3.0625000000,0.2500000000,image289.jpg,19343.6313470000
0.3843137324,3.0000000000,5,50.8680790000,-0.0983061667,73.1000000000,5.2500000000,3.4375000000,359.5000000000,image291.jpg,19475.9508780000
0.4156862795,4.0000000000,5,50.8680795000,-0.0983071667,73.1000000000,4.3125000000,3.2500000000,359.3750000000,image292.jpg,19543.8792640000
0.4156862795,7.0000000000,5,50.8680796667,-0.0983080000,73.1000000000,4.3750000000,1.3750000000,359.1875000000,image294.jpg,19675.8849930000
0.3764705956,9.0000000000,5,50.8680800000,-0.0983088333,73.1000000000,4.4375000000,1.5000000000,359.3750000000,image295.jpg,19743.7266070000
0.4313725531,11.0000000000,5,50.8680800000,-0.0983090000,73.1000000000,5.4375000000,3.1250000000,358.6250000000,image297.jpg,19875.0498880000
0.3843137324,11.0000000000,5,50.8680801667,-0.0983098333,73.1000000000,1.7500000000,3.0000000000,358.9375000000,image298.jpg,19942.8328570000
0.3843137324,12.0000000000,5,50.8680803333,-0.0983101667,73.1000000000,-0.5625000000,3.9375000000,0.6875000000,image300.jpg,20073.4366590000
0.4235294163,12.0000000000,5,50.8680798333,-0.0983110000,73.0000000000,1.4375000000,3.3750000000,0.6250000000,image301.jpg,20143.1397840000
0.3921568692,16.0000000000,5,50.8680803333,-0.0983120000,73.1000000000,1.6250000000,4.0000000000,0.8125000000,image303.jpg,20274.9241590000
0.4235294163,16.0000000000,5,50.8680808333,-0.0983125000,73.0000000000,1.3125000000,4.0625000000,1.7500000000,image304.jpg,20343.4355130000
0.4235294163,17.0000000000,5,50.8680811667,-0.0983133333,73.0000000000,2.7500000000,2.3750000000,3.2500000000,image306.jpg,20476.0332740000
0.3843137324,14.0000000000,2,50.8680816667,-0.0983141667,73.0000000000,3.1875000000,2.8125000000,2.8750000000,image307.jpg,20545.9579090000
0.4156862795,14.0000000000,2,50.8680821667,-0.0983143333,73.0000000000,1.3125000000,3.5000000000,3.8750000000,image309.jpg,20676.5811900000
0.4156862795,13.0000000000,2,50.8680821667,-0.0983146667,73.0000000000,2.6875000000,4.3750000000,4.8750000000,image310.jpg,20746.0231170000
0.4235294163,13.0000000000,2,50.8680828333,-0.0983150000,73.1000000000,3.0000000000,4.0625000000,4.8750000000,image312.jpg,20873.4787420000
0.4392156899,14.0000000000,2,50.8680833333,-0.0983158333,73.1000000000,0.1875000000,5.7500000000,5.6250000000,image313.jpg,20942.9628570000
0.4235294163,12.0000000000,5,50.8680836667,-0.0983168333,73.0000000000,0.5625000000,7.3750000000,8.6250000000,image315.jpg,21076.9610860000
0.4156862795,12.0000000000,5,50.8680833333,-0.0983171667,73.0000000000,3.5625000000,6.5000000000,8.6875000000,image316.jpg,21146.4092110000
0.3921568692,12.0000000000,5,50.8680831667,-0.0983178333,73.0000000000,6.1250000000,4.0000000000,10.0000000000,image318.jpg,21274.7332730000
0.4313725531,13.0000000000,5,50.8680831667,-0.0983185000,73.0000000000,6.2500000000,2.8125000000,10.2500000000,image319.jpg,21343.1471800000
0.4313725531,13.0000000000,5,50.8680831667,-0.0983195000,72.9000000000,3.6875000000,1.1250000000,11.1250000000,image321.jpg,21474.4124400000
0.4392156899,13.0000000000,5,50.8680838333,-0.0983206667,73.0000000000,2.8750000000,0.0000000000,10.6875000000,image322.jpg,21542.8389500000
0.4313725531,16.0000000000,2,50.8680843333,-0.0983213333,72.9000000000,1.8125000000,1.0625000000,11.4375000000,image324.jpg,21674.8007730000
0.3372549117,13.0000000000,2,50.8680843333,-0.0983216667,72.9000000000,1.5000000000,1.5625000000,12.6875000000,image325.jpg,21743.4350440000
0.4313725531,14.0000000000,2,50.8680843333,-0.0983218333,72.9000000000,4.6250000000,3.7500000000,15.3750000000,image327.jpg,21878.2882730000
0.4313725531,12.0000000000,2,50.8680846667,-0.0983225000,72.8000000000,6.4375000000,5.3125000000,15.2500000000,image328.jpg,21943.9316060000
0.4470588267,5.0000000000,5,50.8680846667,-0.0983230000,72.8000000000,4.5625000000,4.5625000000,16.0000000000,image330.jpg,22079.1472830000
0.4392156899,3.0000000000,2,50.8680851667,-0.0983235000,72.8000000000,2.6875000000,4.1875000000,16.3125000000,image331.jpg,22143.9591060000
0.4313725531,-16.0000000000,2,50.8680853333,-0.0983236667,72.8000000000,1.1250000000,4.2500000000,16.3750000000,image333.jpg,22278.4969710000
0.4235294163,-19.0000000000,2,50.8680855000,-0.0983245000,72.8000000000,0.7500000000,4.0000000000,15.8750000000,image334.jpg,22344.0939500000
0.3764705956,-24.0000000000,2,50.8680858333,-0.0983251667,72.8000000000,3.0625000000,5.3750000000,14.5000000000,image336.jpg,22478.2557210000
0.4313725531,-26.0000000000,2,50.8680861667,-0.0983260000,72.7000000000,4.1875000000,5.2500000000,13.6250000000,image337.jpg,22544.0789500000
0.3921568692,-26.0000000000,2,50.8680865000,-0.0983263333,72.8000000000,4.7500000000,5.1250000000,11.2500000000,image339.jpg,22678.2435330000
0.4470588267,-24.0000000000,2,50.8680868333,-0.0983270000,72.8000000000,4.8125000000,4.8125000000,9.6875000000,image340.jpg,22743.1571270000
0.4392156899,-20.0000000000,2,50.8680873333,-0.0983280000,72.8000000000,4.4375000000,4.0625000000,6.1875000000,image342.jpg,22879.4084290000
0.3921568692,-18.0000000000,2,50.8680875000,-0.0983283333,72.9000000000,3.7500000000,4.9375000000,4.8750000000,image343.jpg,22942.0588460000
0.4470588267,-14.0000000000,5,50.8680878333,-0.0983291667,72.9000000000,5.9375000000,4.6875000000,3.8125000000,image345.jpg,23078.4262930000
0.4470588267,-6.0000000000,5,50.8680880000,-0.0983300000,72.9000000000,8.4375000000,4.1875000000,2.8750000000,image346.jpg,23148.2960330000
0.4627451003,3.0000000000,5,50.8680881667,-0.0983308333,72.9000000000,7.8125000000,3.8750000000,0.6250000000,image348.jpg,23278.6187930000
0.4627451003,8.0000000000,5,50.8680883333,-0.0983316667,72.9000000000,6.7500000000,3.1875000000,0.4375000000,image349.jpg,23347.1263980000
0.4549019635,13.0000000000,2,50.8680885000,-0.0983325000,72.8000000000,6.8750000000,4.4375000000,0.8125000000,image351.jpg,23478.1141060000
0.4549019635,14.0000000000,2,50.8680888333,-0.0983331667,72.8000000000,5.8125000000,4.6875000000,0.5625000000,image352.jpg,23545.6660330000
0.3686274588,18.0000000000,2,50.8680890000,-0.0983335000,72.8000000000,4.5000000000,4.1250000000,2.1250000000,image354.jpg,23678.8603560000
0.4549019635,16.0000000000,2,50.8680891667,-0.0983341667,72.9000000000,3.7500000000,2.2500000000,3.2500000000,image355.jpg,23747.1948350000
0.3686274588,1.0000000000,2,50.8680895000,-0.0983346667,72.9000000000,4.2500000000,2.5000000000,5.0000000000,image357.jpg,23878.5330640000
0.4549019635,-4.0000000000,2,50.8680900000,-0.0983358333,72.8000000000,4.1875000000,1.5000000000,5.8125000000,image358.jpg,23947.3260330000
0.4549019635,-4.0000000000,5,50.8680903333,-0.0983368333,72.8000000000,5.5000000000,-0.1250000000,5.8125000000,image360.jpg,24079.2673350000
0.3686274588,-2.0000000000,5,50.8680908333,-0.0983376667,72.8000000000,4.6250000000,-1.1875000000,4.8750000000,image361.jpg,24146.7241060000
0.4549019635,0.0000000000,5,50.8680908333,-0.0983383333,72.8000000000,0.0000000000,-1.0000000000,3.6250000000,image363.jpg,24278.7956680000
0.4549019635,1.0000000000,2,50.8680910000,-0.0983388333,72.9000000000,1.3125000000,-0.4375000000,3.6875000000,image364.jpg,24345.9905640000
0.4549019635,5.0000000000,2,50.8680911667,-0.0983396667,72.9000000000,2.6875000000,1.8750000000,3.7500000000,image366.jpg,24479.6345740000
0.4549019635,8.0000000000,2,50.8680915000,-0.0983403333,72.9000000000,3.3125000000,2.7500000000,3.7500000000,image367.jpg,24546.9100950000
0.4549019635,19.0000000000,2,50.8680916667,-0.0983410000,72.8000000000,6.2500000000,2.9375000000,3.2500000000,image369.jpg,24679.8793140000
0.4549019635,21.0000000000,2,50.8680916667,-0.0983423333,72.8000000000,4.1875000000,4.1875000000,3.5625000000,image370.jpg,24746.8062930000
0.4549019635,24.0000000000,2,50.8680920000,-0.0983430000,72.9000000000,4.1875000000,4.2500000000,5.0625000000,image371.jpg,24816.1756680000
0.4705882370,24.0000000000,2,50.8680923333,-0.0983440000,72.9000000000,4.7500000000,4.5625000000,8.0625000000,image373.jpg,24947.1692090000
0.4156862795,7.0000000000,5,50.8680925000,-0.0983445000,72.8000000000,7.4375000000,5.6250000000,9.2500000000,image375.jpg,25079.4895740000
0.4549019635,1.0000000000,5,50.8680928333,-0.0983458333,72.8000000000,8.0625000000,4.5625000000,9.5000000000,image376.jpg,25147.7023340000
0.4549019635,1.0000000000,5,50.8680930000,-0.0983468333,72.8000000000,4.6250000000,1.6250000000,10.1875000000,image378.jpg,25278.7733240000
0.4156862795,2.0000000000,5,50.8680933333,-0.0983483333,72.8000000000,3.6250000000,1.5000000000,10.0000000000,image379.jpg,25346.9999900000
0.4235294163,0.0000000000,5,50.8680938333,-0.0983491667,72.8000000000,3.5625000000,0.3750000000,10.0000000000,image380.jpg,25415.7228550000
0.4705882370,1.0000000000,5,50.8680941667,-0.0983500000,72.8000000000,3.4375000000,0.0000000000,9.7500000000,image382.jpg,25547.1798860000
0.4235294163,2.0000000000,5,50.8680945000,-0.0983506667,72.7000000000,6.4375000000,-1.0000000000,10.4375000000,image384.jpg,25679.2968650000
0.4549019635,3.0000000000,5,50.8680948333,-0.0983515000,72.7000000000,6.8125000000,0.9375000000,9.5625000000,image385.jpg,25747.1676990000
0.4235294163,2.0000000000,5,50.8680951667,-0.0983518333,72.7000000000,4.3750000000,1.9375000000,9.0625000000,image386.jpg,25815.2855630000
0.4549019635,2.0000000000,5,50.8680955000,-0.0983535000,72.7000000000,4.5000000000,2.2500000000,9.5625000000,image388.jpg,25946.7120740000
0.4235294163,5.0000000000,5,50.8680958333,-0.0983543333,72.7000000000,5.1875000000,2.1250000000,10.1250000000,image390.jpg,26084.1172300000
0.4313725531,3.0000000000,5,50.8680961667,-0.0983550000,72.7000000000,5.0625000000,2.0000000000,10.0000000000,image391.jpg,26149.8535840000
0.4470588267,6.0000000000,5,50.8680966667,-0.0983561667,72.7000000000,5.3125000000,2.0000000000,10.1875000000,image393.jpg,26283.2639480000
0.4470588267,8.0000000000,5,50.8680966667,-0.0983568333,72.7000000000,5.1875000000,4.0625000000,9.9375000000,image394.jpg,26347.0772820000
0.4470588267,11.0000000000,5,50.8680970000,-0.0983575000,72.7000000000,7.3750000000,2.8750000000,9.8125000000,image396.jpg,26483.9887920000
0.4470588267,15.0000000000,5,50.8680975000,-0.0983588333,72.6000000000,5.8125000000,3.3125000000,10.7500000000,image397.jpg,26547.0388960000
0.4627451003,13.0000000000,5,50.8680978333,-0.0983593333,72.6000000000,6.4375000000,2.8125000000,11.3750000000,image399.jpg,26683.5032710000
0.4627451003,12.0000000000,5,50.8680980000,-0.0983601667,72.7000000000,7.6875000000,2.3125000000,11.6250000000,image400.jpg,26747.4496770000
0.4156862795,11.0000000000,5,50.8680983333,-0.0983608333,72.6000000000,6.0625000000,1.1875000000,12.0625000000,image402.jpg,26883.9790000000
0.4470588267,11.0000000000,5,50.8680988333,-0.0983616667,72.6000000000,5.7500000000,1.6250000000,13.5000000000,image403.jpg,26948.0996250000
0.4549019635,9.0000000000,5,50.8680990000,-0.0983621667,72.6000000000,7.1875000000,3.0625000000,13.9375000000,image405.jpg,27081.7223340000
0.4470588267,9.0000000000,5,50.8680988333,-0.0983626667,72.7000000000,6.5625000000,2.5000000000,14.0000000000,image406.jpg,27151.4525940000
0.4627451003,11.0000000000,5,50.8680991667,-0.0983631667,72.7000000000,9.5625000000,4.0000000000,16.0000000000,image408.jpg,27282.7511880000
0.4156862795,8.0000000000,5,50.8680993333,-0.0983641667,72.7000000000,10.5000000000,4.4375000000,15.0625000000,image409.jpg,27351.2344690000
0.4549019635,9.0000000000,5,50.8680995000,-0.0983646667,72.7000000000,6.6250000000,3.8125000000,14.8750000000,image411.jpg,27482.8387400000
0.4470588267,9.0000000000,5,50.8681000000,-0.0983655000,72.7000000000,5.7500000000,4.2500000000,15.5625000000,image412.jpg,27551.5042080000
0.4392156899,9.0000000000,5,50.8681001667,-0.0983660000,72.7000000000,5.0625000000,1.6875000000,15.7500000000,image414.jpg,27683.2166560000
0.4392156899,10.0000000000,5,50.8681005000,-0.0983670000,72.7000000000,4.8125000000,4.4375000000,16.6875000000,image415.jpg,27751.9467080000
0.4313725531,9.0000000000,5,50.8681010000,-0.0983676667,72.7000000000,1.8750000000,3.2500000000,18.6875000000,image418.jpg,27951.9783750000
0.3764705956,9.0000000000,5,50.8681015000,-0.0983681667,72.7000000000,5.8125000000,2.3750000000,19.6250000000,image420.jpg,28084.3562920000
0.4313725531,9.0000000000,5,50.8681018333,-0.0983686667,72.7000000000,8.1250000000,1.5000000000,18.6250000000,image421.jpg,28149.9002500000
0.4313725531,10.0000000000,5,50.8681018333,-0.0983693333,72.7000000000,7.3750000000,3.1250000000,18.5625000000,image423.jpg,28284.1014480000
0.4392156899,10.0000000000,5,50.8681023333,-0.0983700000,72.7000000000,6.2500000000,3.5625000000,18.1250000000,image424.jpg,28351.2284270000
0.4392156899,10.0000000000,5,50.8681026667,-0.0983703333,72.7000000000,5.6250000000,4.0625000000,18.4375000000,image425.jpg,28419.5183750000
0.3764705956,11.0000000000,5,50.8681030000,-0.0983708333,72.7000000000,3.6875000000,5.3125000000,19.1875000000,image427.jpg,28550.8596250000
0.4313725531,12.0000000000,5,50.8681035000,-0.0983716667,72.7000000000,4.6250000000,5.6250000000,20.1875000000,image428.jpg,28619.1630620000
0.4313725531,11.0000000000,5,50.8681036667,-0.0983723333,72.7000000000,9.2500000000,4.9375000000,21.7500000000,image430.jpg,28751.0809790000
0.3764705956,11.0000000000,5,50.8681038333,-0.0983728333,72.7000000000,9.7500000000,3.6250000000,21.8125000000,image431.jpg,28818.5271770000
0.4392156899,9.0000000000,5,50.8681043333,-0.0983735000,72.7000000000,7.1250000000,1.8750000000,22.7500000000,image433.jpg,28950.8631660000
0.4392156899,6.0000000000,5,50.8681048333,-0.0983740000,72.7000000000,5.6250000000,0.2500000000,22.9375000000,image434.jpg,29018.8388950000
0.4235294163,2.0000000000,5,50.8681051667,-0.0983745000,72.7000000000,4.1875000000,1.5625000000,23.7500000000,image436.jpg,29151.7607700000
0.4313725531,2.0000000000,5,50.8681053333,-0.0983746667,72.7000000000,3.5000000000,2.4375000000,24.1250000000,image437.jpg,29218.2830620000
0.4313725531,0.0000000000,5,50.8681056667,-0.0983750000,72.7000000000,4.7500000000,4.5000000000,24.3125000000,image439.jpg,29351.7045200000
0.4235294163,1.0000000000,5,50.8681056667,-0.0983758333,72.7000000000,6.1250000000,5.2500000000,24.0625000000,image440.jpg,29418.6994680000
0.4392156899,1.0000000000,5,50.8681060000,-0.0983758333,72.7000000000,7.9375000000,5.3125000000,24.0000000000,image442.jpg,29552.2574370000
0.4313725531,0.0000000000,5,50.8681066667,-0.0983766667,72.7000000000,7.6875000000,4.3125000000,23.1875000000,image443.jpg,29619.5165510000
0.3450980484,0.0000000000,5,50.8681068333,-0.0983773333,72.7000000000,5.9375000000,5.0625000000,22.4375000000,image445.jpg,29751.1400930000
0.4392156899,0.0000000000,5,50.8681073333,-0.0983780000,72.7000000000,4.6875000000,3.8750000000,22.8750000000,image446.jpg,29818.3514990000
0.4392156899,2.0000000000,5,50.8681078333,-0.0983786667,72.7000000000,3.3750000000,0.1250000000,22.8750000000,image448.jpg,29949.6625930000
0.4000000060,3.0000000000,5,50.8681081667,-0.0983791667,72.7000000000,5.7500000000,-0.8125000000,22.9375000000,image449.jpg,30018.5689470000
0.4470588267,4.0000000000,5,50.8681083333,-0.0983800000,72.7000000000,6.8125000000,-0.8125000000,23.0000000000,image451.jpg,30150.9857700000
0.4392156899,4.0000000000,5,50.8681085000,-0.0983800000,72.7000000000,5.5625000000,1.9375000000,22.9375000000,image452.jpg,30220.1125410000
0.4392156899,5.0000000000,5,50.8681086667,-0.0983801667,72.7000000000,6.0625000000,4.0000000000,23.0000000000,image454.jpg,30351.3784780000
0.4392156899,5.0000000000,5,50.8681088333,-0.0983806667,72.7000000000,6.0625000000,4.5625000000,23.1875000000,image455.jpg,30419.5888430000
0.4392156899,7.0000000000,5,50.8681091667,-0.0983811667,72.7000000000,4.9375000000,2.8125000000,22.9375000000,image457.jpg,30551.9673320000
0.4392156899,7.0000000000,2,50.8681096667,-0.0983821667,72.7000000000,7.0000000000,3.6250000000,23.1875000000,image458.jpg,30619.2600930000
0.4392156899,6.0000000000,2,50.8681096667,-0.0983820000,72.7000000000,11.3750000000,4.1250000000,23.1875000000,image460.jpg,30752.1770720000
0.4000000060,6.0000000000,2,50.8681100000,-0.0983828333,72.7000000000,11.6250000000,3.5625000000,23.6250000000,image461.jpg,30819.7738950000
0.4000000060,5.0000000000,2,50.8681103333,-0.0983833333,72.6000000000,8.5000000000,2.8125000000,23.8125000000,image463.jpg,30952.2957700000
0.4392156899,4.0000000000,5,50.8681108333,-0.0983838333,72.6000000000,6.9375000000,1.6875000000,23.8125000000,image464.jpg,31018.5016030000
0.4392156899,3.0000000000,2,50.8681111667,-0.0983843333,72.6000000000,5.7500000000,1.1250000000,24.1875000000,image466.jpg,31157.5313420000
0.4156862795,5.0000000000,2,50.8681116667,-0.0983848333,72.6000000000,6.9375000000,2.9375000000,24.3750000000,image467.jpg,31218.9623320000
0.4392156899,1.0000000000,2,50.8681115000,-0.0983851667,72.6000000000,8.7500000000,4.5000000000,25.6250000000,image469.jpg,31355.2407170000
0.4078431427,1.0000000000,2,50.8681118333,-0.0983860000,72.6000000000,9.0625000000,4.8125000000,25.8125000000,image470.jpg,31423.6659260000
0.4078431427,0.0000000000,2,50.8681121667,-0.0983861667,72.6000000000,8.0000000000,7.0625000000,25.4375000000,image472.jpg,31555.7370190000
0.4470588267,0.0000000000,2,50.8681125000,-0.0983863333,72.6000000000,7.2500000000,5.6250000000,25.0625000000,image473.jpg,31619.5665510000
0.4470588267,0.0000000000,2,50.8681131667,-0.0983870000,72.7000000000,4.1250000000,3.7500000000,24.8750000000,image475.jpg,31751.2137380000
0.4627451003,0.0000000000,2,50.8681133333,-0.0983875000,72.6000000000,4.1875000000,3.0625000000,25.1875000000,image476.jpg,31822.9712380000
0.4470588267,2.0000000000,2,50.8681136667,-0.0983883333,72.5000000000,7.0625000000,-0.6875000000,24.0625000000,image478.jpg,31953.1891550000
0.4156862795,0.0000000000,5,50.8681143333,-0.0983891667,72.5000000000,4.5625000000,-0.1250000000,24.2500000000,image479.jpg,32020.5194670000
0.4470588267,0.0000000000,5,50.8681148333,-0.0983893333,72.6000000000,3.3125000000,-1.7500000000,24.6875000000,image481.jpg,32154.8136340000
0.4470588267,0.0000000000,5,50.8681151667,-0.0983903333,72.6000000000,4.0625000000,0.8125000000,24.2500000000,image482.jpg,32224.5285820000
0.4627451003,0.0000000000,5,50.8681155000,-0.0983908333,72.6000000000,2.0625000000,0.5625000000,24.0625000000,image484.jpg,32355.3979570000
0.4627451003,2.0000000000,5,50.8681161667,-0.0983916667,72.6000000000,1.6875000000,0.1875000000,24.6250000000,image485.jpg,32418.9404040000
0.4549019635,0.0000000000,5,50.8681166667,-0.0983925000,72.6000000000,4.6875000000,0.4375000000,24.1875000000,image487.jpg,32554.5282690000
0.4470588267,0.0000000000,5,50.8681170000,-0.0983935000,72.6000000000,4.0000000000,1.8125000000,23.2500000000,image488.jpg,32623.8382690000
0.4000000060,0.0000000000,5,50.8681175000,-0.0983938333,72.6000000000,6.0000000000,2.2500000000,23.8125000000,image490.jpg,32754.8126960000
0.4313725531,0.0000000000,5,50.8681178333,-0.0983948333,72.5000000000,6.5000000000,2.5000000000,22.7500000000,image491.jpg,32823.7085290000
0.4392156899,0.0000000000,5,50.8681183333,-0.0983951667,72.5000000000,1.5625000000,4.6875000000,23.3125000000,image493.jpg,32954.4425920000
0.4470588267,0.0000000000,5,50.8681186667,-0.0983955000,72.5000000000,0.5625000000,3.5000000000,23.1875000000,image494.jpg,33022.8455080000
0.4392156899,1.0000000000,5,50.8681190000,-0.0983965000,72.5000000000,5.9375000000,1.9375000000,23.0000000000,image496.jpg,33154.8370190000
0.3529411852,0.0000000000,5,50.8681195000,-0.0983975000,72.5000000000,6.6875000000,1.8125000000,21.8750000000,image497.jpg,33218.8512900000
0.4392156899,0.0000000000,5,50.8681198333,-0.0983978333,72.5000000000,4.6875000000,2.3750000000,23.0000000000,image499.jpg,33354.7980080000
0.4313725531,0.0000000000,5,50.8681200000,-0.0983983333,72.5000000000,6.2500000000,2.5000000000,22.4375000000,image500.jpg,33423.4980600000
0.4470588267,0.0000000000,5,50.8681201667,-0.0983991667,72.5000000000,2.8125000000,2.0625000000,21.6875000000,image502.jpg,33554.4522270000
0.4392156899,1.0000000000,5,50.8681208333,-0.0983995000,72.5000000000,1.1250000000,2.8125000000,21.7500000000,image503.jpg,33623.6176440000
0.4392156899,0.0000000000,5,50.8681211667,-0.0984000000,72.5000000000,4.8125000000,4.0625000000,22.2500000000,image505.jpg,33755.2778000000
0.4392156899,0.0000000000,5,50.8681206667,-0.0984003333,72.5000000000,7.0000000000,5.2500000000,22.3750000000,image506.jpg,33823.7136330000
0.3921568692,0.0000000000,5,50.8681213333,-0.0984010000,72.5000000000,2.6875000000,3.7500000000,21.6250000000,image508.jpg,33954.3842580000
0.4392156899,0.0000000000,5,50.8681220000,-0.0984015000,72.5000000000,4.0000000000,3.6875000000,22.0000000000,image509.jpg,34025.6080600000
0.4549019635,0.0000000000,5,50.8681221667,-0.0984026667,72.5000000000,7.8125000000,5.5625000000,21.4375000000,image511.jpg,34154.3493100000
0.4470588267,1.0000000000,5,50.8681225000,-0.0984030000,72.5000000000,8.0625000000,7.1875000000,20.9375000000,image512.jpg,34224.2207680000
0.4549019635,1.0000000000,5,50.8681228333,-0.0984036667,72.5000000000,9.1250000000,7.1250000000,21.1250000000,image514.jpg,34354.7119140000
0.4000000060,1.0000000000,5,50.8681230000,-0.0984045000,72.5000000000,8.1250000000,5.6250000000,21.1250000000,image515.jpg,34422.8184770000
0.4549019635,1.0000000000,5,50.8681236667,-0.0984051667,72.5000000000,2.6250000000,5.9375000000,20.3125000000,image517.jpg,34554.1573830000
0.4549019635,0.0000000000,5,50.8681243333,-0.0984058333,72.4000000000,4.5625000000,5.9375000000,21.1250000000,image518.jpg,34622.7269660000
0.4549019635,0.0000000000,5,50.8681245000,-0.0984068333,72.4000000000,10.7500000000,4.5000000000,21.0000000000,image520.jpg,34754.4543100000
0.4549019635,0.0000000000,5,50.8681246667,-0.0984076667,72.4000000000,11.6250000000,4.1875000000,21.3125000000,image521.jpg,34823.1281120000
0.4627451003,0.0000000000,5,50.8681250000,-0.0984083333,72.4000000000,6.6250000000,1.9375000000,21.5000000000,image523.jpg,34959.9507160000
0.4627451003,0.0000000000,5,50.8681255000,-0.0984088333,72.4000000000,4.9375000000,3.4375000000,21.6875000000,image524.jpg,35022.9092580000
0.4000000060,1.0000000000,5,50.8681260000,-0.0984091667,72.4000000000,3.3125000000,6.2500000000,21.4375000000,image526.jpg,35158.2671740000
0.4862745106,0.0000000000,5,50.8681263333,-0.0984100000,72.3000000000,2.5000000000,5.1250000000,21.8125000000,image527.jpg,35223.2056640000
0.4705882370,0.0000000000,5,50.8681266667,-0.0984108333,72.4000000000,8.3125000000,4.9375000000,22.1250000000,image529.jpg,35358.5346220000
0.4627451003,1.0000000000,5,50.8681270000,-0.0984120000,72.4000000000,8.0625000000,5.2500000000,22.0000000000,image530.jpg,35422.6680600000
0.4627451003,0.0000000000,5,50.8681275000,-0.0984123333,72.3000000000,3.5000000000,5.9375000000,20.3125000000,image532.jpg,35558.6888410000
0.4313725531,3.0000000000,5,50.8681280000,-0.0984128333,72.3000000000,4.5625000000,4.6250000000,20.3125000000,image533.jpg,35627.1664970000
0.4549019635,4.0000000000,5,50.8681281667,-0.0984138333,72.4000000000,4.9375000000,4.5000000000,19.9375000000,image535.jpg,35759.2901430000
0.4705882370,5.0000000000,5,50.8681283333,-0.0984141667,72.4000000000,4.1250000000,5.0625000000,19.9375000000,image536.jpg,35827.0000390000
0.4549019635,8.0000000000,5,50.8681285000,-0.0984148333,72.4000000000,7.6875000000,7.9375000000,20.6250000000,image538.jpg,35959.1661320000
0.4549019635,9.0000000000,5,50.8681286667,-0.0984153333,72.4000000000,7.2500000000,8.9375000000,19.8125000000,image539.jpg,36022.7776950000
0.4549019635,11.0000000000,5,50.8681291667,-0.0984161667,72.3000000000,8.3750000000,6.6250000000,20.4375000000,image541.jpg,36158.4498820000
0.4549019635,12.0000000000,5,50.8681296667,-0.0984173333,72.3000000000,7.8125000000,7.1875000000,20.3750000000,image542.jpg,36221.7988410000
0.4235294163,18.0000000000,5,50.8681298333,-0.0984180000,72.3000000000,3.9375000000,8.6250000000,20.8125000000,image544.jpg,36359.8963930000
0.4549019635,17.0000000000,5,50.8681301667,-0.0984183333,72.3000000000,4.0000000000,8.7500000000,22.0625000000,image545.jpg,36425.1955590000
0.4470588267,17.0000000000,2,50.8681305000,-0.0984190000,72.3000000000,3.8750000000,3.3125000000,23.4375000000,image547.jpg,36557.7917050000
0.4549019635,16.0000000000,2,50.8681310000,-0.0984196667,72.3000000000,2.8750000000,3.1250000000,24.0000000000,image548.jpg,36621.4540490000
0.4549019635,14.0000000000,2,50.8681313333,-0.0984201667,72.3000000000,6.5000000000,4.8125000000,26.6250000000,image550.jpg,36757.7387360000
0.4156862795,10.0000000000,2,50.8681316667,-0.0984210000,72.3000000000,5.1250000000,3.3125000000,25.5625000000,image551.jpg,36825.5754550000
0.4627451003,5.0000000000,2,50.8681321667,-0.0984208333,72.4000000000,-1.0625000000,2.1250000000,26.6875000000,image553.jpg,36959.5893610000
0.4627451003,1.0000000000,5,50.8681325000,-0.0984211667,72.4000000000,-0.5000000000,2.6875000000,27.3125000000,image554.jpg,37028.9341010000
0.4156862795,0.0000000000,5,50.8681330000,-0.0984221667,72.3000000000,3.0000000000,4.3750000000,27.6875000000,image556.jpg,37159.4431630000
0.4549019635,0.0000000000,5,50.8681331667,-0.0984228333,72.3000000000,3.2500000000,3.8750000000,26.7500000000,image557.jpg,37226.8071210000
0.4470588267,0.0000000000,5,50.8681336667,-0.0984233333,72.3000000000,0.6250000000,2.6875000000,27.2500000000,image559.jpg,37359.7467050000
0.4156862795,0.0000000000,5,50.8681340000,-0.0984238333,72.3000000000,3.4375000000,3.1250000000,26.9375000000,image560.jpg,37427.7608190000
0.4313725531,2.0000000000,5,50.8681343333,-0.0984245000,72.3000000000,1.7500000000,6.1250000000,24.1875000000,image562.jpg,37558.5654550000
0.4156862795,0.0000000000,5,50.8681348333,-0.0984248333,72.3000000000,-0.6875000000,5.4375000000,25.8750000000,image563.jpg,37626.6929550000
0.4470588267,0.0000000000,5,50.8681353333,-0.0984258333,72.2000000000,1.6875000000,3.0000000000,26.4375000000,image565.jpg,37759.7831630000
0.4470588267,2.0000000000,5,50.8681356667,-0.0984266667,72.2000000000,3.6250000000,3.0625000000,26.1250000000,image566.jpg,37827.2698290000
0.4470588267,1.0000000000,5,50.8681361667,-0.0984271667,72.3000000000,3.6250000000,2.8125000000,24.8125000000,image568.jpg,37959.0040480000
0.4470588267,2.0000000000,5,50.8681366667,-0.0984281667,72.2000000000,1.9375000000,3.3750000000,25.9375000000,image569.jpg,38027.0076420000
0.4627451003,0.0000000000,5,50.8681371667,-0.0984290000,72.2000000000,5.3125000000,1.0000000000,25.1875000000,image571.jpg,38164.0089440000
0.4470588267,-1.0000000000,5,50.8681375000,-0.0984303333,72.2000000000,6.0000000000,2.9375000000,24.3125000000,image572.jpg,38227.4827980000
0.4156862795,0.0000000000,5,50.8681380000,-0.0984308333,72.2000000000,8.0625000000,3.0625000000,24.6250000000,image574.jpg,38359.2619130000
0.4470588267,0.0000000000,5,50.8681385000,-0.0984318333,72.1000000000,8.5000000000,2.8125000000,24.6250000000,image575.jpg,38428.4387360000
0.4470588267,-1.0000000000,5,50.8681390000,-0.0984325000,72.1000000000,4.1250000000,4.0000000000,24.7500000000,image577.jpg,38560.6116520000
0.4156862795,-1.0000000000,5,50.8681396667,-0.0984330000,72.1000000000,3.5625000000,4.6875000000,24.9375000000,image578.jpg,38626.2033710000
0.4549019635,2.0000000000,5,50.8681398333,-0.0984336667,72.1000000000,5.0000000000,3.3125000000,24.8125000000,image580.jpg,38762.1734750000
0.3607843220,0.0000000000,5,50.8681403333,-0.0984345000,72.1000000000,5.1875000000,2.6250000000,25.0000000000,image581.jpg,38830.5566520000
0.4470588267,-1.0000000000,5,50.8681406667,-0.0984350000,72.1000000000,6.6875000000,2.3125000000,25.1875000000,image583.jpg,38964.6049850000
0.4470588267,0.0000000000,5,50.8681408333,-0.0984360000,72.1000000000,6.3125000000,3.0625000000,24.5000000000,image584.jpg,39030.1172770000
0.4470588267,-1.0000000000,5,50.8681415000,-0.0984363333,72.1000000000,3.3750000000,1.3750000000,23.5000000000,image586.jpg,39162.5262350000
0.4627451003,-2.0000000000,5,50.8681418333,-0.0984370000,72.1000000000,2.8750000000,0.8750000000,23.3750000000,image587.jpg,39226.2444640000
0.4392156899,-3.0000000000,5,50.8681421667,-0.0984378333,72.0000000000,5.6875000000,3.4375000000,23.2500000000,image589.jpg,39365.2675890000
0.4392156899,-3.0000000000,5,50.8681425000,-0.0984385000,72.0000000000,5.4375000000,4.0000000000,22.5625000000,image590.jpg,39433.2964960000
0.3921568692,-2.0000000000,5,50.8681426667,-0.0984388333,72.0000000000,0.3750000000,5.6250000000,22.2500000000,image592.jpg,39566.0118600000
0.4470588267,-2.0000000000,5,50.8681433333,-0.0984393333,72.0000000000,-0.0625000000,3.5625000000,22.5625000000,image593.jpg,39629.4269120000
0.4392156899,0.0000000000,5,50.8681440000,-0.0984406667,72.0000000000,3.5625000000,4.5625000000,21.0000000000,image595.jpg,39761.4843600000
0.4000000060,0.0000000000,5,50.8681443333,-0.0984416667,71.9000000000,1.6875000000,4.6250000000,20.6875000000,image596.jpg,39827.1988390000
0.4470588267,1.0000000000,5,50.8681448333,-0.0984423333,71.9000000000,5.0000000000,3.3750000000,21.5625000000,image598.jpg,39961.8726410000
0.3921568692,0.0000000000,5,50.8681453333,-0.0984431667,71.9000000000,6.0625000000,2.2500000000,21.1250000000,image599.jpg,40030.0249330000
0.3607843220,22.0000000000,2,50.8681470000,-0.0984461667,72.0000000000,6.0000000000,5.0000000000,21.0625000000,image600.jpg,40762.9983180000
0.4470588267,20.0000000000,2,50.8681475000,-0.0984480000,71.9000000000,6.3750000000,4.8750000000,21.8750000000,image601.jpg,40831.7964430000
0.4627451003,1.0000000000,2,50.8681478333,-0.0984481667,71.9000000000,8.5625000000,5.5625000000,23.8750000000,image603.jpg,40966.8870160000
0.4470588267,1.0000000000,5,50.8681481667,-0.0984488333,71.9000000000,9.5000000000,5.6875000000,24.0625000000,image604.jpg,41034.1525890000
0.4470588267,0.0000000000,5,50.8681486667,-0.0984496667,71.8000000000,9.0625000000,6.6875000000,23.1250000000,image606.jpg,41162.3516510000
0.3607843220,0.0000000000,5,50.8681490000,-0.0984501667,71.8000000000,6.2500000000,5.1875000000,23.1875000000,image607.jpg,41230.5574840000
0.4392156899,11.0000000000,5,50.8681491667,-0.0984503333,71.9000000000,2.3125000000,1.9375000000,23.8750000000,image609.jpg,41361.5064430000
0.4392156899,13.0000000000,5,50.8681496667,-0.0984506667,71.8000000000,4.5625000000,1.8125000000,24.3750000000,image610.jpg,41430.1432140000
0.4549019635,14.0000000000,5,50.8681500000,-0.0984518333,71.8000000000,6.6250000000,1.1875000000,23.5000000000,image612.jpg,41561.5593070000
0.4392156899,0.0000000000,5,50.8681506667,-0.0984526667,71.9000000000,6.1250000000,1.0625000000,24.8750000000,image613.jpg,41631.0325880000
0.4392156899,1.0000000000,5,50.8681511667,-0.0984530000,71.8000000000,5.1875000000,-1.1875000000,25.8125000000,image615.jpg,41761.6844630000
0.4392156899,0.0000000000,5,50.8681516667,-0.0984536667,71.8000000000,3.8750000000,0.0000000000,26.1250000000,image616.jpg,41830.5198800000
0.4000000060,1.0000000000,2,50.8681518333,-0.0984538333,71.8000000000,1.6250000000,3.7500000000,25.4375000000,image618.jpg,41961.9695150000
0.4392156899,1.0000000000,2,50.8681521667,-0.0984545000,71.8000000000,-0.8125000000,5.0000000000,25.5000000000,image619.jpg,42031.9051920000
0.4549019635,0.0000000000,2,50.8681525000,-0.0984548333,71.8000000000,-0.1875000000,6.7500000000,25.8750000000,image621.jpg,42162.8019110000
0.4078431427,0.0000000000,2,50.8681528333,-0.0984550000,71.8000000000,1.0000000000,6.4375000000,26.5000000000,image622.jpg,42232.0854010000
0.4392156899,0.0000000000,2,50.8681530000,-0.0984551667,71.8000000000,1.0000000000,7.5625000000,25.4375000000,image624.jpg,42362.5131090000
0.4156862795,0.0000000000,2,50.8681535000,-0.0984560000,71.8000000000,-1.9375000000,9.5000000000,25.3750000000,image625.jpg,42432.1647240000
0.4156862795,-4.0000000000,2,50.8681536667,-0.0984556667,71.8000000000,-5.0000000000,9.4375000000,25.9375000000,image627.jpg,42561.9654010000
0.4627451003,-4.0000000000,2,50.8681541667,-0.0984565000,71.8000000000,-3.1250000000,7.7500000000,26.4375000000,image628.jpg,42631.2549320000
0.4156862795,-12.0000000000,2,50.8681545000,-0.0984575000,71.7000000000,1.0625000000,3.3750000000,23.9375000000,image630.jpg,42792.0270670000
0.4470588267,-13.0000000000,2,50.8681548333,-0.0984580000,71.7000000000,1.7500000000,4.4375000000,24.6250000000,image631.jpg,42831.2032650000
0.4470588267,-14.0000000000,2,50.8681550000,-0.0984586667,71.7000000000,4.4375000000,4.8125000000,22.9375000000,image633.jpg,42964.0379000000
0.4156862795,-17.0000000000,5,50.8681551667,-0.0984590000,71.7000000000,0.4375000000,2.3750000000,22.6875000000,image634.jpg,43031.6560250000
0.4156862795,-18.0000000000,2,50.8681555000,-0.0984591667,71.7000000000,1.0000000000,0.0000000000,20.7500000000,image636.jpg,43166.7862340000
0.4627451003,-20.0000000000,2,50.8681555000,-0.0984596667,71.7000000000,0.3125000000,0.5000000000,18.3125000000,image637.jpg,43230.8562340000
