gps quality,lat,lon,altitude,roll,pitch,yaw,image name,timestamp
4,50.8634273333,-0.0939311667,56.7000000000,5.1875000000,-2.4375000000,0.0000000000,image0.jpg,2.1001920000
4,50.8634273333,-0.0939311667,56.7000000000,5.1875000000,-2.4375000000,0.0000000000,image1.jpg,202.0958550000
4,50.8634273333,-0.0939311667,56.6000000000,5.1875000000,-2.4375000000,0.0000000000,image2.jpg,402.9050420000
4,50.8634273333,-0.0939311667,56.6000000000,5.1875000000,-2.4375000000,0.0000000000,image3.jpg,602.8877360000
4,50.8634273333,-0.0939313333,56.6000000000,5.1875000000,-2.4375000000,0.0000000000,image4.jpg,803.3851390000
4,50.8634273333,-0.0939311667,56.7000000000,5.1875000000,-2.4375000000,0.0000000000,image5.jpg,1002.3454470000
4,50.8634273333,-0.0939311667,56.7000000000,5.1875000000,-2.4375000000,0.0000000000,image6.jpg,1202.5082000000
4,50.8634273333,-0.0939311667,56.7000000000,5.1875000000,-2.4375000000,0.0000000000,image7.jpg,1403.2737400000
4,50.8634273333,-0.0939311667,56.6000000000,5.1875000000,-2.4375000000,0.0000000000,image8.jpg,1603.5436850000
4,50.8634273333,-0.0939311667,56.6000000000,5.1875000000,-2.4375000000,0.0000000000,image9.jpg,1803.8666020000
4,50.8634273333,-0.0939311667,56.6000000000,5.1875000000,-2.4375000000,0.0000000000,image10.jpg,2002.9593110000
4,50.8634273333,-0.0939311667,56.6000000000,5.1875000000,-2.4375000000,0.0000000000,image11.jpg,2202.8731480000
4,50.8634273333,-0.0939313333,56.7000000000,5.1875000000,-2.4375000000,0.0000000000,image12.jpg,2403.1664280000
4,50.8634273333,-0.0939313333,56.7000000000,5.1875000000,-2.4375000000,0.0000000000,image13.jpg,2604.1196310000
4,50.8634273333,-0.0939313333,56.7000000000,5.1875000000,-2.4375000000,0.0000000000,image14.jpg,2804.2448830000
4,50.8634273333,-0.0939313333,56.7000000000,5.3750000000,-2.0625000000,359.9375000000,image15.jpg,3004.2467970000
4,50.8634276667,-0.0939318333,56.7000000000,5.2500000000,-1.3125000000,359.9375000000,image16.jpg,3203.2662730000
4,50.8634281667,-0.0939323333,56.7000000000,5.5625000000,-1.6250000000,359.8125000000,image17.jpg,3403.4777790000
4,50.8634286667,-0.0939331667,56.7000000000,5.7500000000,-1.5000000000,359.6250000000,image18.jpg,3604.1934200000
4,50.8634291667,-0.0939336667,56.7000000000,5.9375000000,-1.6875000000,0.3125000000,image19.jpg,3803.6004140000
4,50.8634298333,-0.0939345000,56.7000000000,6.3125000000,-2.1250000000,1.3125000000,image20.jpg,4003.6878520000
4,50.8634303333,-0.0939351667,56.7000000000,6.0000000000,-1.7500000000,1.6250000000,image21.jpg,4203.6472120000
4,50.8634310000,-0.0939360000,56.7000000000,6.5625000000,-1.5000000000,1.4375000000,image22.jpg,4403.7804850000
4,50.8634316667,-0.0939366667,56.7000000000,7.5000000000,-1.3125000000,2.0000000000,image23.jpg,4604.0954850000
4,50.8634323333,-0.0939375000,56.7000000000,7.8125000000,-1.6250000000,2.8125000000,image24.jpg,4803.9724460000
4,50.8634331667,-0.0939381667,56.7000000000,8.0625000000,-1.2500000000,4.8125000000,image25.jpg,5004.0070170000
4,50.8634338333,-0.0939391667,56.7000000000,7.0625000000,-1.5625000000,5.3750000000,image26.jpg,5204.0680480000
4,50.8634348333,-0.0939400000,56.7000000000,9.2500000000,-2.1250000000,5.3750000000,image27.jpg,5404.2154370000
4,50.8634356667,-0.0939411667,56.7000000000,9.3750000000,-1.8125000000,5.8125000000,image28.jpg,5604.6275760000
4,50.8634366667,-0.0939420000,56.7000000000,8.9375000000,-0.7500000000,6.0000000000,image29.jpg,5805.5826550000
4,50.8634376667,-0.0939431667,56.7000000000,10.3125000000,-0.8750000000,5.8125000000,image30.jpg,6005.5784220000
4,50.8634386667,-0.0939440000,56.7000000000,9.8750000000,-1.0625000000,6.2500000000,image31.jpg,6205.5518980000
4,50.8634396667,-0.0939450000,56.7000000000,10.0000000000,-0.7500000000,6.5625000000,image32.jpg,6404.6519510000
4,50.8634406667,-0.0939458333,56.7000000000,10.0000000000,-0.2500000000,6.8125000000,image33.jpg,6604.6524060000
4,50.8634415000,-0.0939466667,56.7000000000,9.9375000000,-1.0000000000,7.2500000000,image34.jpg,6805.2979930000
4,50.8634425000,-0.0939478333,56.7000000000,10.3750000000,-0.0625000000,7.0000000000,image35.jpg,7005.9249330000
4,50.8634435000,-0.0939486667,56.7000000000,9.6250000000,-1.1250000000,7.6250000000,image36.jpg,7205.9300250000
4,50.8634443333,-0.0939496667,56.7000000000,11.1250000000,-0.8750000000,7.9375000000,image37.jpg,7404.9929410000
4,50.8634453333,-0.0939506667,56.7000000000,11.5000000000,-1.3750000000,9.8125000000,image38.jpg,7604.9940740000
4,50.8634463333,-0.0939513333,56.7000000000,10.3750000000,-0.2500000000,11.1250000000,image39.jpg,7805.2987610000
4,50.8634473333,-0.0939523333,56.7000000000,10.6875000000,-0.5000000000,12.8125000000,image40.jpg,8006.2719660000
4,50.8634485000,-0.0939528333,56.7000000000,12.0000000000,0.3125000000,16.5625000000,image41.jpg,8206.3283090000
4,50.8634495000,-0.0939533333,56.7000000000,10.8125000000,0.5000000000,21.8750000000,image42.jpg,8406.2352190000
4,50.8634505000,-0.0939536667,56.7000000000,10.0000000000,1.0000000000,26.2500000000,image43.jpg,8605.4079320000
4,50.8634515000,-0.0939540000,56.7000000000,9.8750000000,-0.0625000000,27.6875000000,image44.jpg,8805.5422990000
4,50.8634526667,-0.0939541667,56.7000000000,7.2500000000,0.3750000000,27.8750000000,image45.jpg,9005.6035910000
4,50.8634538333,-0.0939545000,56.7000000000,8.6250000000,-0.0625000000,30.0000000000,image46.jpg,9205.6226930000
4,50.8634548333,-0.0939546667,56.7000000000,9.2500000000,0.3750000000,32.3125000000,image47.jpg,9405.8448250000
4,50.8634558333,-0.0939548333,56.7000000000,9.0000000000,-0.2500000000,31.8125000000,image48.jpg,9605.9030950000
4,50.8634568333,-0.0939548333,56.7000000000,6.4375000000,1.1250000000,32.5000000000,image49.jpg,9805.9925650000
4,50.8634578333,-0.0939550000,56.7000000000,5.8125000000,0.6250000000,33.5625000000,image50.jpg,10006.1448500000
4,50.8634588333,-0.0939551667,56.7000000000,7.1875000000,0.2500000000,33.9375000000,image51.jpg,10206.1097840000
4,50.8634600000,-0.0939551667,56.7000000000,4.7500000000,-0.5625000000,33.3125000000,image52.jpg,10406.1456060000
4,50.8634608333,-0.0939553333,56.7000000000,3.8750000000,-0.6875000000,30.6250000000,image53.jpg,10606.2559100000
4,50.8634620000,-0.0939556667,56.7000000000,4.5625000000,-0.1250000000,27.1250000000,image54.jpg,10806.2952740000
4,50.8634628333,-0.0939560000,56.7000000000,4.0000000000,-0.2500000000,22.1250000000,image55.jpg,11006.8955470000
4,50.8634640000,-0.0939565000,56.7000000000,4.1250000000,-0.9375000000,22.1250000000,image56.jpg,11207.5551450000
4,50.8634650000,-0.0939570000,56.7000000000,5.5000000000,-0.5000000000,22.5625000000,image57.jpg,11407.4311160000
4,50.8634660000,-0.0939575000,56.8000000000,4.8750000000,-1.8750000000,22.1250000000,image58.jpg,11607.5238160000
4,50.8634671667,-0.0939580000,56.7000000000,5.8125000000,-0.7500000000,20.8125000000,image59.jpg,11806.6203270000
4,50.8634685000,-0.0939586667,56.8000000000,5.0000000000,-0.4375000000,20.0000000000,image60.jpg,12006.7515700000
4,50.8634696667,-0.0939593333,56.7000000000,4.6250000000,-0.4375000000,20.3750000000,image61.jpg,12207.6435210000
4,50.8634710000,-0.0939598333,56.7000000000,5.0625000000,-0.9375000000,21.1250000000,image62.jpg,12407.8381000000
4,50.8634721667,-0.0939603333,56.8000000000,4.5625000000,-1.1875000000,22.9375000000,image63.jpg,12607.9558010000
4,50.8634735000,-0.0939608333,56.8000000000,5.8125000000,-1.2500000000,23.9375000000,image64.jpg,12807.0163210000
4,50.8634748333,-0.0939613333,56.8000000000,5.0000000000,-0.5625000000,23.5625000000,image65.jpg,13007.1042810000
4,50.8634761667,-0.0939620000,56.7000000000,4.5000000000,-0.9375000000,22.5000000000,image66.jpg,13207.7097110000
4,50.8634773333,-0.0939625000,56.7000000000,6.0000000000,-0.5000000000,22.1875000000,image67.jpg,13408.2887330000
4,50.8634788333,-0.0939631667,56.8000000000,4.4375000000,-1.1875000000,22.5000000000,image68.jpg,13608.5846180000
4,50.8634801667,-0.0939635000,56.8000000000,5.0625000000,-1.2500000000,22.8125000000,image69.jpg,13808.1150540000
4,50.8634813333,-0.0939640000,56.7000000000,4.3125000000,-1.4375000000,22.0000000000,image70.jpg,14007.4718900000
4,50.8634826667,-0.0939646667,56.7000000000,5.9375000000,0.0000000000,21.6250000000,image71.jpg,14207.8251210000
4,50.8634840000,-0.0939651667,56.8000000000,4.3125000000,-0.6875000000,21.5625000000,image72.jpg,14407.6193700000
4,50.8634853333,-0.0939658333,56.7000000000,6.3750000000,-0.9375000000,22.1250000000,image73.jpg,14607.7004030000
4,50.8634866667,-0.0939663333,56.7000000000,4.8125000000,-1.3750000000,22.2500000000,image74.jpg,14807.7451320000
4,50.8634878333,-0.0939670000,56.7000000000,7.5000000000,-0.5000000000,20.2500000000,image75.jpg,15007.8271540000
4,50.8634891667,-0.0939676667,56.7000000000,6.7500000000,-0.6250000000,19.5000000000,image76.jpg,15207.9048530000
4,50.8634905000,-0.0939683333,56.7000000000,8.5000000000,-1.7500000000,18.5625000000,image77.jpg,15407.9638530000
4,50.8634915000,-0.0939690000,56.7000000000,6.5625000000,-0.6250000000,18.7500000000,image78.jpg,15608.0819700000
4,50.8634928333,-0.0939696667,56.7000000000,6.5625000000,1.1875000000,19.6250000000,image79.jpg,15808.1093540000
4,50.8634940000,-0.0939701667,56.7000000000,7.6250000000,0.8750000000,19.3125000000,image80.jpg,16008.2221070000
4,50.8634951667,-0.0939706667,56.7000000000,5.1250000000,-0.5625000000,19.4375000000,image81.jpg,16208.2933990000
4,50.8634965000,-0.0939711667,56.8000000000,5.8125000000,-0.0625000000,19.5625000000,image82.jpg,16409.0872220000
4,50.8634978333,-0.0939720000,56.8000000000,4.1875000000,0.1250000000,19.1250000000,image83.jpg,16609.3855550000
4,50.8634990000,-0.0939723333,56.7000000000,5.5625000000,0.5625000000,18.6250000000,image84.jpg,16809.4511180000
4,50.8635001667,-0.0939731667,56.8000000000,6.2500000000,0.8125000000,18.3125000000,image85.jpg,17009.0854660000
4,50.8635015000,-0.0939736667,56.8000000000,6.1250000000,0.3125000000,16.8125000000,image86.jpg,17208.6410080000
4,50.8635025000,-0.0939746667,56.8000000000,6.5000000000,0.3750000000,14.9375000000,image87.jpg,17408.9910620000
4,50.8635036667,-0.0939753333,56.8000000000,6.5625000000,0.8125000000,12.5625000000,image88.jpg,17609.7630610000
4,50.8635048333,-0.0939763333,56.8000000000,7.0000000000,-0.6875000000,9.9375000000,image89.jpg,17809.9230550000
4,50.8635060000,-0.0939773333,56.8000000000,8.0625000000,-1.1250000000,9.5625000000,image90.jpg,18009.9237720000
4,50.8635070000,-0.0939781667,56.8000000000,6.7500000000,0.3125000000,9.8125000000,image91.jpg,18208.9878870000
4,50.8635081667,-0.0939790000,56.8000000000,7.6250000000,0.5000000000,10.7500000000,image92.jpg,18409.0444390000
4,50.8635093333,-0.0939798333,56.8000000000,8.6875000000,1.3125000000,11.6875000000,image93.jpg,18610.1080130000
4,50.8635103333,-0.0939808333,56.8000000000,8.6875000000,1.6250000000,11.5000000000,image94.jpg,18810.1683680000
4,50.8635115000,-0.0939816667,56.8000000000,8.0000000000,0.1875000000,10.5000000000,image95.jpg,19010.2624740000
4,50.8635126667,-0.0939828333,56.8000000000,8.9375000000,0.1875000000,10.3750000000,image96.jpg,19209.3304430000
4,50.8635138333,-0.0939836667,56.8000000000,8.5625000000,0.8750000000,11.3125000000,image97.jpg,19409.4034030000
4,50.8635150000,-0.0939845000,56.8000000000,8.3125000000,0.5000000000,12.0625000000,image98.jpg,19609.9577370000
4,50.8635161667,-0.0939855000,56.8000000000,7.6250000000,0.0000000000,13.1875000000,image99.jpg,19809.4393170000
4,50.8635175000,-0.0939861667,56.8000000000,7.5625000000,-2.0000000000,13.5000000000,image100.jpg,20009.5722270000
4,50.8635186667,-0.0939871667,56.8000000000,8.1250000000,-0.5625000000,13.9375000000,image101.jpg,20209.7088350000
4,50.8635196667,-0.0939878333,56.8000000000,7.6250000000,-1.3125000000,14.6250000000,image102.jpg,20409.7805970000
4,50.8635208333,-0.0939886667,56.8000000000,8.9375000000,-0.9375000000,14.8125000000,image103.jpg,20610.0789310000
4,50.8635220000,-0.0939895000,56.8000000000,8.8750000000,-1.6875000000,14.7500000000,image104.jpg,20809.9202140000
4,50.8635231667,-0.0939903333,56.8000000000,9.6875000000,-1.2500000000,15.6250000000,image105.jpg,21009.9005650000
4,50.8635245000,-0.0939911667,56.8000000000,8.5625000000,-1.0625000000,16.0625000000,image106.jpg,21209.9550870000
4,50.8635256667,-0.0939920000,56.8000000000,7.5000000000,-1.6250000000,13.4375000000,image107.jpg,21410.0626830000
4,50.8635268333,-0.0939928333,56.8000000000,7.0000000000,-1.1875000000,9.3125000000,image108.jpg,21610.3381510000
4,50.8635278333,-0.0939938333,56.8000000000,6.3750000000,-1.1875000000,7.0000000000,image109.jpg,21811.3600050000
4,50.8635288333,-0.0939948333,56.8000000000,7.2500000000,-0.8125000000,7.6875000000,image110.jpg,22011.2220700000
4,50.8635298333,-0.0939958333,56.8000000000,6.8750000000,-0.0625000000,7.3125000000,image111.jpg,22211.2491950000
4,50.8635310000,-0.0939966667,56.8000000000,6.6875000000,-0.8125000000,4.4375000000,image112.jpg,22410.3410710000
4,50.8635320000,-0.0939980000,56.8000000000,5.8750000000,-1.6875000000,0.2500000000,image113.jpg,22610.4335630000
4,50.8635328333,-0.0939993333,56.8000000000,6.6250000000,-1.5000000000,357.0000000000,image114.jpg,22811.1870200000
4,50.8635336667,-0.0940005000,56.9000000000,6.4375000000,-0.3750000000,356.1875000000,image115.jpg,23011.5421790000
4,50.8635345000,-0.0940016667,56.8000000000,7.2500000000,-1.5625000000,356.7500000000,image116.jpg,23211.7205070000
4,50.8635355000,-0.0940030000,56.9000000000,6.5000000000,-1.5000000000,354.9375000000,image117.jpg,23410.8421250000
4,50.8635363333,-0.0940043333,56.9000000000,6.6250000000,-3.1875000000,352.9375000000,image118.jpg,23610.8037260000
4,50.8635371667,-0.0940058333,56.9000000000,7.1250000000,-3.1250000000,352.1875000000,image119.jpg,23811.2313360000
4,50.8635380000,-0.0940071667,56.9000000000,6.1875000000,-3.0625000000,351.8125000000,image120.jpg,24011.8971850000
4,50.8635388333,-0.0940086667,56.8000000000,6.4375000000,-2.2500000000,349.2500000000,image121.jpg,24211.9518110000
4,50.8635395000,-0.0940101667,56.8000000000,7.8125000000,-3.3750000000,347.4375000000,image122.jpg,24411.9147140000
4,50.8635403333,-0.0940116667,56.8000000000,7.3125000000,-2.0625000000,346.8125000000,image123.jpg,24611.1888390000
4,50.8635410000,-0.0940131667,56.8000000000,7.4375000000,-3.0625000000,342.4375000000,image124.jpg,24811.3339890000
4,50.8635415000,-0.0940148333,56.8000000000,9.3750000000,-2.8125000000,341.5625000000,image125.jpg,25011.4788270000
4,50.8635421667,-0.0940165000,56.8000000000,9.7500000000,-2.6250000000,341.6875000000,image126.jpg,25211.3502680000
4,50.8635428333,-0.0940180000,56.8000000000,10.0000000000,-2.6875000000,343.8750000000,image127.jpg,25411.4286970000
4,50.8635433333,-0.0940195000,56.8000000000,8.5625000000,-2.1875000000,348.4375000000,image128.jpg,25611.5074900000
4,50.8635441667,-0.0940206667,56.8000000000,9.0625000000,-2.2500000000,348.9375000000,image129.jpg,25811.5773250000
4,50.8635448333,-0.0940221667,56.8000000000,8.1250000000,-1.2500000000,349.6250000000,image130.jpg,26011.6373150000
4,50.8635455000,-0.0940235000,56.8000000000,6.6250000000,-1.6250000000,348.1875000000,image131.jpg,26211.7132440000
4,50.8635463333,-0.0940248333,56.8000000000,6.3125000000,-1.5625000000,348.1875000000,image132.jpg,26411.7719320000
4,50.8635471667,-0.0940261667,56.8000000000,7.3125000000,-0.8750000000,349.0000000000,image133.jpg,26611.8652050000
4,50.8635478333,-0.0940275000,56.8000000000,6.8125000000,-1.7500000000,349.6250000000,image134.jpg,26811.8682140000
4,50.8635485000,-0.0940286667,56.8000000000,7.6875000000,-1.5625000000,350.8750000000,image135.jpg,27012.7371450000
4,50.8635493333,-0.0940300000,56.8000000000,7.1250000000,-1.8750000000,352.8125000000,image136.jpg,27213.0345410000
4,50.8635501667,-0.0940311667,56.8000000000,7.0625000000,-1.7500000000,353.8750000000,image137.jpg,27413.2952170000
4,50.8635508333,-0.0940323333,56.9000000000,8.0000000000,-0.7500000000,356.7500000000,image138.jpg,27612.7129420000
4,50.8635516667,-0.0940333333,56.8000000000,8.4375000000,-1.4375000000,357.4375000000,image139.jpg,27812.2868180000
4,50.8635526667,-0.0940346667,56.9000000000,5.8125000000,-0.9375000000,358.1250000000,image140.jpg,28012.6425510000
4,50.8635535000,-0.0940356667,56.9000000000,6.3750000000,-0.6250000000,356.9375000000,image141.jpg,28213.4297070000
4,50.8635541667,-0.0940368333,56.9000000000,7.5625000000,-1.1875000000,353.6875000000,image142.jpg,28413.4449040000
4,50.8635550000,-0.0940381667,56.9000000000,5.5625000000,-1.2500000000,353.8750000000,image143.jpg,28613.5970870000
4,50.8635558333,-0.0940393333,56.9000000000,7.3125000000,-1.3750000000,354.5000000000,image144.jpg,28812.6137520000
4,50.8635566667,-0.0940405000,56.9000000000,6.1875000000,-0.5000000000,353.9375000000,image145.jpg,29012.7073900000
4,50.8635573333,-0.0940415000,56.9000000000,5.5000000000,-0.2500000000,352.0000000000,image146.jpg,29213.6108540000
4,50.8635580000,-0.0940428333,56.9000000000,5.3750000000,-0.2500000000,351.4375000000,image147.jpg,29413.8392370000
4,50.8635588333,-0.0940438333,56.9000000000,4.1250000000,-1.0625000000,347.9375000000,image148.jpg,29614.0937670000
4,50.8635593333,-0.0940451667,56.9000000000,6.2500000000,-1.5625000000,344.0000000000,image149.jpg,29812.9580310000
4,50.8635598333,-0.0940465000,56.9000000000,6.6875000000,-0.6875000000,342.0625000000,image150.jpg,30013.0176050000
4,50.8635603333,-0.0940476667,56.9000000000,4.4375000000,-0.7500000000,342.1250000000,image151.jpg,30213.6299630000
4,50.8635611667,-0.0940491667,56.9000000000,5.8750000000,-2.4375000000,341.4375000000,image152.jpg,30413.1550870000
4,50.8635616667,-0.0940508333,56.9000000000,3.5625000000,-3.3750000000,340.6250000000,image153.jpg,30613.2561740000
4,50.8635621667,-0.0940521667,56.9000000000,4.0625000000,-2.3125000000,341.0000000000,image154.jpg,30813.3029350000
4,50.8635628333,-0.0940536667,56.9000000000,4.7500000000,-2.0000000000,342.2500000000,image155.jpg,31013.3708420000
4,50.8635635000,-0.0940550000,56.9000000000,4.1875000000,-1.0625000000,342.5625000000,image156.jpg,31213.7086570000
4,50.8635640000,-0.0940565000,56.9000000000,3.7500000000,-0.1875000000,343.8125000000,image157.jpg,31413.5109810000
4,50.8635646667,-0.0940576667,56.9000000000,4.2500000000,-0.7500000000,344.2500000000,image158.jpg,31613.5896180000
4,50.8635653333,-0.0940591667,56.9000000000,4.8125000000,-1.6875000000,342.8125000000,image159.jpg,31813.5877840000
4,50.8635660000,-0.0940606667,56.9000000000,5.0000000000,-1.1875000000,341.5000000000,image160.jpg,32013.7406950000
4,50.8635665000,-0.0940620000,56.9000000000,4.9375000000,-1.4375000000,341.5625000000,image161.jpg,32213.7088590000
4,50.8635671667,-0.0940636667,56.9000000000,4.3750000000,-1.1875000000,341.3750000000,image162.jpg,32414.9458260000
4,50.8635678333,-0.0940651667,56.9000000000,6.5000000000,-3.1250000000,340.0625000000,image163.jpg,32614.9060730000
4,50.8635683333,-0.0940668333,56.9000000000,5.1875000000,-2.5625000000,340.0000000000,image164.jpg,32814.9737210000
4,50.8635690000,-0.0940681667,56.9000000000,5.2500000000,-2.1875000000,339.3750000000,image165.jpg,33014.0904430000
4,50.8635696667,-0.0940696667,56.9000000000,5.7500000000,-1.5000000000,340.0000000000,image166.jpg,33214.1401730000
4,50.8635701667,-0.0940711667,56.9000000000,4.5000000000,-1.5000000000,340.1875000000,image167.jpg,33414.6648710000
4,50.8635706667,-0.0940725000,56.9000000000,5.0000000000,-1.5000000000,340.8125000000,image168.jpg,33615.1629540000
4,50.8635713333,-0.0940740000,56.9000000000,6.0625000000,-1.5000000000,341.6875000000,image169.jpg,33815.2337260000
4,50.8635720000,-0.0940755000,56.9000000000,4.0000000000,-2.7500000000,342.0000000000,image170.jpg,34015.0125600000
4,50.8635726667,-0.0940768333,56.9000000000,5.6250000000,-2.1875000000,343.3750000000,image171.jpg,34214.4121580000
4,50.8635733333,-0.0940783333,56.9000000000,5.1250000000,-2.9375000000,344.3125000000,image172.jpg,34414.7019510000
4,50.8635738333,-0.0940796667,56.9000000000,3.5000000000,-2.1875000000,343.5000000000,image173.jpg,34615.5466100000
4,50.8635745000,-0.0940810000,56.9000000000,5.3750000000,-1.5000000000,342.3125000000,image174.jpg,34815.5460260000
4,50.8635750000,-0.0940821667,56.9000000000,3.9375000000,-0.3125000000,342.1250000000,image175.jpg,35015.6433620000
4,50.8635755000,-0.0940833333,56.9000000000,3.0625000000,-0.1250000000,342.4375000000,image176.jpg,35214.6869040000
4,50.8635761667,-0.0940846667,57.0000000000,4.8125000000,0.2500000000,343.0625000000,image177.jpg,35414.8714840000
4,50.8635768333,-0.0940860000,57.0000000000,4.1875000000,-0.8750000000,343.0000000000,image178.jpg,35615.6957770000
4,50.8635773333,-0.0940871667,57.0000000000,4.5625000000,0.6875000000,343.1250000000,image179.jpg,35815.0075600000
4,50.8635780000,-0.0940885000,57.0000000000,4.6875000000,0.6875000000,345.3750000000,image180.jpg,36015.0780720000
4,50.8635788333,-0.0940896667,57.0000000000,3.7500000000,-0.4375000000,346.1875000000,image181.jpg,36215.1715020000
4,50.8635793333,-0.0940910000,57.0000000000,1.5625000000,-1.2500000000,346.5625000000,image182.jpg,36415.2228470000
4,50.8635800000,-0.0940921667,57.0000000000,3.5000000000,-1.2500000000,346.3125000000,image183.jpg,36615.5427970000
4,50.8635808333,-0.0940933333,57.0000000000,2.0000000000,0.3750000000,346.0000000000,image184.jpg,36815.3824660000
4,50.8635813333,-0.0940946667,57.0000000000,2.2500000000,0.0625000000,345.3750000000,image185.jpg,37015.4280810000
4,50.8635820000,-0.0940960000,57.0000000000,3.5000000000,0.2500000000,345.4375000000,image186.jpg,37215.4860410000
4,50.8635826667,-0.0940971667,57.0000000000,2.6250000000,-0.5625000000,344.8750000000,image187.jpg,37415.5774400000
4,50.8635833333,-0.0940985000,57.0000000000,4.0625000000,-0.3750000000,344.5000000000,image188.jpg,37616.0071860000
4,50.8635840000,-0.0940998333,57.0000000000,5.1250000000,-0.4375000000,344.4375000000,image189.jpg,37816.6690770000
4,50.8635845000,-0.0941013333,57.0000000000,5.1875000000,-0.5625000000,344.3125000000,image190.jpg,38018.5177890000
4,50.8635851667,-0.0941026667,57.0000000000,5.3750000000,-0.0625000000,346.7500000000,image191.jpg,38216.9017730000
4,50.8635858333,-0.0941038333,57.0000000000,5.8750000000,-0.1250000000,348.1250000000,image192.jpg,38415.9905250000
4,50.8635865000,-0.0941050000,57.0000000000,7.1250000000,0.4375000000,348.2500000000,image193.jpg,38616.0049940000
4,50.8635873333,-0.0941063333,57.0000000000,6.6875000000,0.2500000000,348.3125000000,image194.jpg,38816.8413200000
4,50.8635878333,-0.0941076667,57.0000000000,5.3750000000,-0.7500000000,347.9375000000,image195.jpg,39017.0640780000
4,50.8635886667,-0.0941090000,57.0000000000,6.3125000000,-2.4375000000,346.8125000000,image196.jpg,39217.2181880000
4,50.8635895000,-0.0941103333,57.0000000000,6.0625000000,-2.1250000000,344.3750000000,image197.jpg,39416.3162640000
4,50.8635898333,-0.0941116667,57.0000000000,4.8125000000,-1.0000000000,341.7500000000,image198.jpg,39616.4424040000
4,50.8635905000,-0.0941130000,57.1000000000,3.0625000000,-3.6875000000,342.2500000000,image199.jpg,39816.9417360000
4,50.8635916667,-0.0941146667,57.0000000000,-0.3125000000,-5.7500000000,345.0000000000,image200.jpg,40017.6289930000
4,50.8635920000,-0.0941160000,57.0000000000,4.9375000000,-3.5000000000,344.5625000000,image201.jpg,40217.5697610000
4,50.8635925000,-0.0941168333,57.0000000000,5.8750000000,-0.7500000000,344.9375000000,image202.jpg,40417.6257940000
4,50.8635933333,-0.0941180000,57.0000000000,0.3125000000,0.7500000000,345.1875000000,image203.jpg,40616.8573130000
4,50.8635938333,-0.0941195000,57.0000000000,7.0625000000,-1.5625000000,346.0625000000,image204.jpg,40816.8956360000
4,50.8635943333,-0.0941208333,57.0000000000,7.8750000000,-1.0000000000,349.2500000000,image205.jpg,41016.9688050000
4,50.8635950000,-0.0941221667,57.0000000000,8.6250000000,-1.0625000000,351.7500000000,image206.jpg,41216.8890510000
4,50.8635958333,-0.0941231667,57.1000000000,9.4375000000,-1.5000000000,355.5625000000,image207.jpg,41417.0515460000
4,50.8635965000,-0.0941243333,57.0000000000,8.4375000000,-2.1875000000,355.8750000000,image208.jpg,41617.0958600000
4,50.8635973333,-0.0941253333,57.0000000000,8.4375000000,-2.0625000000,354.6250000000,image209.jpg,41817.2167390000
4,50.8635980000,-0.0941265000,57.0000000000,8.3750000000,-2.0000000000,354.5625000000,image210.jpg,42017.4969270000
4,50.8635986667,-0.0941276667,57.0000000000,8.3750000000,-2.3125000000,354.5000000000,image211.jpg,42217.3543220000
4,50.8635995000,-0.0941286667,57.0000000000,9.7500000000,-2.5625000000,354.9375000000,image212.jpg,42417.3973250000
4,50.8636003333,-0.0941298333,57.0000000000,9.5000000000,-3.4375000000,357.2500000000,image213.jpg,42617.4863070000
4,50.8636011667,-0.0941310000,57.0000000000,8.9375000000,-2.8125000000,357.3125000000,image214.jpg,42817.5152790000
4,50.8636020000,-0.0941320000,57.0000000000,8.5000000000,-2.0625000000,358.0625000000,image215.jpg,43017.6119890000
4,50.8636028333,-0.0941331667,57.0000000000,9.3750000000,-2.8750000000,359.5625000000,image216.jpg,43218.6016170000
4,50.8636036667,-0.0941341667,57.0000000000,8.0625000000,-0.8750000000,0.4375000000,image217.jpg,43418.6687240000
4,50.8636045000,-0.0941350000,57.0000000000,8.0625000000,-1.5625000000,0.7500000000,image218.jpg,43618.7585710000
4,50.8636051667,-0.0941358333,57.0000000000,8.3750000000,-1.5000000000,1.4375000000,image219.jpg,43818.7115990000
4,50.8636060000,-0.0941370000,57.0000000000,7.8125000000,-3.4375000000,2.7500000000,image220.jpg,44017.9556070000
4,50.8636068333,-0.0941376667,57.0000000000,7.7500000000,-1.6250000000,3.3125000000,image221.jpg,44217.9229410000
4,50.8636076667,-0.0941385000,57.0000000000,7.7500000000,-0.6875000000,3.9375000000,image222.jpg,44418.6811330000
4,50.8636085000,-0.0941393333,57.0000000000,7.0625000000,-1.3750000000,1.8750000000,image223.jpg,44619.0974800000
4,50.8636093333,-0.0941403333,57.0000000000,7.8750000000,-1.6875000000,1.6250000000,image224.jpg,44819.1579590000
4,50.8636100000,-0.0941411667,57.0000000000,8.5625000000,-1.1250000000,2.2500000000,image225.jpg,45019.1373280000
4,50.8636108333,-0.0941420000,57.0000000000,6.8125000000,-1.8125000000,0.4375000000,image226.jpg,45218.3204670000
4,50.8636116667,-0.0941431667,57.0000000000,6.5000000000,-2.4375000000,356.0000000000,image227.jpg,45418.4168980000
4,50.8636121667,-0.0941440000,57.1000000000,6.7500000000,-1.6250000000,354.2500000000,image228.jpg,45619.0278350000
4,50.8636128333,-0.0941450000,57.1000000000,6.4375000000,-1.1875000000,354.2500000000,image229.jpg,45819.4921250000
4,50.8636135000,-0.0941458333,57.1000000000,8.0000000000,-1.5000000000,354.5625000000,image230.jpg,46019.5152150000
4,50.8636141667,-0.0941470000,57.1000000000,6.8125000000,-2.2500000000,354.9375000000,image231.jpg,46219.7718600000
4,50.8636148333,-0.0941480000,57.1000000000,7.3750000000,-2.2500000000,354.0625000000,image232.jpg,46418.6850310000
4,50.8636156667,-0.0941491667,57.1000000000,6.2500000000,-2.3750000000,353.3125000000,image233.jpg,46618.7777290000
4,50.8636163333,-0.0941501667,57.1000000000,5.7500000000,-2.5625000000,352.3750000000,image234.jpg,46819.3614550000
4,50.8636171667,-0.0941513333,57.1000000000,7.8125000000,-1.8750000000,353.0625000000,image235.jpg,47018.9188560000
4,50.8636178333,-0.0941523333,57.1000000000,6.8750000000,-1.4375000000,353.8125000000,image236.jpg,47218.9557570000
4,50.8636185000,-0.0941533333,57.1000000000,6.8125000000,-1.2500000000,354.0625000000,image237.jpg,47419.0610760000
4,50.8636193333,-0.0941545000,57.1000000000,5.5625000000,-1.3750000000,354.2500000000,image238.jpg,47619.1277320000
4,50.8636200000,-0.0941555000,57.1000000000,6.6875000000,-0.8750000000,353.8125000000,image239.jpg,47819.0814640000
4,50.8636208333,-0.0941566667,57.1000000000,7.3125000000,-0.6250000000,354.4375000000,image240.jpg,48019.3685520000
4,50.8636215000,-0.0941576667,57.1000000000,6.9375000000,-0.5625000000,355.6250000000,image241.jpg,48219.3054260000
4,50.8636221667,-0.0941586667,57.1000000000,6.5000000000,-1.1250000000,355.8125000000,image242.jpg,48419.3819490000
4,50.8636231667,-0.0941598333,57.1000000000,7.8750000000,-0.3750000000,356.3750000000,image243.jpg,48619.4637050000
4,50.8636236667,-0.0941608333,57.1000000000,7.6875000000,-1.8125000000,355.3125000000,image244.jpg,48819.5561830000
4,50.8636245000,-0.0941620000,57.1000000000,6.2500000000,-1.7500000000,353.8125000000,image245.jpg,49019.5969420000
4,50.8636253333,-0.0941630000,57.1000000000,6.8750000000,-2.3750000000,354.6250000000,image246.jpg,49220.3591050000
4,50.8636260000,-0.0941641667,57.1000000000,5.3750000000,-2.4375000000,354.8750000000,image247.jpg,49420.6895190000
4,50.8636268333,-0.0941651667,57.1000000000,6.1875000000,-2.0000000000,353.1250000000,image248.jpg,49620.7609880000
4,50.8636275000,-0.0941663333,57.1000000000,5.9375000000,-2.2500000000,351.6250000000,image249.jpg,49820.8206720000
4,50.8636281667,-0.0941673333,57.1000000000,5.5000000000,-1.3750000000,350.0000000000,image250.jpg,50019.9370290000
4,50.8636288333,-0.0941685000,57.1000000000,6.2500000000,-2.2500000000,348.5625000000,image251.jpg,50219.9959330000
4,50.8636295000,-0.0941696667,57.1000000000,5.8750000000,-1.8125000000,347.8125000000,image252.jpg,50420.5925820000
4,50.8636300000,-0.0941710000,57.1000000000,5.3125000000,-2.1250000000,347.4375000000,image253.jpg,50621.1583640000
4,50.8636308333,-0.0941721667,57.1000000000,6.8125000000,-2.1250000000,347.7500000000,image254.jpg,50821.1712650000
4,50.8636315000,-0.0941733333,57.1000000000,5.6875000000,-2.3125000000,347.7500000000,image255.jpg,51021.1495130000
4,50.8636323333,-0.0941746667,57.1000000000,5.8125000000,-1.5000000000,347.0000000000,image256.jpg,51220.3492050000
4,50.8636328333,-0.0941760000,57.1000000000,7.0625000000,-1.1250000000,346.5625000000,image257.jpg,51420.4007140000
4,50.8636335000,-0.0941773333,57.1000000000,6.0625000000,-2.4375000000,345.9375000000,image258.jpg,51621.1237500000
4,50.8636345000,-0.0941793333,57.1000000000,7.1250000000,-2.1250000000,346.2500000000,image259.jpg,51821.6109830000
4,50.8636350000,-0.0941800000,57.1000000000,6.6250000000,-2.0625000000,346.3750000000,image260.jpg,52021.4791810000
4,50.8636356667,-0.0941813333,57.1000000000,7.0000000000,-1.8125000000,346.6875000000,image261.jpg,52221.4871400000
4,50.8636363333,-0.0941828333,57.1000000000,6.8750000000,-2.5000000000,346.9375000000,image262.jpg,52420.7456690000
4,50.8636371667,-0.0941840000,57.1000000000,7.5625000000,-2.0000000000,347.4375000000,image263.jpg,52620.8055050000
4,50.8636376667,-0.0941855000,57.1000000000,8.7500000000,-1.3750000000,347.3125000000,image264.jpg,52821.2947820000
4,50.8636385000,-0.0941866667,57.1000000000,8.7500000000,-1.1250000000,347.3750000000,image265.jpg,53020.9414280000
4,50.8636393333,-0.0941880000,57.1000000000,9.5000000000,-1.5000000000,348.7500000000,image266.jpg,53220.9880550000
4,50.8636400000,-0.0941893333,57.1000000000,9.5000000000,-2.6875000000,349.1875000000,image267.jpg,53421.0315090000
4,50.8636406667,-0.0941906667,57.1000000000,9.3125000000,-2.2500000000,347.6250000000,image268.jpg,53620.9628800000
4,50.8636413333,-0.0941921667,57.1000000000,9.5625000000,-1.6250000000,346.3125000000,image269.jpg,53821.1716110000
4,50.8636421667,-0.0941935000,57.1000000000,9.6250000000,-1.5625000000,346.2500000000,image270.jpg,54021.2566050000
4,50.8636428333,-0.0941950000,57.1000000000,10.0000000000,-2.1250000000,345.9375000000,image271.jpg,54221.2989310000
4,50.8636438333,-0.0941971667,57.1000000000,8.2500000000,-2.3750000000,344.8750000000,image272.jpg,54421.2801170000
4,50.8636441667,-0.0941980000,57.1000000000,7.8125000000,-2.0625000000,344.8750000000,image273.jpg,54621.3478190000
4,50.8636451667,-0.0942003333,57.1000000000,9.2500000000,-2.2500000000,345.6250000000,image274.jpg,54821.8717030000
4,50.8636460000,-0.0942016667,57.1000000000,7.7500000000,-2.6250000000,346.0625000000,image275.jpg,55021.9333610000
4,50.8636468333,-0.0942031667,57.1000000000,7.6250000000,-2.6250000000,346.5000000000,image276.jpg,55222.7034220000
4,50.8636475000,-0.0942045000,57.1000000000,8.0000000000,-2.3125000000,345.3125000000,image277.jpg,55422.6577840000
4,50.8636478333,-0.0942053333,57.1000000000,8.1875000000,-2.3750000000,343.8125000000,image278.jpg,55622.5749380000
4,50.8636488333,-0.0942073333,57.1000000000,8.1250000000,-1.9375000000,344.3125000000,image279.jpg,55822.0604940000
4,50.8636495000,-0.0942088333,57.1000000000,8.5000000000,-3.0000000000,344.4375000000,image280.jpg,56021.9306450000
4,50.8636501667,-0.0942101667,57.1000000000,7.9375000000,-2.2500000000,343.3125000000,image281.jpg,56222.2690130000
4,50.8636508333,-0.0942116667,57.2000000000,6.6250000000,-3.0000000000,340.8750000000,image282.jpg,56422.9340610000
4,50.8636510000,-0.0942123333,57.1000000000,6.6250000000,-2.5000000000,340.3125000000,image283.jpg,56622.9543300000
4,50.8636518333,-0.0942143333,57.1000000000,5.7500000000,-2.5625000000,339.3750000000,image284.jpg,56823.2739120000
4,50.8636521667,-0.0942150000,57.2000000000,6.1875000000,-2.6250000000,338.9375000000,image285.jpg,57022.0965140000
4,50.8636528333,-0.0942171667,57.1000000000,6.2500000000,-2.3750000000,338.2500000000,image286.jpg,57222.4979500000
4,50.8636533333,-0.0942186667,57.1000000000,6.1250000000,-2.1875000000,336.8750000000,image287.jpg,57422.8830980000
4,50.8636538333,-0.0942201667,57.1000000000,5.3750000000,-1.6875000000,336.3750000000,image288.jpg,57623.4449330000
4,50.8636545000,-0.0942215000,57.2000000000,5.6875000000,-1.4375000000,336.8125000000,image289.jpg,57823.4993450000
4,50.8636550000,-0.0942230000,57.2000000000,6.1250000000,-2.4375000000,337.3125000000,image290.jpg,58023.7325040000
4,50.8636556667,-0.0942245000,57.2000000000,6.3750000000,-1.5000000000,340.1250000000,image291.jpg,58222.6173850000
4,50.8636563333,-0.0942258333,57.2000000000,7.1875000000,-1.8125000000,341.2500000000,image292.jpg,58422.7183700000
4,50.8636570000,-0.0942273333,57.2000000000,5.2500000000,-1.0000000000,341.1250000000,image293.jpg,58623.2917160000
4,50.8636575000,-0.0942290000,57.2000000000,5.5625000000,-2.0000000000,338.7500000000,image294.jpg,58822.8766640000
4,50.8636580000,-0.0942306667,57.2000000000,6.5625000000,-1.5000000000,337.2500000000,image295.jpg,59022.9493080000
4,50.8636586667,-0.0942318333,57.2000000000,6.4375000000,-1.3125000000,337.3125000000,image296.jpg,59223.0112330000
4,50.8636591667,-0.0942336667,57.2000000000,5.5000000000,-1.8750000000,335.0625000000,image297.jpg,59423.0833050000
4,50.8636596667,-0.0942355000,57.2000000000,4.6875000000,-2.7500000000,332.8750000000,image298.jpg,59623.4012990000
4,50.8636601667,-0.0942371667,57.2000000000,4.6875000000,-1.6250000000,331.4375000000,image299.jpg,59823.1958830000
4,50.8636606667,-0.0942390000,57.2000000000,4.8125000000,-3.1250000000,331.1250000000,image300.jpg,60023.1119240000
4,50.8636611667,-0.0942406667,57.2000000000,4.3125000000,-2.3750000000,331.0000000000,image301.jpg,60223.4094580000
4,50.8636616667,-0.0942423333,57.2000000000,3.0000000000,-2.6875000000,328.1875000000,image302.jpg,60423.3558900000
4,50.8636620000,-0.0942440000,57.2000000000,4.3750000000,-2.5625000000,325.8125000000,image303.jpg,60623.4559970000
4,50.8636623333,-0.0942456667,57.2000000000,3.1875000000,-2.8125000000,322.6250000000,image304.jpg,60823.9227050000
4,50.8636625000,-0.0942471667,57.2000000000,4.2500000000,-1.3125000000,322.7500000000,image305.jpg,61024.7651870000
4,50.8636630000,-0.0942488333,57.2000000000,5.3125000000,-2.0625000000,323.3125000000,image306.jpg,61224.6136210000
4,50.8636633333,-0.0942505000,57.2000000000,4.1250000000,-2.1250000000,324.0000000000,image307.jpg,61424.6490820000
4,50.8636636667,-0.0942521667,57.2000000000,5.0000000000,-1.8750000000,324.8125000000,image308.jpg,61624.0465900000
4,50.8636640000,-0.0942540000,57.2000000000,4.8125000000,-2.4375000000,325.0000000000,image309.jpg,61823.8470480000
4,50.8636643333,-0.0942556667,57.2000000000,4.8750000000,-2.1250000000,325.4375000000,image310.jpg,62024.1613960000
4,50.8636648333,-0.0942573333,57.2000000000,4.6250000000,-2.6875000000,325.2500000000,image311.jpg,62224.9057470000
4,50.8636651667,-0.0942590000,57.2000000000,3.8750000000,-1.5000000000,324.4375000000,image312.jpg,62424.9978870000
4,50.8636655000,-0.0942606667,57.2000000000,3.1250000000,-2.9375000000,324.3750000000,image313.jpg,62625.0592770000
4,50.8636660000,-0.0942625000,57.2000000000,3.2500000000,-2.8125000000,324.5000000000,image314.jpg,62824.1885910000
4,50.8636663333,-0.0942641667,57.2000000000,1.6875000000,-3.2500000000,322.6250000000,image315.jpg,63024.2673780000
4,50.8636666667,-0.0942658333,57.2000000000,1.3750000000,-2.6875000000,321.0000000000,image316.jpg,63224.8251420000
4,50.8636670000,-0.0942676667,57.2000000000,1.3750000000,-3.5000000000,320.9375000000,image317.jpg,63425.5615610000
4,50.8636673333,-0.0942695000,57.2000000000,1.5000000000,-3.8125000000,321.1250000000,image318.jpg,63625.4228900000
4,50.8636675000,-0.0942711667,57.2000000000,1.6250000000,-3.9375000000,321.5625000000,image319.jpg,63825.5558870000
4,50.8636678333,-0.0942730000,57.2000000000,1.3750000000,-3.0000000000,320.7500000000,image320.jpg,64024.6092480000
4,50.8636681667,-0.0942750000,57.2000000000,2.8750000000,-3.7500000000,320.7500000000,image321.jpg,64224.6755810000
4,50.8636685000,-0.0942766667,57.2000000000,1.8750000000,-2.9375000000,321.0000000000,image322.jpg,64425.3153520000
4,50.8636686667,-0.0942785000,57.2000000000,4.0000000000,-2.9375000000,321.3750000000,image323.jpg,64625.2134870000
4,50.8636690000,-0.0942801667,57.2000000000,1.9375000000,-2.9375000000,321.2500000000,image324.jpg,64824.9046550000
4,50.8636691667,-0.0942816667,57.2000000000,4.6875000000,-1.1875000000,319.6250000000,image325.jpg,65024.9709370000
4,50.8636693333,-0.0942831667,57.2000000000,6.5625000000,0.2500000000,319.2500000000,image326.jpg,65225.0734910000
4,50.8636696667,-0.0942848333,57.2000000000,5.5000000000,1.0625000000,319.1875000000,image327.jpg,65425.0105540000
4,50.8636698333,-0.0942863333,57.2000000000,7.1875000000,2.4375000000,320.5000000000,image328.jpg,65625.1865590000
4,50.8636700000,-0.0942878333,57.3000000000,7.6250000000,1.6875000000,320.7500000000,image329.jpg,65825.2409910000
4,50.8636703333,-0.0942893333,57.3000000000,6.2500000000,1.5000000000,320.0000000000,image330.jpg,66025.2615970000
4,50.8636706667,-0.0942913333,57.3000000000,6.1250000000,-0.5625000000,319.6250000000,image331.jpg,66225.2615410000
4,50.8636708333,-0.0942930000,57.3000000000,5.9375000000,-0.1875000000,319.6250000000,image332.jpg,66425.3321070000
4,50.8636711667,-0.0942946667,57.3000000000,5.4375000000,0.2500000000,318.9375000000,image333.jpg,66625.9218550000
4,50.8636713333,-0.0942965000,57.3000000000,5.8750000000,0.0000000000,317.0625000000,image334.jpg,66826.6571920000
4,50.8636715000,-0.0942983333,57.3000000000,4.1250000000,-1.1250000000,316.7500000000,image335.jpg,67026.5803020000
4,50.8636716667,-0.0943001667,57.3000000000,6.0625000000,-2.0625000000,317.6250000000,image336.jpg,67226.5556630000
4,50.8636720000,-0.0943020000,57.3000000000,5.5625000000,-2.3750000000,317.8125000000,image337.jpg,67425.7054730000
4,50.8636723333,-0.0943038333,57.3000000000,6.0000000000,-2.4375000000,319.8750000000,image338.jpg,67625.7927790000
4,50.8636725000,-0.0943058333,57.3000000000,7.1250000000,-2.7500000000,320.2500000000,image339.jpg,67826.1013690000
4,50.8636728333,-0.0943076667,57.3000000000,7.0625000000,-3.6875000000,319.0625000000,image340.jpg,68026.8204750000
4,50.8636731667,-0.0943095000,57.3000000000,6.3750000000,-2.4375000000,318.3125000000,image341.jpg,68226.9535230000
4,50.8636733333,-0.0943113333,57.3000000000,7.1875000000,-2.8750000000,319.0000000000,image342.jpg,68426.9530810000
4,50.8636736667,-0.0943131667,57.3000000000,7.1250000000,-2.1875000000,317.5625000000,image343.jpg,68626.1030780000
4,50.8636736667,-0.0943151667,57.3000000000,7.6875000000,-2.6875000000,316.5625000000,image344.jpg,68826.0648680000
4,50.8636740000,-0.0943170000,57.3000000000,7.6875000000,-2.4375000000,317.4375000000,image345.jpg,69026.7289350000
4,50.8636741667,-0.0943188333,57.3000000000,6.8125000000,-2.8750000000,317.1875000000,image346.jpg,69227.2395770000
4,50.8636743333,-0.0943206667,57.3000000000,6.5000000000,-3.2500000000,315.7500000000,image347.jpg,69427.3293940000
4,50.8636745000,-0.0943225000,57.3000000000,7.6875000000,-2.7500000000,315.0000000000,image348.jpg,69627.3769900000
4,50.8636746667,-0.0943243333,57.3000000000,7.6875000000,-1.8750000000,313.9375000000,image349.jpg,69826.4524480000
4,50.8636748333,-0.0943261667,57.3000000000,6.1250000000,-2.4375000000,313.1875000000,image350.jpg,70026.4925980000
4,50.8636748333,-0.0943280000,57.4000000000,8.1250000000,-1.8750000000,313.5000000000,image351.jpg,70227.3246530000
4,50.8636751667,-0.0943300000,57.4000000000,6.8750000000,-2.6250000000,313.7500000000,image352.jpg,70426.6749050000
4,50.8636753333,-0.0943318333,57.4000000000,6.6250000000,-3.0625000000,314.5625000000,image353.jpg,70626.7638830000
4,50.8636755000,-0.0943338333,57.4000000000,6.7500000000,-3.3750000000,316.3750000000,image354.jpg,70826.8432750000
4,50.8636760000,-0.0943356667,57.4000000000,5.5625000000,-2.4375000000,320.1875000000,image355.jpg,71026.8818130000
4,50.8636761667,-0.0943375000,57.4000000000,6.6250000000,-1.9375000000,320.7500000000,image356.jpg,71226.9523060000
4,50.8636765000,-0.0943393333,57.4000000000,3.9375000000,-3.1875000000,319.8125000000,image357.jpg,71427.0246730000
4,50.8636766667,-0.0943413333,57.4000000000,5.5625000000,-3.1875000000,319.0625000000,image358.jpg,71627.0725120000
4,50.8636770000,-0.0943431667,57.4000000000,5.3125000000,-4.3125000000,319.4375000000,image359.jpg,71827.1111230000
4,50.8636773333,-0.0943450000,57.4000000000,4.0000000000,-4.1250000000,320.4375000000,image360.jpg,72027.2076590000
4,50.8636775000,-0.0943468333,57.4000000000,5.2500000000,-4.0625000000,320.3750000000,image361.jpg,72227.1702320000
4,50.8636778333,-0.0943488333,57.4000000000,5.5625000000,-4.1250000000,320.7500000000,image362.jpg,72427.7084770000
4,50.8636783333,-0.0943505000,57.4000000000,4.9375000000,-2.8125000000,321.0625000000,image363.jpg,72628.6150830000
4,50.8636785000,-0.0943525000,57.4000000000,5.1250000000,-3.3750000000,321.5625000000,image364.jpg,72828.4165620000
4,50.8636788333,-0.0943543333,57.4000000000,5.0625000000,-3.6875000000,321.7500000000,image365.jpg,73028.4450640000
4,50.8636791667,-0.0943561667,57.4000000000,4.3125000000,-3.2500000000,321.7500000000,image366.jpg,73227.6140300000
4,50.8636796667,-0.0943580000,57.4000000000,2.5000000000,-3.4375000000,322.3750000000,image367.jpg,73427.6828160000
4,50.8636798333,-0.0943600000,57.4000000000,4.3750000000,-3.6875000000,320.4375000000,image368.jpg,73628.0747130000
4,50.8636800000,-0.0943618333,57.4000000000,1.9375000000,-4.1250000000,318.5000000000,image369.jpg,73828.7870610000
4,50.8636803333,-0.0943638333,57.4000000000,3.3125000000,-3.8750000000,317.1250000000,image370.jpg,74028.8607480000
4,50.8636805000,-0.0943658333,57.4000000000,4.3125000000,-3.6250000000,316.8125000000,image371.jpg,74228.9360490000
4,50.8636806667,-0.0943678333,57.4000000000,3.6250000000,-3.0000000000,317.3125000000,image372.jpg,74428.0442250000
4,50.8636810000,-0.0943698333,57.4000000000,3.0625000000,-4.0000000000,317.1875000000,image373.jpg,74628.1137580000
4,50.8636811667,-0.0943716667,57.4000000000,3.1875000000,-4.0000000000,315.1250000000,image374.jpg,74828.6688560000
4,50.8636813333,-0.0943738333,57.4000000000,3.1250000000,-3.8125000000,313.0625000000,image375.jpg,75029.1895000000
4,50.8636815000,-0.0943758333,57.4000000000,2.5000000000,-4.5625000000,312.8750000000,image376.jpg,75229.2699320000
4,50.8636815000,-0.0943778333,57.4000000000,2.7500000000,-4.6875000000,311.3125000000,image377.jpg,75429.2576680000
4,50.8636816667,-0.0943798333,57.4000000000,3.8125000000,-4.3750000000,310.1875000000,image378.jpg,75628.4825150000
4,50.8636816667,-0.0943818333,57.4000000000,2.2500000000,-4.4375000000,308.8125000000,image379.jpg,75828.5064230000
4,50.8636816667,-0.0943838333,57.4000000000,2.5000000000,-4.5000000000,305.8750000000,image380.jpg,76028.9046040000
4,50.8636815000,-0.0943858333,57.3000000000,3.3750000000,-6.1875000000,305.0000000000,image381.jpg,76228.5909850000
4,50.8636816667,-0.0943878333,57.3000000000,5.8750000000,-5.5000000000,304.7500000000,image382.jpg,76428.7183110000
4,50.8636815000,-0.0943896667,57.3000000000,5.7500000000,-4.1250000000,306.1875000000,image383.jpg,76628.7969970000
4,50.8636816667,-0.0943918333,57.3000000000,4.6875000000,-5.2500000000,309.3750000000,image384.jpg,76828.8378940000
4,50.8636816667,-0.0943940000,57.3000000000,4.9375000000,-4.8750000000,310.6250000000,image385.jpg,77029.0014670000
4,50.8636818333,-0.0943960000,57.3000000000,4.7500000000,-4.0625000000,311.2500000000,image386.jpg,77229.0125410000
4,50.8636820000,-0.0943978333,57.3000000000,5.0625000000,-3.6250000000,311.6875000000,image387.jpg,77429.0604640000
4,50.8636821667,-0.0943998333,57.3000000000,4.6875000000,-3.5000000000,311.8750000000,image388.jpg,77629.1489550000
4,50.8636823333,-0.0944018333,57.3000000000,4.6875000000,-3.6875000000,312.7500000000,image389.jpg,77829.1966620000
4,50.8636825000,-0.0944038333,57.3000000000,5.3125000000,-3.5000000000,314.3125000000,image390.jpg,78029.2795020000
4,50.8636828333,-0.0944056667,57.3000000000,6.1250000000,-3.5000000000,315.3125000000,image391.jpg,78230.0390210000
4,50.8636830000,-0.0944078333,57.3000000000,4.5000000000,-4.1875000000,315.8125000000,image392.jpg,78430.3520710000
4,50.8636831667,-0.0944096667,57.3000000000,5.2500000000,-4.5625000000,316.1875000000,image393.jpg,78630.4822950000
4,50.8636835000,-0.0944115000,57.3000000000,4.8125000000,-3.5625000000,315.5000000000,image394.jpg,78830.4068700000
4,50.8636836667,-0.0944135000,57.3000000000,5.6875000000,-4.3750000000,315.1250000000,image395.jpg,79029.6877050000
4,50.8636838333,-0.0944156667,57.3000000000,4.4375000000,-4.0000000000,316.1250000000,image396.jpg,79229.7187710000
4,50.8636841667,-0.0944173333,57.3000000000,5.3750000000,-2.8750000000,318.8750000000,image397.jpg,79430.4277730000
4,50.8636843333,-0.0944191667,57.3000000000,5.8750000000,-1.8125000000,319.9375000000,image398.jpg,79630.7886850000
4,50.8636846667,-0.0944211667,57.3000000000,2.8750000000,-3.8750000000,319.5000000000,image399.jpg,79830.8514350000
4,50.8636850000,-0.0944230000,57.3000000000,3.9375000000,-3.6250000000,317.0000000000,image400.jpg,80030.7594950000
4,50.8636851667,-0.0944250000,57.3000000000,4.0000000000,-2.5000000000,316.1875000000,image401.jpg,80230.0690400000
4,50.8636853333,-0.0944268333,57.3000000000,6.3125000000,-1.6250000000,316.1875000000,image402.jpg,80430.1763960000
4,50.8636856667,-0.0944288333,57.3000000000,5.3125000000,-2.7500000000,315.8125000000,image403.jpg,80631.1976820000
4,50.8636858333,-0.0944308333,57.4000000000,5.2500000000,-1.7500000000,314.6250000000,image404.jpg,80831.2173450000
4,50.8636858333,-0.0944326667,57.3000000000,5.1250000000,-1.2500000000,314.5000000000,image405.jpg,81031.2969690000
4,50.8636863333,-0.0944348333,57.4000000000,4.7500000000,-1.3125000000,314.9375000000,image406.jpg,81230.5028860000
4,50.8636863333,-0.0944368333,57.4000000000,4.3125000000,-2.3125000000,315.4375000000,image407.jpg,81430.4617030000
4,50.8636866667,-0.0944386667,57.4000000000,4.3125000000,-1.9375000000,315.4375000000,image408.jpg,81630.8134770000
4,50.8636870000,-0.0944408333,57.4000000000,4.1875000000,-2.1875000000,317.3750000000,image409.jpg,81830.7406810000
4,50.8636873333,-0.0944426667,57.4000000000,4.6875000000,-2.4375000000,319.6250000000,image410.jpg,82030.6652810000
4,50.8636876667,-0.0944448333,57.4000000000,5.0625000000,-2.6875000000,321.6250000000,image411.jpg,82230.7252650000
4,50.8636880000,-0.0944466667,57.4000000000,5.0000000000,-3.4375000000,321.8125000000,image412.jpg,82430.7900880000
4,50.8636885000,-0.0944485000,57.4000000000,4.7500000000,-2.6875000000,320.0625000000,image413.jpg,82630.8881820000
4,50.8636885000,-0.0944503333,57.4000000000,2.6250000000,-1.9375000000,318.8125000000,image414.jpg,82831.1558530000
4,50.8636888333,-0.0944525000,57.4000000000,4.7500000000,-3.5625000000,318.5625000000,image415.jpg,83030.9408080000
4,50.8636891667,-0.0944543333,57.4000000000,4.3750000000,-2.8125000000,318.6250000000,image416.jpg,83231.0754900000
4,50.8636896667,-0.0944563333,57.4000000000,3.7500000000,-2.1250000000,318.1250000000,image417.jpg,83431.1851360000
4,50.8636896667,-0.0944583333,57.4000000000,4.7500000000,-2.6250000000,316.8750000000,image418.jpg,83631.2188870000
4,50.8636898333,-0.0944603333,57.4000000000,4.0000000000,-1.9375000000,316.8125000000,image419.jpg,83831.2741200000
4,50.8636901667,-0.0944621667,57.4000000000,3.3750000000,-1.8125000000,317.3125000000,image420.jpg,84032.3157200000
4,50.8636905000,-0.0944640000,57.4000000000,4.0625000000,-1.9375000000,317.6250000000,image421.jpg,84232.3533080000
4,50.8636906667,-0.0944660000,57.4000000000,4.3750000000,-1.3125000000,317.8750000000,image422.jpg,84432.4237390000
4,50.8636910000,-0.0944678333,57.4000000000,3.1875000000,-2.0000000000,318.1250000000,image423.jpg,84632.0713650000
4,50.8636911667,-0.0944700000,57.4000000000,4.5625000000,-3.3125000000,318.7500000000,image424.jpg,84831.6218600000
4,50.8636915000,-0.0944716667,57.4000000000,3.8125000000,-2.0000000000,319.2500000000,image425.jpg,85031.8784330000
4,50.8636918333,-0.0944736667,57.4000000000,2.6875000000,-2.1875000000,315.5625000000,image426.jpg,85232.6474010000
4,50.8636920000,-0.0944756667,57.4000000000,3.5000000000,-2.4375000000,315.0625000000,image427.jpg,85432.7499530000
4,50.8636921667,-0.0944773333,57.4000000000,4.8750000000,-1.2500000000,315.6875000000,image428.jpg,85632.8290270000
4,50.8636923333,-0.0944793333,57.4000000000,4.9375000000,-2.1250000000,315.4375000000,image429.jpg,85831.9087910000
4,50.8636926667,-0.0944811667,57.4000000000,3.6875000000,-3.0625000000,316.0000000000,image430.jpg,86031.8827550000
4,50.8636928333,-0.0944831667,57.4000000000,4.5000000000,-2.7500000000,317.1875000000,image431.jpg,86232.5634800000
4,50.8636931667,-0.0944850000,57.4000000000,4.9375000000,-4.1250000000,317.4375000000,image432.jpg,86433.2549800000
4,50.8636935000,-0.0944871667,57.4000000000,3.9375000000,-3.7500000000,318.6250000000,image433.jpg,86633.2672860000
4,50.8636938333,-0.0944888333,57.4000000000,4.9375000000,-4.1875000000,322.1250000000,image434.jpg,86833.2203820000
4,50.8636941667,-0.0944908333,57.4000000000,4.6250000000,-2.5625000000,323.9375000000,image435.jpg,87032.3407960000
4,50.8636945000,-0.0944926667,57.4000000000,3.3125000000,-1.7500000000,323.8750000000,image436.jpg,87232.4003910000
4,50.8636951667,-0.0944945000,57.5000000000,3.9375000000,-3.2500000000,324.6875000000,image437.jpg,87432.8874390000
4,50.8636955000,-0.0944961667,57.5000000000,3.5625000000,-4.7500000000,328.1875000000,image438.jpg,87632.5590480000
4,50.8636961667,-0.0944978333,57.4000000000,3.1250000000,-3.3125000000,329.9375000000,image439.jpg,87832.5965000000
4,50.8636966667,-0.0944996667,57.5000000000,1.3750000000,-3.3125000000,330.3750000000,image440.jpg,88032.7344660000
4,50.8636971667,-0.0945013333,57.4000000000,5.4375000000,-3.3750000000,331.5000000000,image441.jpg,88232.7911250000
4,50.8636976667,-0.0945028333,57.4000000000,4.5000000000,-2.4375000000,334.4375000000,image442.jpg,88432.8676170000
4,50.8636985000,-0.0945046667,57.5000000000,4.3750000000,-1.1250000000,337.6250000000,image443.jpg,88632.9349470000
4,50.8636991667,-0.0945061667,57.5000000000,5.6875000000,-2.1250000000,337.8750000000,image444.jpg,88832.9873460000
4,50.8636998333,-0.0945080000,57.5000000000,3.7500000000,-3.6250000000,337.3125000000,image445.jpg,89033.0718610000
4,50.8637005000,-0.0945096667,57.5000000000,2.8750000000,-2.6250000000,336.1875000000,image446.jpg,89233.1230100000
4,50.8637011667,-0.0945116667,57.5000000000,4.0625000000,-0.6875000000,336.1250000000,image447.jpg,89433.2013310000
4,50.8637018333,-0.0945131667,57.5000000000,7.0000000000,-1.5000000000,337.6250000000,image448.jpg,89633.7925040000
4,50.8637025000,-0.0945148333,57.5000000000,5.6250000000,-1.3125000000,339.5625000000,image449.jpg,89834.3290350000
4,50.8637031667,-0.0945166667,57.5000000000,5.9375000000,-2.8750000000,340.5000000000,image450.jpg,90034.4278480000
4,50.8637040000,-0.0945181667,57.5000000000,5.1250000000,-2.6875000000,341.2500000000,image451.jpg,90234.4435310000
4,50.8637046667,-0.0945196667,57.5000000000,6.0625000000,-1.9375000000,342.2500000000,image452.jpg,90433.5804460000
4,50.8637055000,-0.0945211667,57.5000000000,8.0000000000,0.2500000000,343.7500000000,image453.jpg,90633.7203390000
4,50.8637061667,-0.0945226667,57.5000000000,5.0625000000,-2.2500000000,343.5000000000,image454.jpg,90834.3073240000
4,50.8637070000,-0.0945241667,57.5000000000,4.0000000000,-3.6250000000,346.1250000000,image455.jpg,91034.7447070000
4,50.8637078333,-0.0945256667,57.5000000000,3.6875000000,-3.1875000000,347.3750000000,image456.jpg,91234.7915810000
4,50.8637086667,-0.0945270000,57.5000000000,3.8750000000,-2.5000000000,346.5000000000,image457.jpg,91434.6850000000
4,50.8637093333,-0.0945283333,57.5000000000,3.1250000000,-2.1875000000,344.9375000000,image458.jpg,91634.0360380000
4,50.8637101667,-0.0945300000,57.5000000000,4.7500000000,-2.1250000000,345.1875000000,image459.jpg,91834.0941940000
4,50.8637111667,-0.0945315000,57.5000000000,4.1875000000,-3.6875000000,345.6250000000,image460.jpg,92035.0194720000
4,50.8637120000,-0.0945331667,57.5000000000,2.8750000000,-4.0000000000,346.2500000000,image461.jpg,92235.1809040000
4,50.8637128333,-0.0945348333,57.5000000000,3.8125000000,-3.0625000000,345.6250000000,image462.jpg,92435.2314600000
4,50.8637136667,-0.0945363333,57.5000000000,2.8125000000,-0.6250000000,344.1875000000,image463.jpg,92634.2403150000
4,50.8637146667,-0.0945376667,57.5000000000,2.5625000000,-3.5625000000,344.7500000000,image464.jpg,92834.2426840000
4,50.8637153333,-0.0945393333,57.5000000000,5.8125000000,-3.0625000000,349.1875000000,image465.jpg,93034.7034470000
4,50.8637163333,-0.0945405000,57.5000000000,1.6875000000,-1.1875000000,349.8125000000,image466.jpg,93234.4728710000
4,50.8637171667,-0.0945421667,57.5000000000,4.1875000000,-2.2500000000,348.8750000000,image467.jpg,93434.5431200000
4,50.8637180000,-0.0945433333,57.5000000000,6.3125000000,-2.7500000000,352.9375000000,image468.jpg,93634.6297650000
4,50.8637190000,-0.0945446667,57.5000000000,7.1250000000,-2.2500000000,359.7500000000,image469.jpg,93834.6854830000
4,50.8637201667,-0.0945456667,57.5000000000,4.6875000000,-3.2500000000,5.3750000000,image470.jpg,94034.7797730000
4,50.8637215000,-0.0945463333,57.6000000000,5.0625000000,-2.0000000000,11.3125000000,image471.jpg,94235.0778070000
4,50.8637226667,-0.0945471667,57.6000000000,7.0625000000,-1.3750000000,17.9375000000,image472.jpg,94434.8834510000
4,50.8637241667,-0.0945475000,57.6000000000,6.1250000000,-1.0625000000,24.6250000000,image473.jpg,94634.9071980000
4,50.8637256667,-0.0945476667,57.5000000000,7.2500000000,-1.8125000000,31.3125000000,image474.jpg,94835.0278500000
4,50.8637268333,-0.0945475000,57.6000000000,4.9375000000,-2.7500000000,35.2500000000,image475.jpg,95035.0758330000
4,50.8637276667,-0.0945475000,57.6000000000,8.0000000000,-2.0000000000,38.4375000000,image476.jpg,95235.4524940000
4,50.8637288333,-0.0945470000,57.6000000000,6.7500000000,-2.8125000000,43.6875000000,image477.jpg,95436.4281580000
4,50.8637298333,-0.0945463333,57.6000000000,6.6875000000,-1.6250000000,50.0000000000,image478.jpg,95636.2521230000
4,50.8637310000,-0.0945456667,57.6000000000,4.8750000000,-1.5000000000,54.3750000000,image479.jpg,95836.3052580000
4,50.8637321667,-0.0945448333,57.6000000000,6.1875000000,-0.3125000000,61.5000000000,image480.jpg,96035.4133720000
4,50.8637330000,-0.0945435000,57.6000000000,5.3750000000,-1.8125000000,67.8750000000,image481.jpg,96235.4869140000
4,50.8637341667,-0.0945421667,57.6000000000,4.5000000000,-2.9375000000,73.6875000000,image482.jpg,96435.9850230000
4,50.8637350000,-0.0945406667,57.6000000000,5.1250000000,-2.2500000000,81.3750000000,image483.jpg,96636.5506950000
4,50.8637358333,-0.0945390000,57.6000000000,1.9375000000,0.0625000000,85.1250000000,image484.jpg,96836.6275980000
4,50.8637365000,-0.0945370000,57.6000000000,3.9375000000,-0.6875000000,92.9375000000,image485.jpg,97036.4551520000
4,50.8637370000,-0.0945350000,57.6000000000,3.3750000000,-1.8750000000,98.4375000000,image486.jpg,97235.7734910000
4,50.8637373333,-0.0945330000,57.6000000000,3.1250000000,-2.8125000000,104.6875000000,image487.jpg,97435.8814200000
4,50.8637376667,-0.0945311667,57.6000000000,5.8125000000,-1.4375000000,111.8750000000,image488.jpg,97636.8129640000
4,50.8637378333,-0.0945286667,57.6000000000,5.7500000000,-0.7500000000,119.1250000000,image489.jpg,97836.9146540000
4,50.8637378333,-0.0945258333,57.6000000000,5.5000000000,-1.8125000000,125.7500000000,image490.jpg,98037.0541370000
4,50.8637376667,-0.0945230000,57.6000000000,5.5000000000,-2.2500000000,133.0625000000,image491.jpg,98236.0577460000
4,50.8637370000,-0.0945203333,57.6000000000,4.7500000000,-1.2500000000,136.7500000000,image492.jpg,98436.2507950000
4,50.8637365000,-0.0945175000,57.6000000000,2.5000000000,-1.2500000000,137.3125000000,image493.jpg,98636.5506550000
4,50.8637361667,-0.0945143333,57.6000000000,4.5625000000,-0.6875000000,137.0000000000,image494.jpg,98836.3004270000
4,50.8637355000,-0.0945113333,57.6000000000,2.8750000000,-0.9375000000,137.2500000000,image495.jpg,99036.4548890000
4,50.8637353333,-0.0945081667,57.6000000000,4.3750000000,-1.6875000000,137.4375000000,image496.jpg,99236.5069030000
4,50.8637346667,-0.0945050000,57.6000000000,3.5625000000,-1.1250000000,137.8125000000,image497.jpg,99436.5691730000
4,50.8637341667,-0.0945020000,57.6000000000,3.4375000000,-2.8125000000,137.3750000000,image498.jpg,99636.6641670000
4,50.8637338333,-0.0944986667,57.5000000000,2.0625000000,-2.8750000000,137.1250000000,image499.jpg,99836.7179690000
4,50.8637333333,-0.0944958333,57.5000000000,4.6875000000,-1.6875000000,136.3750000000,image500.jpg,100036.7451700000
4,50.8637328333,-0.0944926667,57.5000000000,4.0000000000,-0.6875000000,136.0625000000,image501.jpg,100236.8523310000
4,50.8637325000,-0.0944895000,57.5000000000,5.5625000000,-1.6875000000,136.8750000000,image502.jpg,100436.9098290000
4,50.8637320000,-0.0944866667,57.5000000000,5.4375000000,-2.0000000000,137.5000000000,image503.jpg,100637.0215450000
4,50.8637315000,-0.0944835000,57.5000000000,4.0625000000,-3.4375000000,137.2500000000,image504.jpg,100837.4612470000
4,50.8637310000,-0.0944805000,57.5000000000,5.8125000000,-2.3750000000,137.3125000000,image505.jpg,101038.0998090000
4,50.8637303333,-0.0944775000,57.5000000000,3.0000000000,-2.4375000000,137.5000000000,image506.jpg,101238.1324210000
4,50.8637300000,-0.0944745000,57.5000000000,2.5000000000,-1.4375000000,133.3750000000,image507.jpg,101438.1885110000
4,50.8637296667,-0.0944716667,57.5000000000,1.8125000000,-2.6875000000,130.3125000000,image508.jpg,101637.3317330000
4,50.8637295000,-0.0944685000,57.5000000000,2.4375000000,-2.8750000000,128.8750000000,image509.jpg,101837.3675490000
4,50.8637293333,-0.0944658333,57.5000000000,2.6250000000,0.0000000000,128.5000000000,image510.jpg,102037.9971900000
4,50.8637290000,-0.0944628333,57.5000000000,3.8750000000,-1.8750000000,129.5000000000,image511.jpg,102238.4094880000
4,50.8637288333,-0.0944598333,57.5000000000,3.2500000000,-2.0000000000,132.5000000000,image512.jpg,102438.5068890000
4,50.8637283333,-0.0944570000,57.5000000000,4.0000000000,0.0000000000,136.3750000000,image513.jpg,102638.4591610000
4,50.8637280000,-0.0944543333,57.5000000000,4.8750000000,0.4375000000,139.3750000000,image514.jpg,102837.5602800000
4,50.8637275000,-0.0944513333,57.5000000000,3.2500000000,-1.0625000000,141.1250000000,image515.jpg,103037.7608690000
4,50.8637266667,-0.0944486667,57.5000000000,4.2500000000,-0.2500000000,142.6250000000,image516.jpg,103238.6411820000
4,50.8637260000,-0.0944456667,57.5000000000,2.6250000000,0.0625000000,143.6875000000,image517.jpg,103438.7949190000
4,50.8637251667,-0.0944428333,57.5000000000,3.0000000000,-0.8125000000,144.2500000000,image518.jpg,103638.8874390000
