gps quality,lat,lon,altitude,roll,pitch,yaw,image name,timestamp
4,50.86342733,-0.093931167,56.7,5.1875,-2.4375,0,image0.jpg,2.100192
4,50.86342733,-0.093931167,56.7,5.1875,-2.4375,0,image1.jpg,202.095855
4,50.86342733,-0.093931167,56.6,5.1875,-2.4375,0,image2.jpg,402.905042
4,50.86342733,-0.093931167,56.6,5.1875,-2.4375,0,image3.jpg,602.887736
4,50.86342733,-0.093931333,56.6,5.1875,-2.4375,0,image4.jpg,803.385139
4,50.86342733,-0.093931167,56.7,5.1875,-2.4375,0,image5.jpg,1002.345447
4,50.86342733,-0.093931167,56.7,5.1875,-2.4375,0,image6.jpg,1202.5082
4,50.86342733,-0.093931167,56.7,5.1875,-2.4375,0,image7.jpg,1403.27374
4,50.86342733,-0.093931167,56.6,5.1875,-2.4375,0,image8.jpg,1603.543685
4,50.86342733,-0.093931167,56.6,5.1875,-2.4375,0,image9.jpg,1803.866602
4,50.86342733,-0.093931167,56.6,5.1875,-2.4375,0,image10.jpg,2002.959311
4,50.86342733,-0.093931167,56.6,5.1875,-2.4375,0,image11.jpg,2202.873148
4,50.86342733,-0.093931333,56.7,5.1875,-2.4375,0,image12.jpg,2403.166428
4,50.86342733,-0.093931333,56.7,5.1875,-2.4375,0,image13.jpg,2604.119631
4,50.86342733,-0.093931333,56.7,5.1875,-2.4375,0,image14.jpg,2804.244883
4,50.86342733,-0.093931333,56.7,5.375,-2.0625,359.9375,image15.jpg,3004.246797
4,50.86342767,-0.093931833,56.7,5.25,-1.3125,359.9375,image16.jpg,3203.266273
4,50.86342817,-0.093932333,56.7,5.5625,-1.625,359.8125,image17.jpg,3403.477779
4,50.86342867,-0.093933167,56.7,5.75,-1.5,359.625,image18.jpg,3604.19342
4,50.86342917,-0.093933667,56.7,5.9375,-1.6875,0.3125,image19.jpg,3803.600414
4,50.86342983,-0.0939345,56.7,6.3125,-2.125,1.3125,image20.jpg,4003.687852
4,50.86343033,-0.093935167,56.7,6,-1.75,1.625,image21.jpg,4203.647212
4,50.863431,-0.093936,56.7,6.5625,-1.5,1.4375,image22.jpg,4403.780485
4,50.86343167,-0.093936667,56.7,7.5,-1.3125,2,image23.jpg,4604.095485
4,50.86343233,-0.0939375,56.7,7.8125,-1.625,2.8125,image24.jpg,4803.972446
4,50.86343317,-0.093938167,56.7,8.0625,-1.25,4.8125,image25.jpg,5004.007017
4,50.86343383,-0.093939167,56.7,7.0625,-1.5625,5.375,image26.jpg,5204.068048
4,50.86343483,-0.09394,56.7,9.25,-2.125,5.375,image27.jpg,5404.215437
4,50.86343567,-0.093941167,56.7,9.375,-1.8125,5.8125,image28.jpg,5604.627576
4,50.86343667,-0.093942,56.7,8.9375,-0.75,6,image29.jpg,5805.582655
4,50.86343767,-0.093943167,56.7,10.3125,-0.875,5.8125,image30.jpg,6005.578422
4,50.86343867,-0.093944,56.7,9.875,-1.0625,6.25,image31.jpg,6205.551898
4,50.86343967,-0.093945,56.7,10,-0.75,6.5625,image32.jpg,6404.651951
4,50.86344067,-0.093945833,56.7,10,-0.25,6.8125,image33.jpg,6604.652406
4,50.8634415,-0.093946667,56.7,9.9375,-1,7.25,image34.jpg,6805.297993
4,50.8634425,-0.093947833,56.7,10.375,-0.0625,7,image35.jpg,7005.924933
4,50.8634435,-0.093948667,56.7,9.625,-1.125,7.625,image36.jpg,7205.930025
4,50.86344433,-0.093949667,56.7,11.125,-0.875,7.9375,image37.jpg,7404.992941
4,50.86344533,-0.093950667,56.7,11.5,-1.375,9.8125,image38.jpg,7604.994074
4,50.86344633,-0.093951333,56.7,10.375,-0.25,11.125,image39.jpg,7805.298761
4,50.86344733,-0.093952333,56.7,10.6875,-0.5,12.8125,image40.jpg,8006.271966
4,50.8634485,-0.093952833,56.7,12,0.3125,16.5625,image41.jpg,8206.328309
4,50.8634495,-0.093953333,56.7,10.8125,0.5,21.875,image42.jpg,8406.235219
4,50.8634505,-0.093953667,56.7,10,1,26.25,image43.jpg,8605.407932
4,50.8634515,-0.093954,56.7,9.875,-0.0625,27.6875,image44.jpg,8805.542299
4,50.86345267,-0.093954167,56.7,7.25,0.375,27.875,image45.jpg,9005.603591
4,50.86345383,-0.0939545,56.7,8.625,-0.0625,30,image46.jpg,9205.622693
4,50.86345483,-0.093954667,56.7,9.25,0.375,32.3125,image47.jpg,9405.844825
4,50.86345583,-0.093954833,56.7,9,-0.25,31.8125,image48.jpg,9605.903095
4,50.86345683,-0.093954833,56.7,6.4375,1.125,32.5,image49.jpg,9805.992565
4,50.86345783,-0.093955,56.7,5.8125,0.625,33.5625,image50.jpg,10006.14485
4,50.86345883,-0.093955167,56.7,7.1875,0.25,33.9375,image51.jpg,10206.10978
4,50.86346,-0.093955167,56.7,4.75,-0.5625,33.3125,image52.jpg,10406.14561
4,50.86346083,-0.093955333,56.7,3.875,-0.6875,30.625,image53.jpg,10606.25591
4,50.863462,-0.093955667,56.7,4.5625,-0.125,27.125,image54.jpg,10806.29527
4,50.86346283,-0.093956,56.7,4,-0.25,22.125,image55.jpg,11006.89555
4,50.863464,-0.0939565,56.7,4.125,-0.9375,22.125,image56.jpg,11207.55515
4,50.863465,-0.093957,56.7,5.5,-0.5,22.5625,image57.jpg,11407.43112
4,50.863466,-0.0939575,56.8,4.875,-1.875,22.125,image58.jpg,11607.52382
4,50.86346717,-0.093958,56.7,5.8125,-0.75,20.8125,image59.jpg,11806.62033
4,50.8634685,-0.093958667,56.8,5,-0.4375,20,image60.jpg,12006.75157
4,50.86346967,-0.093959333,56.7,4.625,-0.4375,20.375,image61.jpg,12207.64352
4,50.863471,-0.093959833,56.7,5.0625,-0.9375,21.125,image62.jpg,12407.8381
4,50.86347217,-0.093960333,56.8,4.5625,-1.1875,22.9375,image63.jpg,12607.9558
4,50.8634735,-0.093960833,56.8,5.8125,-1.25,23.9375,image64.jpg,12807.01632
4,50.86347483,-0.093961333,56.8,5,-0.5625,23.5625,image65.jpg,13007.10428
4,50.86347617,-0.093962,56.7,4.5,-0.9375,22.5,image66.jpg,13207.70971
4,50.86347733,-0.0939625,56.7,6,-0.5,22.1875,image67.jpg,13408.28873
4,50.86347883,-0.093963167,56.8,4.4375,-1.1875,22.5,image68.jpg,13608.58462
4,50.86348017,-0.0939635,56.8,5.0625,-1.25,22.8125,image69.jpg,13808.11505
4,50.86348133,-0.093964,56.7,4.3125,-1.4375,22,image70.jpg,14007.47189
4,50.86348267,-0.093964667,56.7,5.9375,0,21.625,image71.jpg,14207.82512
4,50.863484,-0.093965167,56.8,4.3125,-0.6875,21.5625,image72.jpg,14407.61937
4,50.86348533,-0.093965833,56.7,6.375,-0.9375,22.125,image73.jpg,14607.7004
4,50.86348667,-0.093966333,56.7,4.8125,-1.375,22.25,image74.jpg,14807.74513
4,50.86348783,-0.093967,56.7,7.5,-0.5,20.25,image75.jpg,15007.82715
4,50.86348917,-0.093967667,56.7,6.75,-0.625,19.5,image76.jpg,15207.90485
4,50.8634905,-0.093968333,56.7,8.5,-1.75,18.5625,image77.jpg,15407.96385
4,50.8634915,-0.093969,56.7,6.5625,-0.625,18.75,image78.jpg,15608.08197
4,50.86349283,-0.093969667,56.7,6.5625,1.1875,19.625,image79.jpg,15808.10935
4,50.863494,-0.093970167,56.7,7.625,0.875,19.3125,image80.jpg,16008.22211
4,50.86349517,-0.093970667,56.7,5.125,-0.5625,19.4375,image81.jpg,16208.2934
4,50.8634965,-0.093971167,56.8,5.8125,-0.0625,19.5625,image82.jpg,16409.08722
4,50.86349783,-0.093972,56.8,4.1875,0.125,19.125,image83.jpg,16609.38556
4,50.863499,-0.093972333,56.7,5.5625,0.5625,18.625,image84.jpg,16809.45112
4,50.86350017,-0.093973167,56.8,6.25,0.8125,18.3125,image85.jpg,17009.08547
4,50.8635015,-0.093973667,56.8,6.125,0.3125,16.8125,image86.jpg,17208.64101
4,50.8635025,-0.093974667,56.8,6.5,0.375,14.9375,image87.jpg,17408.99106
4,50.86350367,-0.093975333,56.8,6.5625,0.8125,12.5625,image88.jpg,17609.76306
4,50.86350483,-0.093976333,56.8,7,-0.6875,9.9375,image89.jpg,17809.92306
4,50.863506,-0.093977333,56.8,8.0625,-1.125,9.5625,image90.jpg,18009.92377
4,50.863507,-0.093978167,56.8,6.75,0.3125,9.8125,image91.jpg,18208.98789
4,50.86350817,-0.093979,56.8,7.625,0.5,10.75,image92.jpg,18409.04444
4,50.86350933,-0.093979833,56.8,8.6875,1.3125,11.6875,image93.jpg,18610.10801
4,50.86351033,-0.093980833,56.8,8.6875,1.625,11.5,image94.jpg,18810.16837
4,50.8635115,-0.093981667,56.8,8,0.1875,10.5,image95.jpg,19010.26247
4,50.86351267,-0.093982833,56.8,8.9375,0.1875,10.375,image96.jpg,19209.33044
4,50.86351383,-0.093983667,56.8,8.5625,0.875,11.3125,image97.jpg,19409.4034
4,50.863515,-0.0939845,56.8,8.3125,0.5,12.0625,image98.jpg,19609.95774
4,50.86351617,-0.0939855,56.8,7.625,0,13.1875,image99.jpg,19809.43932
4,50.8635175,-0.093986167,56.8,7.5625,-2,13.5,image100.jpg,20009.57223
4,50.86351867,-0.093987167,56.8,8.125,-0.5625,13.9375,image101.jpg,20209.70884
4,50.86351967,-0.093987833,56.8,7.625,-1.3125,14.625,image102.jpg,20409.7806
4,50.86352083,-0.093988667,56.8,8.9375,-0.9375,14.8125,image103.jpg,20610.07893
4,50.863522,-0.0939895,56.8,8.875,-1.6875,14.75,image104.jpg,20809.92021
4,50.86352317,-0.093990333,56.8,9.6875,-1.25,15.625,image105.jpg,21009.90057
4,50.8635245,-0.093991167,56.8,8.5625,-1.0625,16.0625,image106.jpg,21209.95509
4,50.86352567,-0.093992,56.8,7.5,-1.625,13.4375,image107.jpg,21410.06268
4,50.86352683,-0.093992833,56.8,7,-1.1875,9.3125,image108.jpg,21610.33815
4,50.86352783,-0.093993833,56.8,6.375,-1.1875,7,image109.jpg,21811.36001
4,50.86352883,-0.093994833,56.8,7.25,-0.8125,7.6875,image110.jpg,22011.22207
4,50.86352983,-0.093995833,56.8,6.875,-0.0625,7.3125,image111.jpg,22211.2492
4,50.863531,-0.093996667,56.8,6.6875,-0.8125,4.4375,image112.jpg,22410.34107
4,50.863532,-0.093998,56.8,5.875,-1.6875,0.25,image113.jpg,22610.43356
4,50.86353283,-0.093999333,56.8,6.625,-1.5,357,image114.jpg,22811.18702
4,50.86353367,-0.0940005,56.9,6.4375,-0.375,356.1875,image115.jpg,23011.54218
4,50.8635345,-0.094001667,56.8,7.25,-1.5625,356.75,image116.jpg,23211.72051
4,50.8635355,-0.094003,56.9,6.5,-1.5,354.9375,image117.jpg,23410.84213
4,50.86353633,-0.094004333,56.9,6.625,-3.1875,352.9375,image118.jpg,23610.80373
4,50.86353717,-0.094005833,56.9,7.125,-3.125,352.1875,image119.jpg,23811.23134
4,50.863538,-0.094007167,56.9,6.1875,-3.0625,351.8125,image120.jpg,24011.89719
4,50.86353883,-0.094008667,56.8,6.4375,-2.25,349.25,image121.jpg,24211.95181
4,50.8635395,-0.094010167,56.8,7.8125,-3.375,347.4375,image122.jpg,24411.91471
4,50.86354033,-0.094011667,56.8,7.3125,-2.0625,346.8125,image123.jpg,24611.18884
4,50.863541,-0.094013167,56.8,7.4375,-3.0625,342.4375,image124.jpg,24811.33399
4,50.8635415,-0.094014833,56.8,9.375,-2.8125,341.5625,image125.jpg,25011.47883
4,50.86354217,-0.0940165,56.8,9.75,-2.625,341.6875,image126.jpg,25211.35027
4,50.86354283,-0.094018,56.8,10,-2.6875,343.875,image127.jpg,25411.4287
4,50.86354333,-0.0940195,56.8,8.5625,-2.1875,348.4375,image128.jpg,25611.50749
4,50.86354417,-0.094020667,56.8,9.0625,-2.25,348.9375,image129.jpg,25811.57733
4,50.86354483,-0.094022167,56.8,8.125,-1.25,349.625,image130.jpg,26011.63732
4,50.8635455,-0.0940235,56.8,6.625,-1.625,348.1875,image131.jpg,26211.71324
4,50.86354633,-0.094024833,56.8,6.3125,-1.5625,348.1875,image132.jpg,26411.77193
4,50.86354717,-0.094026167,56.8,7.3125,-0.875,349,image133.jpg,26611.86521
4,50.86354783,-0.0940275,56.8,6.8125,-1.75,349.625,image134.jpg,26811.86821
4,50.8635485,-0.094028667,56.8,7.6875,-1.5625,350.875,image135.jpg,27012.73715
4,50.86354933,-0.09403,56.8,7.125,-1.875,352.8125,image136.jpg,27213.03454
4,50.86355017,-0.094031167,56.8,7.0625,-1.75,353.875,image137.jpg,27413.29522
4,50.86355083,-0.094032333,56.9,8,-0.75,356.75,image138.jpg,27612.71294
4,50.86355167,-0.094033333,56.8,8.4375,-1.4375,357.4375,image139.jpg,27812.28682
4,50.86355267,-0.094034667,56.9,5.8125,-0.9375,358.125,image140.jpg,28012.64255
4,50.8635535,-0.094035667,56.9,6.375,-0.625,356.9375,image141.jpg,28213.42971
4,50.86355417,-0.094036833,56.9,7.5625,-1.1875,353.6875,image142.jpg,28413.4449
4,50.863555,-0.094038167,56.9,5.5625,-1.25,353.875,image143.jpg,28613.59709
4,50.86355583,-0.094039333,56.9,7.3125,-1.375,354.5,image144.jpg,28812.61375
4,50.86355667,-0.0940405,56.9,6.1875,-0.5,353.9375,image145.jpg,29012.70739
4,50.86355733,-0.0940415,56.9,5.5,-0.25,352,image146.jpg,29213.61085
4,50.863558,-0.094042833,56.9,5.375,-0.25,351.4375,image147.jpg,29413.83924
4,50.86355883,-0.094043833,56.9,4.125,-1.0625,347.9375,image148.jpg,29614.09377
4,50.86355933,-0.094045167,56.9,6.25,-1.5625,344,image149.jpg,29812.95803
4,50.86355983,-0.0940465,56.9,6.6875,-0.6875,342.0625,image150.jpg,30013.01761
4,50.86356033,-0.094047667,56.9,4.4375,-0.75,342.125,image151.jpg,30213.62996
4,50.86356117,-0.094049167,56.9,5.875,-2.4375,341.4375,image152.jpg,30413.15509
4,50.86356167,-0.094050833,56.9,3.5625,-3.375,340.625,image153.jpg,30613.25617
4,50.86356217,-0.094052167,56.9,4.0625,-2.3125,341,image154.jpg,30813.30294
4,50.86356283,-0.094053667,56.9,4.75,-2,342.25,image155.jpg,31013.37084
4,50.8635635,-0.094055,56.9,4.1875,-1.0625,342.5625,image156.jpg,31213.70866
4,50.863564,-0.0940565,56.9,3.75,-0.1875,343.8125,image157.jpg,31413.51098
4,50.86356467,-0.094057667,56.9,4.25,-0.75,344.25,image158.jpg,31613.58962
4,50.86356533,-0.094059167,56.9,4.8125,-1.6875,342.8125,image159.jpg,31813.58778
4,50.863566,-0.094060667,56.9,5,-1.1875,341.5,image160.jpg,32013.7407
4,50.8635665,-0.094062,56.9,4.9375,-1.4375,341.5625,image161.jpg,32213.70886
4,50.86356717,-0.094063667,56.9,4.375,-1.1875,341.375,image162.jpg,32414.94583
4,50.86356783,-0.094065167,56.9,6.5,-3.125,340.0625,image163.jpg,32614.90607
4,50.86356833,-0.094066833,56.9,5.1875,-2.5625,340,image164.jpg,32814.97372
4,50.863569,-0.094068167,56.9,5.25,-2.1875,339.375,image165.jpg,33014.09044
4,50.86356967,-0.094069667,56.9,5.75,-1.5,340,image166.jpg,33214.14017
4,50.86357017,-0.094071167,56.9,4.5,-1.5,340.1875,image167.jpg,33414.66487
4,50.86357067,-0.0940725,56.9,5,-1.5,340.8125,image168.jpg,33615.16295
4,50.86357133,-0.094074,56.9,6.0625,-1.5,341.6875,image169.jpg,33815.23373
4,50.863572,-0.0940755,56.9,4,-2.75,342,image170.jpg,34015.01256
4,50.86357267,-0.094076833,56.9,5.625,-2.1875,343.375,image171.jpg,34214.41216
4,50.86357333,-0.094078333,56.9,5.125,-2.9375,344.3125,image172.jpg,34414.70195
4,50.86357383,-0.094079667,56.9,3.5,-2.1875,343.5,image173.jpg,34615.54661
4,50.8635745,-0.094081,56.9,5.375,-1.5,342.3125,image174.jpg,34815.54603
4,50.863575,-0.094082167,56.9,3.9375,-0.3125,342.125,image175.jpg,35015.64336
4,50.8635755,-0.094083333,56.9,3.0625,-0.125,342.4375,image176.jpg,35214.6869
4,50.86357617,-0.094084667,57,4.8125,0.25,343.0625,image177.jpg,35414.87148
4,50.86357683,-0.094086,57,4.1875,-0.875,343,image178.jpg,35615.69578
4,50.86357733,-0.094087167,57,4.5625,0.6875,343.125,image179.jpg,35815.00756
4,50.863578,-0.0940885,57,4.6875,0.6875,345.375,image180.jpg,36015.07807
4,50.86357883,-0.094089667,57,3.75,-0.4375,346.1875,image181.jpg,36215.1715
4,50.86357933,-0.094091,57,1.5625,-1.25,346.5625,image182.jpg,36415.22285
4,50.86358,-0.094092167,57,3.5,-1.25,346.3125,image183.jpg,36615.5428
4,50.86358083,-0.094093333,57,2,0.375,346,image184.jpg,36815.38247
4,50.86358133,-0.094094667,57,2.25,0.0625,345.375,image185.jpg,37015.42808
4,50.863582,-0.094096,57,3.5,0.25,345.4375,image186.jpg,37215.48604
4,50.86358267,-0.094097167,57,2.625,-0.5625,344.875,image187.jpg,37415.57744
4,50.86358333,-0.0940985,57,4.0625,-0.375,344.5,image188.jpg,37616.00719
4,50.863584,-0.094099833,57,5.125,-0.4375,344.4375,image189.jpg,37816.66908
4,50.8635845,-0.094101333,57,5.1875,-0.5625,344.3125,image190.jpg,38018.51779
4,50.86358517,-0.094102667,57,5.375,-0.0625,346.75,image191.jpg,38216.90177
4,50.86358583,-0.094103833,57,5.875,-0.125,348.125,image192.jpg,38415.99053
4,50.8635865,-0.094105,57,7.125,0.4375,348.25,image193.jpg,38616.00499
4,50.86358733,-0.094106333,57,6.6875,0.25,348.3125,image194.jpg,38816.84132
4,50.86358783,-0.094107667,57,5.375,-0.75,347.9375,image195.jpg,39017.06408
4,50.86358867,-0.094109,57,6.3125,-2.4375,346.8125,image196.jpg,39217.21819
4,50.8635895,-0.094110333,57,6.0625,-2.125,344.375,image197.jpg,39416.31626
4,50.86358983,-0.094111667,57,4.8125,-1,341.75,image198.jpg,39616.4424
4,50.8635905,-0.094113,57.1,3.0625,-3.6875,342.25,image199.jpg,39816.94174
4,50.86359167,-0.094114667,57,-0.3125,-5.75,345,image200.jpg,40017.62899
4,50.863592,-0.094116,57,4.9375,-3.5,344.5625,image201.jpg,40217.56976
4,50.8635925,-0.094116833,57,5.875,-0.75,344.9375,image202.jpg,40417.62579
4,50.86359333,-0.094118,57,0.3125,0.75,345.1875,image203.jpg,40616.85731
4,50.86359383,-0.0941195,57,7.0625,-1.5625,346.0625,image204.jpg,40816.89564
4,50.86359433,-0.094120833,57,7.875,-1,349.25,image205.jpg,41016.96881
4,50.863595,-0.094122167,57,8.625,-1.0625,351.75,image206.jpg,41216.88905
4,50.86359583,-0.094123167,57.1,9.4375,-1.5,355.5625,image207.jpg,41417.05155
4,50.8635965,-0.094124333,57,8.4375,-2.1875,355.875,image208.jpg,41617.09586
4,50.86359733,-0.094125333,57,8.4375,-2.0625,354.625,image209.jpg,41817.21674
4,50.863598,-0.0941265,57,8.375,-2,354.5625,image210.jpg,42017.49693
4,50.86359867,-0.094127667,57,8.375,-2.3125,354.5,image211.jpg,42217.35432
4,50.8635995,-0.094128667,57,9.75,-2.5625,354.9375,image212.jpg,42417.39733
4,50.86360033,-0.094129833,57,9.5,-3.4375,357.25,image213.jpg,42617.48631
4,50.86360117,-0.094131,57,8.9375,-2.8125,357.3125,image214.jpg,42817.51528
4,50.863602,-0.094132,57,8.5,-2.0625,358.0625,image215.jpg,43017.61199
4,50.86360283,-0.094133167,57,9.375,-2.875,359.5625,image216.jpg,43218.60162
4,50.86360367,-0.094134167,57,8.0625,-0.875,0.4375,image217.jpg,43418.66872
4,50.8636045,-0.094135,57,8.0625,-1.5625,0.75,image218.jpg,43618.75857
4,50.86360517,-0.094135833,57,8.375,-1.5,1.4375,image219.jpg,43818.7116
4,50.863606,-0.094137,57,7.8125,-3.4375,2.75,image220.jpg,44017.95561
4,50.86360683,-0.094137667,57,7.75,-1.625,3.3125,image221.jpg,44217.92294
4,50.86360767,-0.0941385,57,7.75,-0.6875,3.9375,image222.jpg,44418.68113
4,50.8636085,-0.094139333,57,7.0625,-1.375,1.875,image223.jpg,44619.09748
4,50.86360933,-0.094140333,57,7.875,-1.6875,1.625,image224.jpg,44819.15796
4,50.86361,-0.094141167,57,8.5625,-1.125,2.25,image225.jpg,45019.13733
4,50.86361083,-0.094142,57,6.8125,-1.8125,0.4375,image226.jpg,45218.32047
4,50.86361167,-0.094143167,57,6.5,-2.4375,356,image227.jpg,45418.4169
4,50.86361217,-0.094144,57.1,6.75,-1.625,354.25,image228.jpg,45619.02784
4,50.86361283,-0.094145,57.1,6.4375,-1.1875,354.25,image229.jpg,45819.49213
4,50.8636135,-0.094145833,57.1,8,-1.5,354.5625,image230.jpg,46019.51522
4,50.86361417,-0.094147,57.1,6.8125,-2.25,354.9375,image231.jpg,46219.77186
4,50.86361483,-0.094148,57.1,7.375,-2.25,354.0625,image232.jpg,46418.68503
4,50.86361567,-0.094149167,57.1,6.25,-2.375,353.3125,image233.jpg,46618.77773
4,50.86361633,-0.094150167,57.1,5.75,-2.5625,352.375,image234.jpg,46819.36146
4,50.86361717,-0.094151333,57.1,7.8125,-1.875,353.0625,image235.jpg,47018.91886
4,50.86361783,-0.094152333,57.1,6.875,-1.4375,353.8125,image236.jpg,47218.95576
4,50.8636185,-0.094153333,57.1,6.8125,-1.25,354.0625,image237.jpg,47419.06108
4,50.86361933,-0.0941545,57.1,5.5625,-1.375,354.25,image238.jpg,47619.12773
4,50.86362,-0.0941555,57.1,6.6875,-0.875,353.8125,image239.jpg,47819.08146
4,50.86362083,-0.094156667,57.1,7.3125,-0.625,354.4375,image240.jpg,48019.36855
4,50.8636215,-0.094157667,57.1,6.9375,-0.5625,355.625,image241.jpg,48219.30543
4,50.86362217,-0.094158667,57.1,6.5,-1.125,355.8125,image242.jpg,48419.38195
4,50.86362317,-0.094159833,57.1,7.875,-0.375,356.375,image243.jpg,48619.46371
4,50.86362367,-0.094160833,57.1,7.6875,-1.8125,355.3125,image244.jpg,48819.55618
4,50.8636245,-0.094162,57.1,6.25,-1.75,353.8125,image245.jpg,49019.59694
4,50.86362533,-0.094163,57.1,6.875,-2.375,354.625,image246.jpg,49220.35911
4,50.863626,-0.094164167,57.1,5.375,-2.4375,354.875,image247.jpg,49420.68952
4,50.86362683,-0.094165167,57.1,6.1875,-2,353.125,image248.jpg,49620.76099
4,50.8636275,-0.094166333,57.1,5.9375,-2.25,351.625,image249.jpg,49820.82067
4,50.86362817,-0.094167333,57.1,5.5,-1.375,350,image250.jpg,50019.93703
4,50.86362883,-0.0941685,57.1,6.25,-2.25,348.5625,image251.jpg,50219.99593
4,50.8636295,-0.094169667,57.1,5.875,-1.8125,347.8125,image252.jpg,50420.59258
4,50.86363,-0.094171,57.1,5.3125,-2.125,347.4375,image253.jpg,50621.15836
4,50.86363083,-0.094172167,57.1,6.8125,-2.125,347.75,image254.jpg,50821.17127
4,50.8636315,-0.094173333,57.1,5.6875,-2.3125,347.75,image255.jpg,51021.14951
4,50.86363233,-0.094174667,57.1,5.8125,-1.5,347,image256.jpg,51220.34921
4,50.86363283,-0.094176,57.1,7.0625,-1.125,346.5625,image257.jpg,51420.40071
4,50.8636335,-0.094177333,57.1,6.0625,-2.4375,345.9375,image258.jpg,51621.12375
4,50.8636345,-0.094179333,57.1,7.125,-2.125,346.25,image259.jpg,51821.61098
4,50.863635,-0.09418,57.1,6.625,-2.0625,346.375,image260.jpg,52021.47918
4,50.86363567,-0.094181333,57.1,7,-1.8125,346.6875,image261.jpg,52221.48714
4,50.86363633,-0.094182833,57.1,6.875,-2.5,346.9375,image262.jpg,52420.74567
4,50.86363717,-0.094184,57.1,7.5625,-2,347.4375,image263.jpg,52620.80551
4,50.86363767,-0.0941855,57.1,8.75,-1.375,347.3125,image264.jpg,52821.29478
4,50.8636385,-0.094186667,57.1,8.75,-1.125,347.375,image265.jpg,53020.94143
4,50.86363933,-0.094188,57.1,9.5,-1.5,348.75,image266.jpg,53220.98806
4,50.86364,-0.094189333,57.1,9.5,-2.6875,349.1875,image267.jpg,53421.03151
4,50.86364067,-0.094190667,57.1,9.3125,-2.25,347.625,image268.jpg,53620.96288
4,50.86364133,-0.094192167,57.1,9.5625,-1.625,346.3125,image269.jpg,53821.17161
4,50.86364217,-0.0941935,57.1,9.625,-1.5625,346.25,image270.jpg,54021.25661
4,50.86364283,-0.094195,57.1,10,-2.125,345.9375,image271.jpg,54221.29893
4,50.86364383,-0.094197167,57.1,8.25,-2.375,344.875,image272.jpg,54421.28012
4,50.86364417,-0.094198,57.1,7.8125,-2.0625,344.875,image273.jpg,54621.34782
4,50.86364517,-0.094200333,57.1,9.25,-2.25,345.625,image274.jpg,54821.8717
4,50.863646,-0.094201667,57.1,7.75,-2.625,346.0625,image275.jpg,55021.93336
4,50.86364683,-0.094203167,57.1,7.625,-2.625,346.5,image276.jpg,55222.70342
4,50.8636475,-0.0942045,57.1,8,-2.3125,345.3125,image277.jpg,55422.65778
4,50.86364783,-0.094205333,57.1,8.1875,-2.375,343.8125,image278.jpg,55622.57494
4,50.86364883,-0.094207333,57.1,8.125,-1.9375,344.3125,image279.jpg,55822.06049
4,50.8636495,-0.094208833,57.1,8.5,-3,344.4375,image280.jpg,56021.93065
4,50.86365017,-0.094210167,57.1,7.9375,-2.25,343.3125,image281.jpg,56222.26901
4,50.86365083,-0.094211667,57.2,6.625,-3,340.875,image282.jpg,56422.93406
4,50.863651,-0.094212333,57.1,6.625,-2.5,340.3125,image283.jpg,56622.95433
4,50.86365183,-0.094214333,57.1,5.75,-2.5625,339.375,image284.jpg,56823.27391
4,50.86365217,-0.094215,57.2,6.1875,-2.625,338.9375,image285.jpg,57022.09651
4,50.86365283,-0.094217167,57.1,6.25,-2.375,338.25,image286.jpg,57222.49795
4,50.86365333,-0.094218667,57.1,6.125,-2.1875,336.875,image287.jpg,57422.8831
4,50.86365383,-0.094220167,57.1,5.375,-1.6875,336.375,image288.jpg,57623.44493
4,50.8636545,-0.0942215,57.2,5.6875,-1.4375,336.8125,image289.jpg,57823.49935
4,50.863655,-0.094223,57.2,6.125,-2.4375,337.3125,image290.jpg,58023.7325
4,50.86365567,-0.0942245,57.2,6.375,-1.5,340.125,image291.jpg,58222.61739
4,50.86365633,-0.094225833,57.2,7.1875,-1.8125,341.25,image292.jpg,58422.71837
4,50.863657,-0.094227333,57.2,5.25,-1,341.125,image293.jpg,58623.29172
4,50.8636575,-0.094229,57.2,5.5625,-2,338.75,image294.jpg,58822.87666
4,50.863658,-0.094230667,57.2,6.5625,-1.5,337.25,image295.jpg,59022.94931
4,50.86365867,-0.094231833,57.2,6.4375,-1.3125,337.3125,image296.jpg,59223.01123
4,50.86365917,-0.094233667,57.2,5.5,-1.875,335.0625,image297.jpg,59423.08331
4,50.86365967,-0.0942355,57.2,4.6875,-2.75,332.875,image298.jpg,59623.4013
4,50.86366017,-0.094237167,57.2,4.6875,-1.625,331.4375,image299.jpg,59823.19588
4,50.86366067,-0.094239,57.2,4.8125,-3.125,331.125,image300.jpg,60023.11192
4,50.86366117,-0.094240667,57.2,4.3125,-2.375,331,image301.jpg,60223.40946
4,50.86366167,-0.094242333,57.2,3,-2.6875,328.1875,image302.jpg,60423.35589
4,50.863662,-0.094244,57.2,4.375,-2.5625,325.8125,image303.jpg,60623.456
4,50.86366233,-0.094245667,57.2,3.1875,-2.8125,322.625,image304.jpg,60823.92271
4,50.8636625,-0.094247167,57.2,4.25,-1.3125,322.75,image305.jpg,61024.76519
4,50.863663,-0.094248833,57.2,5.3125,-2.0625,323.3125,image306.jpg,61224.61362
4,50.86366333,-0.0942505,57.2,4.125,-2.125,324,image307.jpg,61424.64908
4,50.86366367,-0.094252167,57.2,5,-1.875,324.8125,image308.jpg,61624.04659
4,50.863664,-0.094254,57.2,4.8125,-2.4375,325,image309.jpg,61823.84705
4,50.86366433,-0.094255667,57.2,4.875,-2.125,325.4375,image310.jpg,62024.1614
4,50.86366483,-0.094257333,57.2,4.625,-2.6875,325.25,image311.jpg,62224.90575
4,50.86366517,-0.094259,57.2,3.875,-1.5,324.4375,image312.jpg,62424.99789
4,50.8636655,-0.094260667,57.2,3.125,-2.9375,324.375,image313.jpg,62625.05928
4,50.863666,-0.0942625,57.2,3.25,-2.8125,324.5,image314.jpg,62824.18859
4,50.86366633,-0.094264167,57.2,1.6875,-3.25,322.625,image315.jpg,63024.26738
4,50.86366667,-0.094265833,57.2,1.375,-2.6875,321,image316.jpg,63224.82514
4,50.863667,-0.094267667,57.2,1.375,-3.5,320.9375,image317.jpg,63425.56156
4,50.86366733,-0.0942695,57.2,1.5,-3.8125,321.125,image318.jpg,63625.42289
4,50.8636675,-0.094271167,57.2,1.625,-3.9375,321.5625,image319.jpg,63825.55589
4,50.86366783,-0.094273,57.2,1.375,-3,320.75,image320.jpg,64024.60925
4,50.86366817,-0.094275,57.2,2.875,-3.75,320.75,image321.jpg,64224.67558
4,50.8636685,-0.094276667,57.2,1.875,-2.9375,321,image322.jpg,64425.31535
4,50.86366867,-0.0942785,57.2,4,-2.9375,321.375,image323.jpg,64625.21349
4,50.863669,-0.094280167,57.2,1.9375,-2.9375,321.25,image324.jpg,64824.90466
4,50.86366917,-0.094281667,57.2,4.6875,-1.1875,319.625,image325.jpg,65024.97094
4,50.86366933,-0.094283167,57.2,6.5625,0.25,319.25,image326.jpg,65225.07349
4,50.86366967,-0.094284833,57.2,5.5,1.0625,319.1875,image327.jpg,65425.01055
4,50.86366983,-0.094286333,57.2,7.1875,2.4375,320.5,image328.jpg,65625.18656
4,50.86367,-0.094287833,57.3,7.625,1.6875,320.75,image329.jpg,65825.24099
4,50.86367033,-0.094289333,57.3,6.25,1.5,320,image330.jpg,66025.2616
4,50.86367067,-0.094291333,57.3,6.125,-0.5625,319.625,image331.jpg,66225.26154
4,50.86367083,-0.094293,57.3,5.9375,-0.1875,319.625,image332.jpg,66425.33211
4,50.86367117,-0.094294667,57.3,5.4375,0.25,318.9375,image333.jpg,66625.92186
4,50.86367133,-0.0942965,57.3,5.875,0,317.0625,image334.jpg,66826.65719
4,50.8636715,-0.094298333,57.3,4.125,-1.125,316.75,image335.jpg,67026.5803
4,50.86367167,-0.094300167,57.3,6.0625,-2.0625,317.625,image336.jpg,67226.55566
4,50.863672,-0.094302,57.3,5.5625,-2.375,317.8125,image337.jpg,67425.70547
4,50.86367233,-0.094303833,57.3,6,-2.4375,319.875,image338.jpg,67625.79278
4,50.8636725,-0.094305833,57.3,7.125,-2.75,320.25,image339.jpg,67826.10137
4,50.86367283,-0.094307667,57.3,7.0625,-3.6875,319.0625,image340.jpg,68026.82048
4,50.86367317,-0.0943095,57.3,6.375,-2.4375,318.3125,image341.jpg,68226.95352
4,50.86367333,-0.094311333,57.3,7.1875,-2.875,319,image342.jpg,68426.95308
4,50.86367367,-0.094313167,57.3,7.125,-2.1875,317.5625,image343.jpg,68626.10308
4,50.86367367,-0.094315167,57.3,7.6875,-2.6875,316.5625,image344.jpg,68826.06487
4,50.863674,-0.094317,57.3,7.6875,-2.4375,317.4375,image345.jpg,69026.72894
4,50.86367417,-0.094318833,57.3,6.8125,-2.875,317.1875,image346.jpg,69227.23958
4,50.86367433,-0.094320667,57.3,6.5,-3.25,315.75,image347.jpg,69427.32939
4,50.8636745,-0.0943225,57.3,7.6875,-2.75,315,image348.jpg,69627.37699
4,50.86367467,-0.094324333,57.3,7.6875,-1.875,313.9375,image349.jpg,69826.45245
4,50.86367483,-0.094326167,57.3,6.125,-2.4375,313.1875,image350.jpg,70026.4926
4,50.86367483,-0.094328,57.4,8.125,-1.875,313.5,image351.jpg,70227.32465
4,50.86367517,-0.09433,57.4,6.875,-2.625,313.75,image352.jpg,70426.67491
4,50.86367533,-0.094331833,57.4,6.625,-3.0625,314.5625,image353.jpg,70626.76388
4,50.8636755,-0.094333833,57.4,6.75,-3.375,316.375,image354.jpg,70826.84328
4,50.863676,-0.094335667,57.4,5.5625,-2.4375,320.1875,image355.jpg,71026.88181
4,50.86367617,-0.0943375,57.4,6.625,-1.9375,320.75,image356.jpg,71226.95231
4,50.8636765,-0.094339333,57.4,3.9375,-3.1875,319.8125,image357.jpg,71427.02467
4,50.86367667,-0.094341333,57.4,5.5625,-3.1875,319.0625,image358.jpg,71627.07251
4,50.863677,-0.094343167,57.4,5.3125,-4.3125,319.4375,image359.jpg,71827.11112
4,50.86367733,-0.094345,57.4,4,-4.125,320.4375,image360.jpg,72027.20766
4,50.8636775,-0.094346833,57.4,5.25,-4.0625,320.375,image361.jpg,72227.17023
4,50.86367783,-0.094348833,57.4,5.5625,-4.125,320.75,image362.jpg,72427.70848
4,50.86367833,-0.0943505,57.4,4.9375,-2.8125,321.0625,image363.jpg,72628.61508
4,50.8636785,-0.0943525,57.4,5.125,-3.375,321.5625,image364.jpg,72828.41656
4,50.86367883,-0.094354333,57.4,5.0625,-3.6875,321.75,image365.jpg,73028.44506
4,50.86367917,-0.094356167,57.4,4.3125,-3.25,321.75,image366.jpg,73227.61403
4,50.86367967,-0.094358,57.4,2.5,-3.4375,322.375,image367.jpg,73427.68282
4,50.86367983,-0.09436,57.4,4.375,-3.6875,320.4375,image368.jpg,73628.07471
4,50.86368,-0.094361833,57.4,1.9375,-4.125,318.5,image369.jpg,73828.78706
4,50.86368033,-0.094363833,57.4,3.3125,-3.875,317.125,image370.jpg,74028.86075
4,50.8636805,-0.094365833,57.4,4.3125,-3.625,316.8125,image371.jpg,74228.93605
4,50.86368067,-0.094367833,57.4,3.625,-3,317.3125,image372.jpg,74428.04423
4,50.863681,-0.094369833,57.4,3.0625,-4,317.1875,image373.jpg,74628.11376
4,50.86368117,-0.094371667,57.4,3.1875,-4,315.125,image374.jpg,74828.66886
4,50.86368133,-0.094373833,57.4,3.125,-3.8125,313.0625,image375.jpg,75029.1895
4,50.8636815,-0.094375833,57.4,2.5,-4.5625,312.875,image376.jpg,75229.26993
4,50.8636815,-0.094377833,57.4,2.75,-4.6875,311.3125,image377.jpg,75429.25767
4,50.86368167,-0.094379833,57.4,3.8125,-4.375,310.1875,image378.jpg,75628.48252
4,50.86368167,-0.094381833,57.4,2.25,-4.4375,308.8125,image379.jpg,75828.50642
4,50.86368167,-0.094383833,57.4,2.5,-4.5,305.875,image380.jpg,76028.9046
4,50.8636815,-0.094385833,57.3,3.375,-6.1875,305,image381.jpg,76228.59099
4,50.86368167,-0.094387833,57.3,5.875,-5.5,304.75,image382.jpg,76428.71831
4,50.8636815,-0.094389667,57.3,5.75,-4.125,306.1875,image383.jpg,76628.797
4,50.86368167,-0.094391833,57.3,4.6875,-5.25,309.375,image384.jpg,76828.83789
4,50.86368167,-0.094394,57.3,4.9375,-4.875,310.625,image385.jpg,77029.00147
4,50.86368183,-0.094396,57.3,4.75,-4.0625,311.25,image386.jpg,77229.01254
4,50.863682,-0.094397833,57.3,5.0625,-3.625,311.6875,image387.jpg,77429.06046
4,50.86368217,-0.094399833,57.3,4.6875,-3.5,311.875,image388.jpg,77629.14896
4,50.86368233,-0.094401833,57.3,4.6875,-3.6875,312.75,image389.jpg,77829.19666
4,50.8636825,-0.094403833,57.3,5.3125,-3.5,314.3125,image390.jpg,78029.2795
4,50.86368283,-0.094405667,57.3,6.125,-3.5,315.3125,image391.jpg,78230.03902
4,50.863683,-0.094407833,57.3,4.5,-4.1875,315.8125,image392.jpg,78430.35207
4,50.86368317,-0.094409667,57.3,5.25,-4.5625,316.1875,image393.jpg,78630.4823
4,50.8636835,-0.0944115,57.3,4.8125,-3.5625,315.5,image394.jpg,78830.40687
4,50.86368367,-0.0944135,57.3,5.6875,-4.375,315.125,image395.jpg,79029.68771
4,50.86368383,-0.094415667,57.3,4.4375,-4,316.125,image396.jpg,79229.71877
4,50.86368417,-0.094417333,57.3,5.375,-2.875,318.875,image397.jpg,79430.42777
4,50.86368433,-0.094419167,57.3,5.875,-1.8125,319.9375,image398.jpg,79630.78869
4,50.86368467,-0.094421167,57.3,2.875,-3.875,319.5,image399.jpg,79830.85144
4,50.863685,-0.094423,57.3,3.9375,-3.625,317,image400.jpg,80030.7595
4,50.86368517,-0.094425,57.3,4,-2.5,316.1875,image401.jpg,80230.06904
4,50.86368533,-0.094426833,57.3,6.3125,-1.625,316.1875,image402.jpg,80430.1764
4,50.86368567,-0.094428833,57.3,5.3125,-2.75,315.8125,image403.jpg,80631.19768
4,50.86368583,-0.094430833,57.4,5.25,-1.75,314.625,image404.jpg,80831.21735
4,50.86368583,-0.094432667,57.3,5.125,-1.25,314.5,image405.jpg,81031.29697
4,50.86368633,-0.094434833,57.4,4.75,-1.3125,314.9375,image406.jpg,81230.50289
4,50.86368633,-0.094436833,57.4,4.3125,-2.3125,315.4375,image407.jpg,81430.4617
4,50.86368667,-0.094438667,57.4,4.3125,-1.9375,315.4375,image408.jpg,81630.81348
4,50.863687,-0.094440833,57.4,4.1875,-2.1875,317.375,image409.jpg,81830.74068
4,50.86368733,-0.094442667,57.4,4.6875,-2.4375,319.625,image410.jpg,82030.66528
4,50.86368767,-0.094444833,57.4,5.0625,-2.6875,321.625,image411.jpg,82230.72527
4,50.863688,-0.094446667,57.4,5,-3.4375,321.8125,image412.jpg,82430.79009
4,50.8636885,-0.0944485,57.4,4.75,-2.6875,320.0625,image413.jpg,82630.88818
4,50.8636885,-0.094450333,57.4,2.625,-1.9375,318.8125,image414.jpg,82831.15585
4,50.86368883,-0.0944525,57.4,4.75,-3.5625,318.5625,image415.jpg,83030.94081
4,50.86368917,-0.094454333,57.4,4.375,-2.8125,318.625,image416.jpg,83231.07549
4,50.86368967,-0.094456333,57.4,3.75,-2.125,318.125,image417.jpg,83431.18514
4,50.86368967,-0.094458333,57.4,4.75,-2.625,316.875,image418.jpg,83631.21889
4,50.86368983,-0.094460333,57.4,4,-1.9375,316.8125,image419.jpg,83831.27412
4,50.86369017,-0.094462167,57.4,3.375,-1.8125,317.3125,image420.jpg,84032.31572
4,50.8636905,-0.094464,57.4,4.0625,-1.9375,317.625,image421.jpg,84232.35331
4,50.86369067,-0.094466,57.4,4.375,-1.3125,317.875,image422.jpg,84432.42374
4,50.863691,-0.094467833,57.4,3.1875,-2,318.125,image423.jpg,84632.07137
4,50.86369117,-0.09447,57.4,4.5625,-3.3125,318.75,image424.jpg,84831.62186
4,50.8636915,-0.094471667,57.4,3.8125,-2,319.25,image425.jpg,85031.87843
4,50.86369183,-0.094473667,57.4,2.6875,-2.1875,315.5625,image426.jpg,85232.6474
4,50.863692,-0.094475667,57.4,3.5,-2.4375,315.0625,image427.jpg,85432.74995
4,50.86369217,-0.094477333,57.4,4.875,-1.25,315.6875,image428.jpg,85632.82903
4,50.86369233,-0.094479333,57.4,4.9375,-2.125,315.4375,image429.jpg,85831.90879
4,50.86369267,-0.094481167,57.4,3.6875,-3.0625,316,image430.jpg,86031.88276
4,50.86369283,-0.094483167,57.4,4.5,-2.75,317.1875,image431.jpg,86232.56348
4,50.86369317,-0.094485,57.4,4.9375,-4.125,317.4375,image432.jpg,86433.25498
4,50.8636935,-0.094487167,57.4,3.9375,-3.75,318.625,image433.jpg,86633.26729
4,50.86369383,-0.094488833,57.4,4.9375,-4.1875,322.125,image434.jpg,86833.22038
4,50.86369417,-0.094490833,57.4,4.625,-2.5625,323.9375,image435.jpg,87032.3408
4,50.8636945,-0.094492667,57.4,3.3125,-1.75,323.875,image436.jpg,87232.40039
4,50.86369517,-0.0944945,57.5,3.9375,-3.25,324.6875,image437.jpg,87432.88744
4,50.8636955,-0.094496167,57.5,3.5625,-4.75,328.1875,image438.jpg,87632.55905
4,50.86369617,-0.094497833,57.4,3.125,-3.3125,329.9375,image439.jpg,87832.5965
4,50.86369667,-0.094499667,57.5,1.375,-3.3125,330.375,image440.jpg,88032.73447
4,50.86369717,-0.094501333,57.4,5.4375,-3.375,331.5,image441.jpg,88232.79113
4,50.86369767,-0.094502833,57.4,4.5,-2.4375,334.4375,image442.jpg,88432.86762
4,50.8636985,-0.094504667,57.5,4.375,-1.125,337.625,image443.jpg,88632.93495
4,50.86369917,-0.094506167,57.5,5.6875,-2.125,337.875,image444.jpg,88832.98735
4,50.86369983,-0.094508,57.5,3.75,-3.625,337.3125,image445.jpg,89033.07186
4,50.8637005,-0.094509667,57.5,2.875,-2.625,336.1875,image446.jpg,89233.12301
4,50.86370117,-0.094511667,57.5,4.0625,-0.6875,336.125,image447.jpg,89433.20133
4,50.86370183,-0.094513167,57.5,7,-1.5,337.625,image448.jpg,89633.7925
4,50.8637025,-0.094514833,57.5,5.625,-1.3125,339.5625,image449.jpg,89834.32904
4,50.86370317,-0.094516667,57.5,5.9375,-2.875,340.5,image450.jpg,90034.42785
4,50.863704,-0.094518167,57.5,5.125,-2.6875,341.25,image451.jpg,90234.44353
4,50.86370467,-0.094519667,57.5,6.0625,-1.9375,342.25,image452.jpg,90433.58045
4,50.8637055,-0.094521167,57.5,8,0.25,343.75,image453.jpg,90633.72034
4,50.86370617,-0.094522667,57.5,5.0625,-2.25,343.5,image454.jpg,90834.30732
4,50.863707,-0.094524167,57.5,4,-3.625,346.125,image455.jpg,91034.74471
4,50.86370783,-0.094525667,57.5,3.6875,-3.1875,347.375,image456.jpg,91234.79158
4,50.86370867,-0.094527,57.5,3.875,-2.5,346.5,image457.jpg,91434.685
4,50.86370933,-0.094528333,57.5,3.125,-2.1875,344.9375,image458.jpg,91634.03604
4,50.86371017,-0.09453,57.5,4.75,-2.125,345.1875,image459.jpg,91834.09419
4,50.86371117,-0.0945315,57.5,4.1875,-3.6875,345.625,image460.jpg,92035.01947
4,50.863712,-0.094533167,57.5,2.875,-4,346.25,image461.jpg,92235.1809
4,50.86371283,-0.094534833,57.5,3.8125,-3.0625,345.625,image462.jpg,92435.23146
4,50.86371367,-0.094536333,57.5,2.8125,-0.625,344.1875,image463.jpg,92634.24032
4,50.86371467,-0.094537667,57.5,2.5625,-3.5625,344.75,image464.jpg,92834.24268
4,50.86371533,-0.094539333,57.5,5.8125,-3.0625,349.1875,image465.jpg,93034.70345
4,50.86371633,-0.0945405,57.5,1.6875,-1.1875,349.8125,image466.jpg,93234.47287
4,50.86371717,-0.094542167,57.5,4.1875,-2.25,348.875,image467.jpg,93434.54312
4,50.863718,-0.094543333,57.5,6.3125,-2.75,352.9375,image468.jpg,93634.62977
4,50.863719,-0.094544667,57.5,7.125,-2.25,359.75,image469.jpg,93834.68548
4,50.86372017,-0.094545667,57.5,4.6875,-3.25,5.375,image470.jpg,94034.77977
4,50.8637215,-0.094546333,57.6,5.0625,-2,11.3125,image471.jpg,94235.07781