gps quality,lat,lon,altitude,roll,pitch,yaw,image name,timestamp
4,50.86342817,-0.093929,56.7,8,-2.9375,359.9375,image0.jpg,3.462781
4,50.86342817,-0.093929,56.7,8,-2.9375,359.9375,image1.jpg,202.725962
4,50.86342817,-0.093929167,56.7,8,-2.9375,359.9375,image2.jpg,402.816048
4,50.86342817,-0.093929,56.7,8,-2.9375,359.9375,image3.jpg,602.75842
4,50.86342817,-0.093929,56.7,8,-2.9375,359.9375,image4.jpg,801.804822
4,50.863428,-0.093929,56.7,8,-2.9375,359.9375,image5.jpg,1001.875168
4,50.86342817,-0.093929,56.7,8,-2.9375,359.9375,image6.jpg,1202.073955
4,50.863428,-0.093929,56.7,8,-2.9375,359.9375,image7.jpg,1402.815106
4,50.86342817,-0.093929,56.7,8,-2.9375,359.9375,image8.jpg,1603.27182
4,50.86342817,-0.093929,56.7,8,-2.9375,359.9375,image9.jpg,1803.121324
4,50.86342817,-0.093929,56.7,8,-2.9375,359.9375,image10.jpg,2003.185159
4,50.863428,-0.093929,56.7,8,-2.9375,359.9375,image11.jpg,2202.409692
4,50.863428,-0.093929,56.7,8,-2.9375,359.9375,image12.jpg,2402.644887
4,50.86342817,-0.093929,56.7,8,-2.9375,359.9375,image13.jpg,2602.71216
4,50.86342817,-0.093929,56.7,8,-2.9375,359.9375,image14.jpg,2803.318983
4,50.86342817,-0.093929,56.7,8,-2.875,0.0625,image15.jpg,3003.930494
4,50.86342817,-0.093929,56.7,7.75,-2.6875,0.5,image16.jpg,3203.021846
4,50.86342817,-0.093929,56.7,7.5,-1.9375,0.6875,image17.jpg,3403.050367
4,50.8634285,-0.0939295,56.7,8.25,-1.625,1,image18.jpg,3603.057324
4,50.863429,-0.093930167,56.7,9.125,-1.75,0.875,image19.jpg,3803.120222
4,50.8634295,-0.093930667,56.7,10.8125,-1.3125,0.9375,image20.jpg,4003.221193
4,50.86343,-0.093931333,56.7,9.125,-1.4375,0.9375,image21.jpg,4203.495556
4,50.86343067,-0.093932167,56.7,9.625,-2.25,0.1875,image22.jpg,4403.364332
4,50.86343117,-0.093932833,56.7,10.625,-1.5625,359.6875,image23.jpg,4603.435667
4,50.86343167,-0.0939335,56.7,9.75,-2,359.875,image24.jpg,4803.622996
4,50.86343233,-0.093934167,56.7,10.5625,-2.375,359.625,image25.jpg,5003.621464
4,50.863433,-0.093934833,56.7,8.875,-2.0625,359.4375,image26.jpg,5203.672746
4,50.8634335,-0.0939355,56.7,11.0625,-2.4375,0,image27.jpg,5403.79002
4,50.86343433,-0.0939365,56.7,10.6875,-2.5,0.875,image28.jpg,5603.800051
4,50.863435,-0.093937167,56.7,10.9375,-2.5625,2.375,image29.jpg,5804.805639
4,50.86343567,-0.093937833,56.7,10.5625,-1.9375,3.5625,image30.jpg,6005.159536
4,50.86343633,-0.093938667,56.7,11.0625,-2.1875,4.4375,image31.jpg,6205.215558
4,50.86343717,-0.0939395,56.7,11.1875,-1.75,6.375,image32.jpg,6405.237204
4,50.86343783,-0.09394,56.7,10.6875,-1.1875,7.9375,image33.jpg,6604.897274
4,50.86343867,-0.093940667,56.7,10.375,-1.4375,9.125,image34.jpg,6804.328013
4,50.86343933,-0.093941333,56.7,9.125,-1.375,9.3125,image35.jpg,7004.421484
4,50.86344017,-0.093941833,56.7,10.875,0.375,9.25,image36.jpg,7204.807102
4,50.86344083,-0.0939425,56.7,10.8125,-0.75,8.875,image37.jpg,7405.550753
4,50.8634415,-0.093943333,56.7,10.3125,-0.125,9.25,image38.jpg,7605.659224
4,50.8634425,-0.093944,56.7,10.75,-1.0625,9.9375,image39.jpg,7805.755977
4,50.86344317,-0.093944833,56.7,10.4375,0,9.5625,image40.jpg,8005.835021
4,50.86344417,-0.0939455,56.7,11.8125,-1.625,9.3125,image41.jpg,8204.807306
4,50.863445,-0.093946333,56.7,10.875,-1.4375,9.125,image42.jpg,8404.909892
4,50.86344583,-0.093947,56.7,11.125,-1.5,9.4375,image43.jpg,8605.217433
4,50.86344667,-0.093947833,56.7,11.1875,-0.75,10.75,image44.jpg,8805.980043
4,50.86344767,-0.0939485,56.7,10.5,-1.5625,12.75,image45.jpg,9006.093307
4,50.86344867,-0.093949,56.7,10.5,-0.25,14.5625,image46.jpg,9206.213029
4,50.8634495,-0.093949667,56.7,10.5625,-0.75,15.5,image47.jpg,9406.252853
4,50.8634505,-0.09395,56.7,8.3125,0.25,16.4375,image48.jpg,9605.367747
4,50.8634515,-0.093950667,56.7,10,-0.625,17.25,image49.jpg,9805.439343
4,50.8634525,-0.093951333,56.7,9.5625,-0.0625,18.9375,image50.jpg,10005.49964
4,50.86345367,-0.093951667,56.7,6.625,-1.75,21.0625,image51.jpg,10206.16881
4,50.86345467,-0.093951833,56.8,7.5625,-1.125,23.25,image52.jpg,10405.56053
4,50.86345567,-0.093952333,56.8,9.0625,-1.75,24.1875,image53.jpg,10605.6726
4,50.86345667,-0.093952667,56.8,8.3125,-0.375,25.6875,image54.jpg,10805.70487
4,50.86345783,-0.093952833,56.8,5.75,0.0625,27.75,image55.jpg,11005.73402
4,50.86345867,-0.093953,56.8,7.9375,0.0625,29.5,image56.jpg,11205.83426
4,50.86345967,-0.093953333,56.8,7.25,-1.0625,30.0625,image57.jpg,11405.86877
4,50.86346083,-0.093953333,56.8,6.3125,-0.875,30.375,image58.jpg,11606.12204
4,50.863462,-0.0939535,56.8,7.25,-1.3125,31.4375,image59.jpg,11806.05149
4,50.86346317,-0.093953667,56.8,5.125,-1,31.9375,image60.jpg,12006.08616
4,50.86346417,-0.093953833,56.8,5.6875,-2,30.875,image61.jpg,12206.18177
4,50.86346533,-0.093954,56.8,4.875,-1.25,29.3125,image62.jpg,12406.23362
4,50.8634665,-0.093954167,56.8,3.9375,-2.3125,28.0625,image63.jpg,12606.26287
4,50.8634675,-0.093954333,56.8,4.125,-1.625,27.4375,image64.jpg,12806.38838
4,50.86346867,-0.093954833,56.8,5.625,-1.1875,25.625,image65.jpg,13006.84462
4,50.86346967,-0.093955167,56.8,4.0625,-0.4375,24.125,image66.jpg,13207.63582
4,50.86347067,-0.093955333,56.8,4.625,-0.6875,23.625,image67.jpg,13407.4896
4,50.86347167,-0.093956,56.8,4.6875,-2,24.125,image68.jpg,13607.57552
4,50.86347283,-0.093956167,56.8,4.625,-1.5625,24.375,image69.jpg,13807.6529
4,50.863474,-0.0939565,56.8,4.5,-1.8125,23.0625,image70.jpg,14006.79529
4,50.86347517,-0.093957,56.8,4.25,-1.375,22.6875,image71.jpg,14206.9123
4,50.86347617,-0.093957333,56.8,3.1875,-1.75,21.75,image72.jpg,14406.98968
4,50.86347733,-0.093957833,56.8,3.375,-1.6875,22.125,image73.jpg,14607.77787
4,50.8634785,-0.093958167,56.8,3.4375,-2.4375,21.375,image74.jpg,14808.0414
4,50.8634795,-0.093958833,56.8,4.4375,-0.9375,20.0625,image75.jpg,15008.06538
4,50.8634805,-0.093959167,56.8,4.5,-0.8125,19.1875,image76.jpg,15208.20339
4,50.8634815,-0.093959667,56.8,4.9375,-0.3125,19.25,image77.jpg,15407.39933
4,50.86348267,-0.0939605,56.8,6.625,-1.0625,19,image78.jpg,15607.333
4,50.86348383,-0.093961,56.8,6.1875,-0.5625,18.5,image79.jpg,15807.42559
4,50.863485,-0.0939615,56.8,6.0625,-1.125,16.9375,image80.jpg,16007.96517
4,50.86348617,-0.093962167,56.8,5.625,-1.5,15.1875,image81.jpg,16208.49485
4,50.86348733,-0.093963,56.8,6.625,-1.8125,13.875,image82.jpg,16408.55879
4,50.8634885,-0.093963667,56.8,4.3125,-2.0625,13.5625,image83.jpg,16608.60794
4,50.86348967,-0.093964333,56.8,5.125,-1.1875,11.5625,image84.jpg,16808.22702
4,50.86349067,-0.0939655,56.8,6.5625,-2.375,10.3125,image85.jpg,17007.8061
4,50.863492,-0.093966,56.8,6,-2,10.4375,image86.jpg,17207.91321
4,50.86349283,-0.093966833,56.8,5.9375,-1.4375,11.3125,image87.jpg,17408.44092
4,50.863494,-0.093967833,56.8,7.0625,-0.5,11.1875,image88.jpg,17608.04302
4,50.86349517,-0.093968667,56.8,7.25,-0.9375,11.875,image89.jpg,17808.09034
4,50.86349633,-0.093969333,56.8,4.875,-1.625,12.8125,image90.jpg,18008.14423
4,50.8634975,-0.093970167,56.8,5.625,-1.25,12.375,image91.jpg,18208.24452
4,50.8634985,-0.093971,56.8,5.8125,-1,12.625,image92.jpg,18408.25804
4,50.86349967,-0.093971667,56.8,6.5,-0.25,11.75,image93.jpg,18608.3374
4,50.86350067,-0.0939725,56.8,6.8125,-0.3125,11.3125,image94.jpg,18808.64416
4,50.86350167,-0.093973167,56.8,7.125,-0.125,10.8125,image95.jpg,19008.40981
4,50.86350267,-0.093974167,56.8,7.5625,0.5,10.0625,image96.jpg,19208.58583
4,50.86350383,-0.093975,56.8,7.9375,-0.4375,10.4375,image97.jpg,19408.61946
4,50.86350483,-0.093975833,56.8,8.125,-0.9375,11.4375,image98.jpg,19608.70954
4,50.86350617,-0.093976667,56.8,8.4375,-0.875,12.125,image99.jpg,19808.76635
4,50.86350717,-0.0939775,56.8,7.75,-1.0625,11.625,image100.jpg,20008.83289
4,50.86350817,-0.093978333,56.8,7.25,0.5625,11.5,image101.jpg,20209.33346
4,50.86350933,-0.093979,56.8,9.125,0.75,12.0625,image102.jpg,20410.04878
4,50.86351033,-0.09398,56.8,7.625,0.8125,11.9375,image103.jpg,20610.03365
4,50.86351133,-0.093980667,56.8,9.1875,0.3125,12.0625,image104.jpg,20810.13171
4,50.8635125,-0.093981667,56.8,9.75,-0.3125,11.625,image105.jpg,21010.12382
4,50.86351367,-0.093982333,56.8,8.375,0.6875,12.125,image106.jpg,21209.30476
4,50.86351467,-0.093983167,56.8,8.125,0.6875,11.875,image107.jpg,21409.39828
4,50.863516,-0.093984167,56.8,9,-1,11.4375,image108.jpg,21609.50134
4,50.86351717,-0.093985,56.8,8.1875,-2.25,11.125,image109.jpg,21810.21441
4,50.86351833,-0.093986,56.8,8,-1.75,11.0625,image110.jpg,22010.59836
4,50.8635195,-0.093987,56.8,8.0625,-1.5625,11.0625,image111.jpg,22210.74533
4,50.86352067,-0.093987833,56.8,7.8125,-1.25,10.4375,image112.jpg,22410.77911
4,50.86352183,-0.093988667,56.8,9.0625,-2.625,8.1875,image113.jpg,22610.46954
4,50.863523,-0.093989833,56.8,8.3125,-2.5,6.5625,image114.jpg,22809.98404
4,50.86352433,-0.093990833,56.9,8,-2.3125,5.1875,image115.jpg,23010.02344
4,50.86352533,-0.093992,56.9,7.75,-1.9375,5.1875,image116.jpg,23210.64282
4,50.8635265,-0.093993167,56.9,8.3125,-1.125,5.875,image117.jpg,23411.19641
4,50.8635275,-0.093994167,56.9,7.375,-1.6875,6.0625,image118.jpg,23611.2204
4,50.86352867,-0.093995333,56.9,7.0625,-1.625,6.4375,image119.jpg,23811.29715
4,50.86352983,-0.093996167,56.9,6.375,-0.6875,6.125,image120.jpg,24011.19801
4,50.863531,-0.093997333,56.9,7.375,-0.625,5.4375,image121.jpg,24210.49468
4,50.86353217,-0.093998333,56.9,6.75,-1.9375,5.4375,image122.jpg,24410.5405
4,50.86353317,-0.093999667,56.9,6.5,-1.3125,5.1875,image123.jpg,24610.86872
4,50.86353433,-0.094000833,56.9,6.5,-0.5,4.375,image124.jpg,24810.71286
4,50.8635355,-0.094002,56.9,6.5,-1.5625,3.75,image125.jpg,25010.73018
4,50.8635365,-0.094003167,56.9,7.25,-2.625,2.4375,image126.jpg,25210.82964
4,50.86353767,-0.094004333,56.9,5.3125,-2.4375,0.0625,image127.jpg,25410.87634
4,50.86353867,-0.094005667,56.9,6.375,-2.75,357.5,image128.jpg,25610.98028
4,50.86353967,-0.094007,56.9,6.4375,-2.6875,353.5625,image129.jpg,25811.0251
4,50.86354067,-0.094008333,56.9,5.9375,-3.375,351.875,image130.jpg,26011.25556
4,50.86354133,-0.09401,56.9,7.125,-2.4375,350.5,image131.jpg,26211.20731
4,50.86354217,-0.0940115,56.9,7.3125,-2.375,349.4375,image132.jpg,26411.19859
4,50.863543,-0.094012833,56.9,6.75,-2,349.625,image133.jpg,26611.30992
4,50.86354367,-0.094014167,56.9,7.3125,-2.75,349.875,image134.jpg,26811.38626
4,50.8635445,-0.094015833,56.9,6.8125,-3.125,348.8125,image135.jpg,27011.40598
4,50.86354533,-0.094017167,56.9,6.5625,-2.75,349.875,image136.jpg,27211.54643
4,50.86354617,-0.0940185,56.9,6.1875,-2.0625,350.5,image137.jpg,27411.75423
4,50.863547,-0.094020167,56.9,6.9375,-1.4375,350.5625,image138.jpg,27612.57512
4,50.863548,-0.0940215,56.9,5.625,0.125,350.125,image139.jpg,27812.6626
4,50.86354867,-0.094022667,56.9,8.25,-1.5,349.875,image140.jpg,28012.73065
4,50.8635495,-0.094024167,56.9,6.625,-1.5625,349.5625,image141.jpg,28212.87335
4,50.86355033,-0.094025833,56.9,6.25,-1.3125,348.875,image142.jpg,28412.04955
4,50.86355117,-0.094027167,56.9,8.5625,-1.1875,347.4375,image143.jpg,28611.99348
4,50.86355183,-0.094028667,56.9,6.25,-0.625,346.5,image144.jpg,28812.06669
4,50.8635525,-0.094030167,56.9,7.8125,-0.875,344.9375,image145.jpg,29012.64752
4,50.86355317,-0.094031833,56.9,5.375,-1.6875,343.75,image146.jpg,29213.17689
4,50.863554,-0.094033333,56.9,8.4375,-0.5625,343.125,image147.jpg,29413.19594
4,50.86355467,-0.094035,56.9,6.8125,-0.8125,344.3125,image148.jpg,29613.50317
4,50.8635555,-0.0940365,56.9,6.75,-2.25,345.375,image149.jpg,29812.88739
4,50.86355633,-0.094038167,56.9,8.6875,-1.25,345.5625,image150.jpg,30012.45954
4,50.863557,-0.094039667,56.9,6.375,-0.5625,345.625,image151.jpg,30212.5488
4,50.86355783,-0.094041167,56.9,6.125,-0.25,345.1875,image152.jpg,30413.1576
4,50.8635585,-0.094042667,56.9,5.125,-1.0625,344.75,image153.jpg,30613.60983
4,50.86355933,-0.094044167,56.9,6.375,-1.5,344.375,image154.jpg,30813.64601
4,50.86356017,-0.094045833,56.9,4.9375,-1.1875,343.3125,image155.jpg,31013.6875
4,50.86356083,-0.094047333,56.9,5.8125,-1.125,342.6875,image156.jpg,31213.82248
4,50.8635615,-0.094049,56.9,4.6875,-2.875,342.625,image157.jpg,31412.8942
4,50.86356233,-0.094050667,56.9,3.5625,-2.375,342.75,image158.jpg,31612.96902
4,50.86356317,-0.094052167,56.9,2.9375,-3.0625,341.75,image159.jpg,31813.32907
4,50.86356383,-0.094053667,56.9,5.125,-0.4375,341.5625,image160.jpg,32013.74281
4,50.86356433,-0.0940555,56.9,3.1875,-1.1875,340.875,image161.jpg,32213.19756
4,50.86356533,-0.094057167,56.9,3.75,-1.1875,340.875,image162.jpg,32413.24546
4,50.86356583,-0.094059,56.9,5.875,-1.1875,340.5,image163.jpg,32613.50086
4,50.86356667,-0.094060333,56.9,3,-1.3125,340.3125,image164.jpg,32813.3612
4,50.86356733,-0.094062167,56.9,5.375,-2.125,339.625,image165.jpg,33013.35586
4,50.863568,-0.094064,56.9,2.75,-1.75,338.625,image166.jpg,33213.49366
4,50.863569,-0.094066667,56.9,5.3125,-2.1875,338.5,image167.jpg,33413.55479
4,50.86356933,-0.0940675,57,5.0625,-2.75,338.6875,image168.jpg,33613.55091
4,50.86357017,-0.094069333,57,4.3125,-1.5625,339.6875,image169.jpg,33813.71282
4,50.86357083,-0.094071167,57,5.125,-1.4375,340.5625,image170.jpg,34013.74613
4,50.8635715,-0.094072833,57,5.4375,-1.9375,341.25,image171.jpg,34213.74841
4,50.86357267,-0.0940755,57,6.625,-1.5625,342.125,image172.jpg,34414.01673
4,50.8635735,-0.094077333,57,5.1875,-2.8125,343.3125,image173.jpg,34613.94155
4,50.86357433,-0.094079,57,5.375,-3.375,344.25,image174.jpg,34814.87234
4,50.86357483,-0.094079833,57,4.625,-1.6875,345.125,image175.jpg,35014.93867
4,50.863576,-0.094082167,57,3.0625,-0.5,347,image176.jpg,35215.56076
4,50.863577,-0.094083667,57,3.8125,-0.625,347.5625,image177.jpg,35415.11624
4,50.863578,-0.094085167,57,2.375,-0.8125,347.125,image178.jpg,35615.34019
4,50.86357817,-0.094086,57,-0.3125,0.25,344.875,image179.jpg,35814.23606
4,50.86357917,-0.0940875,57,0,0.375,343.1875,image180.jpg,36014.51423
4,50.86358,-0.094089833,57,1.9375,-0.8125,343.0625,image181.jpg,36215.02849
4,50.863581,-0.0940915,57,0.6875,-1.25,343.3125,image182.jpg,36415.69001
4,50.86358183,-0.094093333,57,0,-0.8125,343.5,image183.jpg,36615.78572
4,50.86358267,-0.094094833,57,2.125,-0.375,343.5,image184.jpg,36815.68585
4,50.8635835,-0.0940965,57,0.625,0.4375,342.75,image185.jpg,37015.77385
4,50.86358383,-0.094097333,57,3.375,0.25,343.375,image186.jpg,37214.67134
4,50.863585,-0.094099833,57,2.1875,-0.0625,344.625,image187.jpg,37415.09691
4,50.86358567,-0.0941015,57,3.875,-0.3125,345.375,image188.jpg,37615.21377
4,50.8635865,-0.094103,57,3.5625,-0.1875,345.9375,image189.jpg,37815.74689
4,50.86358733,-0.0941045,57,4.625,0.125,347.75,image190.jpg,38017.59886
4,50.86358817,-0.094106,57,4.8125,-0.1875,349.5,image191.jpg,38216.19598
4,50.86358917,-0.094107667,57,4.375,-0.9375,350,image192.jpg,38416.17533
4,50.86359,-0.094109,57.1,4.9375,-1.5,350.3125,image193.jpg,38615.52315
4,50.863591,-0.094110333,57.1,4.9375,-1.5,350.5625,image194.jpg,38815.36052
4,50.86359167,-0.094112,57.1,8.125,-2.9375,350.8125,image195.jpg,39017.97647
4,50.86359233,-0.094113,57.1,10.9375,-4.1875,351.875,image196.jpg,39217.92286
4,50.86359367,-0.094114833,57.1,6.5,-3.0625,353.4375,image197.jpg,39418.41108
4,50.86359433,-0.094116333,57.1,10.25,1.3125,355.0625,image198.jpg,39618.77545
4,50.86359517,-0.0941175,57.1,8.625,0.125,353.6875,image199.jpg,39818.26432
4,50.86359617,-0.094118833,57.1,7.0625,-1.1875,353.75,image200.jpg,40018.38711
4,50.86359717,-0.09412,57.1,6.625,-0.6875,354.125,image201.jpg,40218.35464
4,50.86359817,-0.094121333,57.1,5.4375,-1.9375,354.3125,image202.jpg,40418.42035
4,50.863599,-0.094123,57.1,6.25,-2,355,image203.jpg,40618.56632
4,50.8636,-0.094124,57.1,6.0625,-1.625,355.5625,image204.jpg,40818.66412
4,50.86360117,-0.0941255,57.1,5.75,-3,356.5,image205.jpg,41018.85035
4,50.863602,-0.094126833,57.1,4.9375,-3,356.5625,image206.jpg,41218.76595
4,50.863603,-0.094128,57.1,4.5,-1.625,356.6875,image207.jpg,41418.83406
4,50.863604,-0.094129333,57.1,5.625,-2.3125,357.1875,image208.jpg,41618.89586
4,50.863605,-0.0941305,57.1,4.75,-3.1875,357.75,image209.jpg,41818.9886
4,50.8636055,-0.094131167,57.1,5.625,-2.25,357.9375,image210.jpg,42018.90483
4,50.86360717,-0.094133167,57.1,5.1875,-2.25,358.3125,image211.jpg,42219.35503
4,50.86360817,-0.0941345,57.1,4.8125,-2.8125,358.3125,image212.jpg,42419.61007
4,50.86360917,-0.094135667,57.1,5.0625,-1.625,358.875,image213.jpg,42620.37341
4,50.86361017,-0.094136833,57.1,5.6875,-1.3125,2.25,image214.jpg,42820.29151
4,50.86361117,-0.094137833,57.1,4.8125,-1,4.125,image215.jpg,43020.36326
4,50.86361233,-0.094138833,57.1,4.1875,-1.75,4.75,image216.jpg,43220.44861
4,50.86361333,-0.094139833,57.1,4.875,-2.4375,5.6875,image217.jpg,43419.56033
4,50.8636145,-0.094140833,57.1,3.625,-1.5,4.75,image218.jpg,43619.68036
4,50.8636155,-0.094141833,57.1,4.125,-2.125,3.6875,image219.jpg,43819.68076
4,50.863616,-0.094142333,57.1,1.875,-1.5,3.3125,image220.jpg,44020.1995
4,50.86361733,-0.094143833,57.1,2.1875,-1,358.875,image221.jpg,44220.98253
4,50.86361817,-0.094145167,57.1,2.75,-2.8125,353.75,image222.jpg,44420.86042
4,50.86361883,-0.0941465,57.1,1.5,-2,349.125,image223.jpg,44620.88149
4,50.8636195,-0.094148,57.1,5.0625,-2.8125,348.8125,image224.jpg,44820.64532
4,50.86362017,-0.094149167,57.1,6.875,-1.375,348.9375,image225.jpg,45020.03314
4,50.86362133,-0.0941505,57.1,3.0625,-1.125,348.375,image226.jpg,45220.14849
4,50.86362183,-0.094152167,57.1,6.5,-2.125,348.3125,image227.jpg,45420.70494
4,50.86362267,-0.0941535,57.1,5.5625,-0.9375,348.5,image228.jpg,45621.28614
4,50.86362367,-0.094154833,57.1,3.6875,-1.625,349.25,image229.jpg,45821.32284
4,50.86362433,-0.094156333,57.1,3.75,-1.875,349.6875,image230.jpg,46021.46652
4,50.86362517,-0.094157667,57.1,2.4375,0.6875,347.0625,image231.jpg,46221.44238
4,50.86362583,-0.094159333,57.1,4.125,-1.125,344.875,image232.jpg,46420.56353
4,50.8636265,-0.094160833,57.1,5.4375,-2.375,344.125,image233.jpg,46620.66559
4,50.86362717,-0.094162333,57.1,5.375,-1.625,344.3125,image234.jpg,46820.89641
4,50.863628,-0.094163833,57.1,6.1875,-1.25,344.5625,image235.jpg,47021.54537
4,50.86362867,-0.0941655,57.1,7.1875,-0.5,345.375,image236.jpg,47220.79121
4,50.8636295,-0.094166833,57.1,6.625,-0.8125,345.8125,image237.jpg,47420.80155
4,50.86363017,-0.094168333,57.1,7.125,-0.25,346.625,image238.jpg,47620.91909
4,50.86363083,-0.094169667,57.1,6.1875,-0.125,347.6875,image239.jpg,47820.98745
4,50.86363167,-0.094171167,57.1,7,-1.1875,350.0625,image240.jpg,48020.98759
4,50.8636325,-0.094172333,57.1,7.5625,-0.375,352.25,image241.jpg,48221.10804
4,50.8636335,-0.094173833,57.1,6.625,-0.1875,353.5,image242.jpg,48421.4561
4,50.86363433,-0.094175167,57.1,7.125,-0.3125,354.1875,image243.jpg,48621.29238
4,50.86363517,-0.094176333,57.1,8.0625,-0.125,354.75,image244.jpg,48821.22121
4,50.86363567,-0.094177,57.1,7.75,-0.625,355.1875,image245.jpg,49021.19598
4,50.86363683,-0.094179,57.1,6.875,-0.9375,356.25,image246.jpg,49221.63972
4,50.86363783,-0.094180167,57.1,7.9375,-0.5625,357,image247.jpg,49421.56407
4,50.86363883,-0.0941815,57.1,7.1875,0,357.125,image248.jpg,49621.66895
4,50.86363983,-0.094182667,57.1,6,0.5,357.0625,image249.jpg,49822.13603
4,50.86364017,-0.094183333,57.1,7,0.625,357.1875,image250.jpg,50022.8378
4,50.86364167,-0.094185333,57.1,7.0625,0.125,357.8125,image251.jpg,50222.90638
4,50.8636425,-0.0941865,57.1,6.3125,-1.0625,358.5625,image252.jpg,50422.75718
4,50.8636435,-0.094187667,57.2,4.875,-0.8125,358.0625,image253.jpg,50622.80581
4,50.8636445,-0.094189,57.2,4.375,-0.625,355.3125,image254.jpg,50822.06748
4,50.863645,-0.094189667,57.2,5.75,0,355.1875,image255.jpg,51021.95678
4,50.8636465,-0.0941915,57.2,5.0625,0.5,355.375,image256.jpg,51222.56053
4,50.86364717,-0.094193,57.2,5.75,0.25,355.1875,image257.jpg,51422.92255
4,50.86364817,-0.094194333,57.2,6.5625,0.5625,354.5,image258.jpg,51623.19566
4,50.86364917,-0.0941955,57.2,4.9375,0.3125,355,image259.jpg,51823.30455
4,50.8636495,-0.094196167,57.2,6.375,-0.375,355.625,image260.jpg,52023.18666
4,50.863651,-0.094198167,57.2,5,-0.625,355.0625,image261.jpg,52223.19289
4,50.863652,-0.0941995,57.2,4.375,-1.125,353.8125,image262.jpg,52422.63431
4,50.86365267,-0.094200833,57.2,5.375,-0.5,353.1875,image263.jpg,52622.56538
4,50.86365367,-0.094202167,57.2,4.6875,-0.5625,351.4375,image264.jpg,52823.25908
4,50.86365417,-0.094202833,57.2,3.9375,-1.4375,348.125,image265.jpg,53023.55219
4,50.86365517,-0.094205167,57.2,4.25,-1.5,344.25,image266.jpg,53224.02125
4,50.86365583,-0.094206833,57.2,4.1875,-1.3125,340.25,image267.jpg,53423.98758
4,50.8636565,-0.0942085,57.2,5,-1.9375,339.25,image268.jpg,53624.09475
4,50.86365717,-0.094210167,57.2,4.9375,-1.25,339.3125,image269.jpg,53823.16063
4,50.8636575,-0.094211167,57.2,4.8125,-0.5,339.375,image270.jpg,54022.95847
4,50.8636585,-0.094213667,57.2,3.6875,0.3125,336.5,image271.jpg,54223.73634
4,50.863659,-0.094215333,57.2,5,0.4375,334.4375,image272.jpg,54423.47464
4,50.8636595,-0.094217,57.2,5,0.3125,332.6875,image273.jpg,54623.86547
4,50.86365983,-0.094218833,57.2,5.25,-0.375,330.625,image274.jpg,54823.45381
4,50.86366033,-0.094220667,57.2,6.0625,-1.1875,330.3125,image275.jpg,55023.45207
4,50.86366083,-0.094222667,57.2,6.8125,-1.0625,330.5625,image276.jpg,55223.71831
4,50.8636615,-0.0942245,57.2,6.375,-1.3125,331.125,image277.jpg,55423.62355
4,50.863662,-0.0942265,57.2,6.9375,-1.6875,331.625,image278.jpg,55623.81707
4,50.8636625,-0.094228333,57.2,6.6875,-0.75,331.5625,image279.jpg,55824.0956
4,50.86366317,-0.094230167,57.2,5.8125,-0.75,332.4375,image280.jpg,56023.88578
4,50.86366367,-0.094232333,57.2,6,-1.8125,333.4375,image281.jpg,56224.53511
4,50.86366433,-0.094234,57.2,3.6875,-1.5,332.8125,image282.jpg,56424.2893
4,50.86366483,-0.094236167,57.2,4.25,-1.6875,328.375,image283.jpg,56624.34214
4,50.86366517,-0.094238,57.2,3.75,-1.125,324.375,image284.jpg,56824.54588
4,50.86366533,-0.094239,57.2,4.5625,-0.3125,324.8125,image285.jpg,57024.52403
4,50.86366583,-0.094241833,57.2,4.125,-1.625,325.5625,image286.jpg,57225.37388
4,50.86366633,-0.094243833,57.2,3.625,-0.6875,326.75,image287.jpg,57425.72153
4,50.86366683,-0.094245667,57.2,3.375,-0.625,327.25,image288.jpg,57626.05058
4,50.86366717,-0.094247667,57.2,4.25,0.125,325.375,image289.jpg,57825.93957
4,50.86366767,-0.094249333,57.2,3.4375,0.5625,325.5,image290.jpg,58025.93059
4,50.86366783,-0.094251333,57.2,5.3125,0.625,325.3125,image291.jpg,58225.37773
4,50.86366833,-0.094253333,57.2,6,0.4375,324.1875,image292.jpg,58425.11187
4,50.86366867,-0.094255167,57.2,4.3125,-0.125,325,image293.jpg,58625.21774
4,50.863669,-0.094257167,57.2,5.0625,0.3125,325.5625,image294.jpg,58825.73466
4,50.86366933,-0.094259,57.3,4.3125,-0.3125,325.8125,image295.jpg,59026.49029
4,50.86366983,-0.094261,57.3,5.125,-1.5625,326.75,image296.jpg,59226.60705
4,50.86367033,-0.094262833,57.3,4.75,-1.5625,325.4375,image297.jpg,59426.84708
4,50.86367067,-0.094264667,57.3,3.9375,-0.75,323.625,image298.jpg,59626.87331
4,50.86367117,-0.094266667,57.3,3.875,-1.9375,323.5,image299.jpg,59825.90951
4,50.86367133,-0.094268833,57.3,4.5625,-2.875,324.125,image300.jpg,60025.99459
4,50.86367167,-0.0942705,57.3,2.6875,-2.3125,324.8125,image301.jpg,60226.10947
4,50.86367217,-0.094272333,57.2,2.125,-1.75,324.125,image302.jpg,60426.72916
4,50.86367233,-0.094274333,57.2,1.9375,-0.4375,321.6875,image303.jpg,60627.17915
4,50.86367267,-0.094275833,57.2,2.375,0.5,321.875,image304.jpg,60827.14517
4,50.863673,-0.094277667,57.2,3.3125,1.0625,322,image305.jpg,61027.43162
4,50.86367333,-0.0942795,57.3,3.4375,1.875,322,image306.jpg,61226.79824
4,50.86367367,-0.094281,57.3,1.75,3.3125,319.9375,image307.jpg,61426.46331
4,50.86367383,-0.094282833,57.3,4.125,3.1875,317.375,image308.jpg,61626.4436
4,50.86367383,-0.094284667,57.3,5.25,4.4375,316.3125,image309.jpg,61826.99386
4,50.86367417,-0.094286333,57.3,3.875,3.4375,316.625,image310.jpg,62026.58966
4,50.86367417,-0.094288167,57.3,6.75,4.125,317,image311.jpg,62226.88741
4,50.86367433,-0.094290167,57.3,5.25,1,316.625,image312.jpg,62426.97255
4,50.8636745,-0.094292167,57.3,5.3125,1.1875,314.3125,image313.jpg,62627.49858
4,50.86367467,-0.094294167,57.3,5.125,1.0625,313.625,image314.jpg,62827.63044
4,50.86367483,-0.094296,57.3,5.625,0.875,314.25,image315.jpg,63028.1007
4,50.863675,-0.094298167,57.3,4.4375,0.3125,314.875,image316.jpg,63227.70993
4,50.86367517,-0.094300167,57.3,5.4375,-0.1875,313.5,image317.jpg,63428.06472
4,50.86367533,-0.094302167,57.4,4.9375,0.25,312.5625,image318.jpg,63627.84995
4,50.86367533,-0.094304167,57.4,6.375,-0.25,312.4375,image319.jpg,63827.95555
4,50.8636755,-0.094306333,57.4,5.75,-0.875,312.75,image320.jpg,64028.45654
4,50.8636755,-0.094308333,57.4,6.5,-0.5,313.75,image321.jpg,64228.04442
4,50.86367583,-0.0943105,57.4,4.8125,0,314.125,image322.jpg,64428.32253
4,50.86367583,-0.0943125,57.4,7,0,313.1875,image323.jpg,64629.34604
4,50.86367617,-0.094314667,57.4,5.375,-1.4375,312.3125,image324.jpg,64829.10054
4,50.863676,-0.094316833,57.4,6.8125,-0.5,312.375,image325.jpg,65029.49105
4,50.86367633,-0.094319,57.4,5.6875,-1,312.3125,image326.jpg,65229.76234
4,50.86367633,-0.094321,57.4,5.75,-0.9375,310.5,image327.jpg,65429.89665
4,50.86367633,-0.094323,57.4,6.5,-0.25,310.125,image328.jpg,65630.92047
4,50.8636765,-0.094325167,57.4,6.3125,-1.0625,310.25,image329.jpg,65829.44659
4,50.8636765,-0.094327167,57.4,5.9375,0.0625,310.5,image330.jpg,66032.95987
4,50.86367633,-0.094329167,57.4,6.9375,-0.0625,309.6875,image331.jpg,66232.87969
4,50.8636765,-0.094331333,57.4,5.3125,-0.25,307.4375,image332.jpg,66432.18938
4,50.86367633,-0.0943335,57.4,5,-2.1875,304.375,image333.jpg,66632.17837
4,50.86367633,-0.0943355,57.4,3.875,-0.625,302.125,image334.jpg,66832.56758
4,50.86367617,-0.094337667,57.4,4.3125,-0.6875,300.1875,image335.jpg,67033.2267
4,50.863676,-0.0943395,57.4,4.5625,-1,299.75,image336.jpg,67233.57945
4,50.86367567,-0.094341333,57.4,3.875,-1.25,301.5,image337.jpg,67433.78199
4,50.86367567,-0.094343167,57.4,6.6875,-1.25,305.0625,image338.jpg,67633.6554
4,50.86367583,-0.094345167,57.4,4.5625,-1.1875,310.5,image339.jpg,67832.60263
4,50.863676,-0.094347,57.4,4,-1.4375,314.8125,image340.jpg,68033.41858
4,50.86367633,-0.094348667,57.4,4.375,-1.75,319.25,image341.jpg,68233.39465
4,50.86367667,-0.094350333,57.4,4.125,-1.5,320.375,image342.jpg,68433.54989
4,50.86367683,-0.094352333,57.4,3.3125,-1,320.0625,image343.jpg,68634.5036
4,50.86367733,-0.094354333,57.4,4.8125,-0.125,320.8125,image344.jpg,68834.57056
4,50.8636775,-0.094356167,57.4,4.8125,-0.25,320.375,image345.jpg,69034.56002
4,50.86367783,-0.094358333,57.4,2.75,-1.6875,319.1875,image346.jpg,69234.84339
4,50.86367817,-0.094360333,57.4,3.5,-1.375,318.4375,image347.jpg,69433.74984
4,50.86367833,-0.094362167,57.4,4.0625,-1.125,317.875,image348.jpg,69633.85305
4,50.86367867,-0.0943645,57.4,1.6875,-1.5625,318.125,image349.jpg,69833.85949
4,50.86367883,-0.094366667,57.4,4,-2.75,318.1875,image350.jpg,70034.46314
4,50.86367917,-0.094368833,57.4,2.625,-3.0625,318.6875,image351.jpg,70233.92643
4,50.8636795,-0.094371,57.4,3.8125,-1.8125,318.8125,image352.jpg,70434.1211
4,50.86367983,-0.094373167,57.4,3.0625,-1.75,318.5,image353.jpg,70634.46531
4,50.86368,-0.094375333,57.4,3.6875,-2,318.25,image354.jpg,70834.57681
4,50.86368017,-0.0943775,57.4,4.25,-2.375,315.625,image355.jpg,71034.42693
4,50.86368033,-0.094379833,57.4,5.3125,-2,316.0625,image356.jpg,71234.49634
4,50.86368067,-0.094381833,57.4,5.5,-2.5,316.4375,image357.jpg,71434.74263
4,50.86368067,-0.094384,57.4,6.4375,-2.6875,317.4375,image358.jpg,71634.66136
4,50.863681,-0.094386167,57.4,4.9375,-3.125,318.3125,image359.jpg,71834.70753
4,50.86368117,-0.094388333,57.4,7.9375,-3.4375,319.4375,image360.jpg,72034.72132
4,50.86368167,-0.094390333,57.4,5.75,-2.4375,321.0625,image361.jpg,72234.73077
4,50.863682,-0.0943925,57.4,6.625,-1.3125,322.0625,image362.jpg,72434.91019
4,50.86368233,-0.0943945,57.4,2.875,-0.8125,320.4375,image363.jpg,72634.93235
4,50.8636825,-0.094396667,57.4,4.9375,-0.9375,317.9375,image364.jpg,72835.0751
4,50.86368283,-0.094398667,57.4,6.625,-0.625,317.0625,image365.jpg,73035.94594
4,50.86368317,-0.094400833,57.4,4.5,-0.8125,317.4375,image366.jpg,73236.33213
4,50.86368317,-0.094402667,57.4,4,-1.75,316.6875,image367.jpg,73436.33315
4,50.8636835,-0.094404667,57.4,4.4375,-0.4375,315.875,image368.jpg,73636.31214
4,50.86368367,-0.094406833,57.4,4.375,-0.625,316,image369.jpg,73836.14919
4,50.86368383,-0.094408833,57.4,5.0625,-2.5,316.6875,image370.jpg,74035.44889
4,50.86368417,-0.094410833,57.4,4.6875,-1.75,317.375,image371.jpg,74235.57397
4,50.86368433,-0.094412833,57.4,5.3125,-0.5,317.625,image372.jpg,74435.83979
4,50.8636845,-0.094415,57.4,6.0625,-1.6875,318.0625,image373.jpg,74636.8559
4,50.86368483,-0.094417,57.4,6.625,-1,319.0625,image374.jpg,74836.8189
4,50.86368517,-0.094419,57.4,5.8125,-0.375,317.9375,image375.jpg,75036.87372
4,50.86368533,-0.094421,57.4,4.5625,-1.5625,316.4375,image376.jpg,75236.7526
4,50.8636855,-0.094422833,57.4,5.375,-0.9375,315.875,image377.jpg,75435.92953
4,50.86368583,-0.094424833,57.4,5.8125,1.25,316.125,image378.jpg,75635.93748
4,50.863686,-0.094426833,57.4,5.8125,0.1875,315.8125,image379.jpg,75836.1809
4,50.863686,-0.094429,57.4,6.75,-0.375,315.5,image380.jpg,76036.93815
4,50.86368617,-0.094431,57.4,7.125,-0.125,316,image381.jpg,76237.31361
4,50.8636865,-0.094433,57.4,6.4375,0.8125,316.75,image382.jpg,76437.42755
4,50.86368667,-0.094435,57.4,5.6875,0.4375,317.3125,image383.jpg,76637.3906
4,50.86368683,-0.094437,57.4,4.5,0.0625,317.625,image384.jpg,76836.83967
4,50.86368717,-0.094438833,57.4,5.6875,0.0625,318.3125,image385.jpg,77036.51688
4,50.8636875,-0.094440833,57.4,4.5,0.0625,319.6875,image386.jpg,77236.63452
4,50.86368783,-0.094442833,57.4,4.3125,-1.125,320.0625,image387.jpg,77437.19816
4,50.86368817,-0.094444667,57.4,5.8125,-1.25,320.5,image388.jpg,77636.95485
4,50.86368833,-0.094446167,57.4,6.1875,-0.3125,321.5625,image389.jpg,77836.80701
4,50.86368883,-0.094448167,57.4,4.375,-0.9375,322.8125,image390.jpg,78036.88731
4,50.86368917,-0.094449667,57.4,4.3125,-0.625,325.125,image391.jpg,78236.93979
4,50.8636895,-0.0944515,57.4,5.0625,0.5625,326.75,image392.jpg,78436.97539
4,50.86369017,-0.094453167,57.4,4.375,-0.25,327.3125,image393.jpg,78637.06183
4,50.86369067,-0.094455,57.4,4.75,-0.5,328.5625,image394.jpg,78837.59412
4,50.863691,-0.094456833,57.4,2.9375,0,327.9375,image395.jpg,79037.52305
4,50.86369133,-0.094458667,57.4,5.375,0.5,325.3125,image396.jpg,79237.53835
4,50.86369183,-0.094460333,57.4,4.875,1,326.5,image397.jpg,79437.86203
4,50.86369217,-0.094462167,57.4,4.625,-0.4375,326.9375,image398.jpg,79637.96019
4,50.8636925,-0.094463833,57.4,3.4375,0.375,325.25,image399.jpg,79838.06986
4,50.86369283,-0.094465667,57.4,3.0625,-0.1875,319.5,image400.jpg,80038.05421
4,50.863693,-0.094467167,57.4,4.1875,2.6875,315.5,image401.jpg,80238.18581
4,50.86369317,-0.094469167,57.4,1.75,0.8125,313.9375,image402.jpg,80438.71576
4,50.86369333,-0.094470833,57.4,5.75,0,315.8125,image403.jpg,80639.63827
4,50.8636935,-0.094472667,57.4,4.3125,1.1875,317.125,image404.jpg,80839.58304
4,50.86369367,-0.094474333,57.4,5.5625,0,318.5625,image405.jpg,81039.52687
4,50.863694,-0.094476167,57.4,5.5,1.375,319.0625,image406.jpg,81239.90488
4,50.86369433,-0.094477833,57.4,3.875,-0.25,319.3125,image407.jpg,81439.61474
4,50.86369433,-0.094479667,57.5,6.5625,0.6875,319.75,image408.jpg,81639.0883
4,50.86369467,-0.0944815,57.5,5.5,-0.3125,321.9375,image409.jpg,81839.16458
4,50.86369517,-0.094483167,57.5,5.25,-0.4375,324.125,image410.jpg,82039.65077
4,50.8636955,-0.094484833,57.5,5.5625,-1.0625,325.3125,image411.jpg,82240.47396
4,50.86369583,-0.094486667,57.5,5.3125,0,325.75,image412.jpg,82440.42086
4,50.86369617,-0.094488333,57.5,4.9375,-0.5625,326.1875,image413.jpg,82640.49261
4,50.86369667,-0.09449,57.5,4.625,-1.0625,326.5625,image414.jpg,82840.6065
4,50.86369717,-0.094491833,57.5,5.75,-1,327.9375,image415.jpg,83039.55618
4,50.8636975,-0.094493333,57.5,4.5625,-0.375,329.25,image416.jpg,83239.59924
4,50.863698,-0.094495,57.5,5,-0.75,329.1875,image417.jpg,83439.68015
4,50.86369833,-0.094496667,57.5,7.875,0.125,330.625,image418.jpg,83640.46001
4,50.86369867,-0.094498167,57.5,7.375,0.8125,331.4375,image419.jpg,83840.99276
4,50.86369933,-0.094499833,57.5,7.125,-0.3125,332.625,image420.jpg,84040.79784
4,50.86369967,-0.0945015,57.5,8.3125,-0.375,334,image421.jpg,84240.92433
4,50.86370033,-0.094503167,57.5,5.6875,0.0625,334.0625,image422.jpg,84440.81259
4,50.86370067,-0.094504667,57.5,6.0625,-0.125,332.6875,image423.jpg,84640.08608
4,50.86370117,-0.0945065,57.5,6,0.75,331.75,image424.jpg,84840.12898
4,50.86370183,-0.094508167,57.5,4.6875,-0.25,332.5,image425.jpg,85040.39631
4,50.86370233,-0.094509833,57.5,6.1875,-0.3125,334,image426.jpg,85240.16555
4,50.86370283,-0.094511667,57.5,5.4375,-0.8125,334.375,image427.jpg,85440.76295
4,50.86370367,-0.0945135,57.5,5.625,0.1875,334,image428.jpg,85640.80959
4,50.863704,-0.094515167,57.5,7.125,-0.3125,333.3125,image429.jpg,85840.98791
4,50.86370467,-0.094516833,57.5,5.9375,1.125,333.8125,image430.jpg,86040.9993
4,50.86370517,-0.094518833,57.5,8.3125,0,334,image431.jpg,86240.96719
4,50.86370567,-0.0945205,57.5,8.5625,1.75,334.875,image432.jpg,86441.14832
4,50.86370633,-0.094522167,57.5,5.5625,0,336.875,image433.jpg,86641.73749
4,50.86370717,-0.094524,57.5,5.1875,0.0625,338.1875,image434.jpg,86841.53267
4,50.86370767,-0.094525667,57.5,6.875,-0.9375,340.25,image435.jpg,87041.58556
4,50.8637085,-0.094527,57.5,5.125,0.0625,346.5625,image436.jpg,87241.62929
4,50.8637095,-0.0945285,57.5,4.75,1.25,348.0625,image437.jpg,87441.77256
4,50.86371033,-0.094529833,57.5,5.125,-0.1875,351.25,image438.jpg,87641.88035
4,50.86371133,-0.094531333,57.5,3.5,-1.75,351.4375,image439.jpg,87842.20258
4,50.86371233,-0.094532833,57.5,3.75,-1.1875,352,image440.jpg,88042.06297
4,50.86371333,-0.094534167,57.6,3,0.125,353.375,image441.jpg,88242.68776
4,50.86371433,-0.0945355,57.5,4,0.125,356.8125,image442.jpg,88442.95437
4,50.86371533,-0.094536667,57.6,1.8125,0.5625,357.5625,image443.jpg,88643.28988
4,50.86371617,-0.094537833,57.6,3.4375,0.1875,357.3125,image444.jpg,88843.39799
4,50.86371733,-0.094539333,57.6,4.5625,-2.3125,357.375,image445.jpg,89043.46073
4,50.86371833,-0.0945405,57.6,2.625,-1.125,358.1875,image446.jpg,89242.53661
4,50.86371933,-0.094541833,57.6,3.875,0.5,358.875,image447.jpg,89442.60102
4,50.86372033,-0.094543167,57.6,3.9375,-0.5625,359,image448.jpg,89642.64178
4,50.86372133,-0.0945445,57.6,4.1875,-0.375,359.9375,image449.jpg,89843.34543
4,50.86372233,-0.094545833,57.6,4.8125,-0.9375,359.9375,image450.jpg,90043.65177
4,50.8637235,-0.094547167,57.6,4.625,0.25,0.6875,image451.jpg,90243.6718