gps quality,lat,lon,altitude,roll,pitch,yaw,image name,timestamp
4,50.86341417,-0.093955333,56.6,0.8125,-2.375,0,image0.jpg,2.668533
4,50.86341417,-0.093955333,56.6,0.8125,-2.375,0,image1.jpg,201.782699
4,50.86341433,-0.0939555,56.6,0.8125,-2.375,0,image2.jpg,402.169827
4,50.86341417,-0.0939555,56.7,0.8125,-2.375,0,image3.jpg,602.728575
4,50.86341417,-0.0939555,56.6,0.8125,-2.375,0,image4.jpg,803.032992
4,50.86341417,-0.0939555,56.7,0.8125,-2.375,0,image5.jpg,1003.193706
4,50.86341417,-0.0939555,56.6,0.8125,-2.375,0,image6.jpg,1203.264676
4,50.86341417,-0.0939555,56.6,0.8125,-2.375,0,image7.jpg,1403.125639
4,50.86341417,-0.0939555,56.6,0.8125,-2.375,0,image8.jpg,1602.417155
4,50.86341417,-0.0939555,56.6,0.8125,-2.375,0,image9.jpg,1802.457864
4,50.86341417,-0.0939555,56.6,0.5,-2.5625,359.6875,image10.jpg,2002.68233
4,50.863414,-0.093955,56.7,-1.6875,-2.0625,359.5625,image11.jpg,2203.275142
4,50.86341383,-0.093954833,56.6,-1.125,-2,359.25,image12.jpg,2402.70484
4,50.863414,-0.093954833,56.6,-1.625,-2.875,359.625,image13.jpg,2603.819494
4,50.86341383,-0.093954833,56.6,-0.8125,-2.625,359.625,image14.jpg,2802.86772
4,50.86341417,-0.093955167,56.6,0.5,-3,359.6875,image15.jpg,3002.840249
4,50.86341433,-0.093955667,56.6,1.75,-3.125,359.1875,image16.jpg,3202.921116
4,50.86341467,-0.093956,56.6,1.875,-3.5,359.0625,image17.jpg,3403.00167
4,50.863415,-0.0939565,56.6,3.1875,-3.3125,359,image18.jpg,3603.055922
4,50.86341567,-0.093957,56.6,1.75,-2.3125,359.0625,image19.jpg,3803.314139
4,50.86341617,-0.093957667,56.6,2.3125,-0.75,359.4375,image20.jpg,4003.151976
4,50.86341683,-0.0939585,56.6,5.75,-1.375,359.625,image21.jpg,4203.133569
4,50.86341767,-0.0939595,56.6,3.8125,-2,359.875,image22.jpg,4403.205685
4,50.86341867,-0.093960333,56.6,4.125,-2.375,0.5,image23.jpg,4603.264416
4,50.86341933,-0.093961333,56.6,5.8125,-3.5625,0.8125,image24.jpg,4803.339241
4,50.86342033,-0.093962333,56.7,6.875,-2.3125,0.3125,image25.jpg,5003.432817
4,50.86342117,-0.0939635,56.6,4.6875,-2.5,0.9375,image26.jpg,5203.583738
4,50.86342217,-0.093964167,56.7,4.9375,-2.0625,1.25,image27.jpg,5404.370828
4,50.863423,-0.093965333,56.7,8.0625,-2.25,1.0625,image28.jpg,5604.592898
4,50.863424,-0.093966167,56.6,6.9375,-1,1.0625,image29.jpg,5804.633607
4,50.86342467,-0.093967333,56.7,7.875,-1.0625,2.125,image30.jpg,6004.701922
4,50.86342583,-0.093968333,56.7,6.8125,-3.1875,3,image31.jpg,6204.707317
4,50.86342683,-0.093969167,56.7,7.625,-4.8125,3.5625,image32.jpg,6403.90336
4,50.86342783,-0.093970333,56.7,8.1875,-4.25,3.0625,image33.jpg,6603.918652
4,50.863429,-0.093971167,56.7,6.375,-4.375,3.5625,image34.jpg,6804.042958
4,50.86342967,-0.093972,56.7,8.875,-2.5625,3.5,image35.jpg,7004.569987
4,50.86343067,-0.093973167,56.7,8.8125,-2.875,6,image36.jpg,7205.178946
4,50.86343167,-0.093973833,56.7,9.0625,-1.6875,6.25,image37.jpg,7405.208144
4,50.8634325,-0.093974667,56.7,10.125,-0.6875,8,image38.jpg,7605.29797
4,50.8634335,-0.0939755,56.7,12.0625,1.4375,10.5,image39.jpg,7805.440297
4,50.86343467,-0.093976333,56.7,11.125,-1.5625,12.6875,image40.jpg,8004.519357
4,50.86343583,-0.093976833,56.7,12.125,-0.6875,13.25,image41.jpg,8204.595901
4,50.86343667,-0.093977833,56.7,12,-0.6875,12.1875,image42.jpg,8404.637756
4,50.86343783,-0.0939785,56.7,11.75,0.25,12.5,image43.jpg,8605.214109
4,50.86343883,-0.093979167,56.7,11.875,0.5625,13.1875,image44.jpg,8805.719679
4,50.86343983,-0.093979667,56.7,12.125,0.0625,15.25,image45.jpg,9005.797681
4,50.863441,-0.0939805,56.7,11.375,0,17.0625,image46.jpg,9206.102671
4,50.863442,-0.093980833,56.7,10.5625,-0.25,18.0625,image47.jpg,9406.122442
4,50.86344317,-0.093981333,56.7,9.4375,0,18.625,image48.jpg,9605.240618
4,50.86344417,-0.093982,56.7,11.9375,0.125,19.75,image49.jpg,9805.116269
4,50.8634455,-0.093982333,56.7,8.9375,-0.5625,22.75,image50.jpg,10005.18859
4,50.86344667,-0.0939825,56.7,6.8125,-1,26,image51.jpg,10205.67734
4,50.86344783,-0.093982667,56.8,7.3125,-2.5625,27.125,image52.jpg,10405.36944
4,50.86344917,-0.093983,56.8,7.5,-2.0625,28.1875,image53.jpg,10605.39401
4,50.86345033,-0.093983167,56.8,6.0625,-1.375,28.8125,image54.jpg,10805.48529
4,50.8634515,-0.093983167,56.7,6.5,-0.4375,30.1875,image55.jpg,11005.54329
4,50.86345283,-0.0939835,56.7,6.375,-2,30.5,image56.jpg,11205.6052
4,50.86345417,-0.0939835,56.8,4.6875,-2,29.4375,image57.jpg,11405.6794
4,50.86345517,-0.093983833,56.7,5,-1.3125,27.0625,image58.jpg,11605.77152
4,50.86345633,-0.093984,56.7,5.1875,-1.375,23.25,image59.jpg,11806.07406
4,50.8634575,-0.0939845,56.7,7.75,-0.0625,22.25,image60.jpg,12005.87742
4,50.8634585,-0.093985,56.7,6.6875,-0.875,21.5625,image61.jpg,12205.84052
4,50.86345967,-0.093985667,56.7,9.4375,-0.0625,21.375,image62.jpg,12406.00576
4,50.86346083,-0.093985833,56.7,8.125,-1.4375,21.9375,image63.jpg,12606.0421
4,50.863462,-0.093986333,56.7,9.25,-0.5625,22.75,image64.jpg,12806.16156
4,50.863463,-0.093987,56.8,8.6875,-1.9375,22.375,image65.jpg,13006.13711
4,50.86346433,-0.093987167,56.8,7.3125,0,21,image66.jpg,13206.28527
4,50.8634655,-0.093987667,56.8,9.25,-1,19.625,image67.jpg,13407.07028
4,50.8634665,-0.093988333,56.8,8.3125,-0.5,18,image68.jpg,13607.74236
4,50.86346767,-0.093988833,56.8,8.375,-1,18.1875,image69.jpg,13807.59749
4,50.86346883,-0.093989333,56.8,9.4375,-1.4375,20.9375,image70.jpg,14007.53914
4,50.86347017,-0.093989667,56.8,8.3125,-1.625,24.0625,image71.jpg,14207.55422
4,50.86347133,-0.09399,56.8,8,-0.8125,24.5,image72.jpg,14406.83855
4,50.8634725,-0.093990333,56.8,9,-1,26.3125,image73.jpg,14606.75258
4,50.86347383,-0.0939905,56.8,8.5,-0.8125,27.1875,image74.jpg,14806.86741
4,50.863475,-0.093991,56.8,8.875,-0.4375,27.625,image75.jpg,15007.23975
4,50.86347617,-0.093991167,56.8,7.5,-1.6875,24.4375,image76.jpg,15208.01923
4,50.8634775,-0.0939915,56.8,6.25,-2,19.5,image77.jpg,15408.04801
4,50.8634785,-0.093992167,56.8,7.5625,-1,18.25,image78.jpg,15608.09112
4,50.86347967,-0.093992833,56.8,9.0625,-0.9375,19,image79.jpg,15808.20501
4,50.86348083,-0.093993167,56.8,8.5625,-2.0625,19.9375,image80.jpg,16007.54324
4,50.863482,-0.093993667,56.8,7.3125,-1.9375,20.75,image81.jpg,16207.45999
4,50.86348333,-0.093994167,56.8,6.875,-2.5,20,image82.jpg,16407.44783
4,50.8634845,-0.093994833,56.8,8.25,-2.25,18.5,image83.jpg,16607.8597
4,50.86348567,-0.093995333,56.8,6.6875,-1.8125,17,image84.jpg,16808.49158
4,50.86348683,-0.093995833,56.8,7.125,-2.75,15.75,image85.jpg,17008.70479
4,50.863488,-0.093996667,56.8,7.9375,-1.6875,13.625,image86.jpg,17208.71238
4,50.863489,-0.0939975,56.8,8.1875,-2.1875,12.1875,image87.jpg,17408.75105
4,50.86349033,-0.093998,56.8,6.1875,-3.625,12.25,image88.jpg,17608.43045
4,50.8634915,-0.093999,56.8,9.4375,-3.5625,11.4375,image89.jpg,17807.94609
4,50.86349267,-0.094,56.8,5.5625,-4.1875,9.0625,image90.jpg,18008.03206
4,50.86349367,-0.094000833,56.8,9.0625,-2.75,7.5625,image91.jpg,18208.44507
4,50.86349467,-0.094001833,56.8,7.5,-1.6875,7.5,image92.jpg,18408.98174
4,50.86349583,-0.0940025,56.8,9.75,0.5625,9.6875,image93.jpg,18608.29497
4,50.86349683,-0.094003333,56.8,10.1875,-0.125,11.5,image94.jpg,18808.34886
4,50.863498,-0.094004,56.8,10.6875,0.625,12.4375,image95.jpg,19008.41353
4,50.86349917,-0.094005,56.8,9.0625,-1.1875,13.5625,image96.jpg,19208.48419
4,50.86350017,-0.0940055,56.8,8.3125,-1.8125,14.0625,image97.jpg,19408.57708
4,50.86350133,-0.094006333,56.8,10.0625,-1.0625,14.5,image98.jpg,19608.61706
4,50.8635025,-0.094007,56.8,7.375,-0.8125,12.5,image99.jpg,19808.90934
4,50.86350367,-0.094007833,56.8,8.3125,-1.5625,10.6875,image100.jpg,20008.73088
4,50.86350467,-0.094008833,56.8,8.8125,-1.125,7.6875,image101.jpg,20208.82987
4,50.86350583,-0.094009667,56.8,8.3125,-1.0625,6.4375,image102.jpg,20408.85746
4,50.863507,-0.094010667,56.8,9.3125,-0.6875,5.875,image103.jpg,20608.87822
4,50.863508,-0.094011833,56.8,9.125,-1.0625,5.4375,image104.jpg,20809.00617
4,50.86350933,-0.094012667,56.8,8.5625,-1.625,4.875,image105.jpg,21009.04406
4,50.86351033,-0.094013833,56.8,9.6875,-1.625,4.4375,image106.jpg,21209.12082
4,50.8635115,-0.094015,56.8,8.375,-0.9375,3.9375,image107.jpg,21409.65613
4,50.8635125,-0.094016,56.8,7.625,-2.125,3.3125,image108.jpg,21610.33155
4,50.86351367,-0.094017167,56.8,7.9375,-3.1875,1.25,image109.jpg,21810.28668
4,50.86351483,-0.0940185,56.8,6.125,-3.4375,359.375,image110.jpg,22010.32801
4,50.86351583,-0.094019833,56.8,8.125,-3.3125,357.25,image111.jpg,22210.55774
4,50.86351683,-0.094021,56.8,8.0625,-3.625,355.0625,image112.jpg,22410.04697
4,50.86351783,-0.0940225,56.8,9.125,-1.9375,353.9375,image113.jpg,22609.63344
4,50.86351883,-0.094024,56.9,8.3125,-2,352.1875,image114.jpg,22809.68243
4,50.86351983,-0.0940255,56.9,8.75,-3.125,350.6875,image115.jpg,23010.01753
4,50.86352083,-0.094027,56.9,9.25,-3.8125,350.1875,image116.jpg,23210.67513
4,50.86352167,-0.094028667,56.9,10.5625,-3.375,349.75,image117.jpg,23410.83767
4,50.8635225,-0.094030167,56.9,9.9375,-3.875,349.0625,image118.jpg,23611.00484
4,50.8635235,-0.094032,56.9,10.8125,-3.6875,349.3125,image119.jpg,23811.15529
4,50.8635245,-0.094033333,56.9,9.9375,-2.9375,350.0625,image120.jpg,24010.58484
4,50.86352533,-0.094034833,56.9,9,-3.125,351.5,image121.jpg,24210.17845
4,50.86352633,-0.094036333,56.9,7.75,-3.4375,348.875,image122.jpg,24410.23994
4,50.86352733,-0.094038,56.9,7,-3.375,349,image123.jpg,24610.67233
4,50.86352817,-0.0940395,56.9,7.5,-3.3125,350.0625,image124.jpg,24811.29358
4,50.86352933,-0.094041,56.9,7.5625,-3.1875,351.25,image125.jpg,25011.58398
4,50.86353033,-0.094042333,56.9,6.75,-2.6875,351.875,image126.jpg,25211.66287
4,50.86353133,-0.094043833,56.9,6.8125,-2.6875,351.9375,image127.jpg,25411.61154
4,50.86353233,-0.094045333,56.9,6.25,-2.5,352.5,image128.jpg,25611.3748
4,50.86353317,-0.094046833,56.9,6.75,-1.9375,352,image129.jpg,25810.82053
4,50.86353417,-0.094048333,56.9,6.75,-2.1875,351.8125,image130.jpg,26010.84228
4,50.86353517,-0.094049833,56.9,6.8125,-1.0625,351.0625,image131.jpg,26211.20358
4,50.86353617,-0.094051333,56.9,6.9375,-1.875,348.125,image132.jpg,26411.00266
4,50.863537,-0.094052833,56.9,5.4375,-3.1875,345.9375,image133.jpg,26611.06561
4,50.86353783,-0.0940545,56.9,6.75,-3.1875,343.3125,image134.jpg,26811.12773
4,50.86353867,-0.094056333,56.9,6.9375,-3.375,340.8125,image135.jpg,27011.23089
4,50.86353933,-0.094058,56.9,6.1875,-3.25,340.5,image136.jpg,27211.28102
4,50.86354,-0.094059833,56.9,8.375,-3.8125,339.75,image137.jpg,27411.34981
4,50.86354083,-0.094061667,56.9,7.875,-4.5625,339.125,image138.jpg,27611.43
4,50.8635415,-0.094063667,56.9,8.6875,-5.1875,338.9375,image139.jpg,27811.73249
4,50.86354233,-0.094065333,56.9,8.1875,-5.1875,338.125,image140.jpg,28011.54438
4,50.863543,-0.094067167,56.9,9.1875,-3.5625,337.9375,image141.jpg,28211.62426
4,50.8635435,-0.094069,56.9,9.9375,-3.875,339.0625,image142.jpg,28411.69487
4,50.86354433,-0.0940705,56.9,9.375,-3.5,339.4375,image143.jpg,28611.77542
4,50.863545,-0.0940725,56.9,8.9375,-4.875,339.375,image144.jpg,28811.88759
4,50.86354583,-0.094074333,56.9,8.4375,-4.8125,339.75,image145.jpg,29011.89502
4,50.8635465,-0.094076,56.9,8.6875,-4.9375,339.5625,image146.jpg,29211.97552
4,50.86354733,-0.0940775,56.9,6.5625,-5.625,341.1875,image147.jpg,29412.5575
4,50.86354767,-0.0940785,56.9,7.1875,-4.1875,340,image148.jpg,29613.32959
4,50.86354833,-0.094080333,56.9,7.0625,-4.25,339.4375,image149.jpg,29813.13607
4,50.863549,-0.094082,56.9,8.875,-2.625,338.5,image150.jpg,30013.19996
4,50.86354967,-0.094083833,56.9,8.6875,-2.625,338.375,image151.jpg,30213.27228
4,50.8635505,-0.094085667,56.9,8.125,-2.6875,338.125,image152.jpg,30412.67948
4,50.86355117,-0.094087333,56.9,8.375,-3,338.625,image153.jpg,30612.51508
4,50.863552,-0.094089167,56.9,9.75,-2.5,338.125,image154.jpg,30812.55417
4,50.86355267,-0.094091,56.9,8.3125,-2.5625,338.625,image155.jpg,31012.91854
4,50.8635535,-0.094093,56.9,8.5625,-3.875,339.125,image156.jpg,31213.72313
4,50.86355417,-0.094095,56.9,8.75,-3.875,339.5625,image157.jpg,31413.73482
4,50.86355517,-0.094096667,56.9,7.9375,-2.875,340.6875,image158.jpg,31613.81205
4,50.863556,-0.0940985,56.9,7,-3.75,341.5,image159.jpg,31813.85874
4,50.863557,-0.094100333,56.9,7.875,-3,342.4375,image160.jpg,32013.25271
4,50.86355783,-0.094102167,56.9,8.6875,-2.6875,342.1875,image161.jpg,32213.04101
4,50.86355867,-0.094103833,56.9,7.0625,-2.9375,343.4375,image162.jpg,32413.11162
4,50.8635595,-0.094105833,56.9,8.3125,-2.5625,344.0625,image163.jpg,32613.48099
4,50.86356033,-0.094107333,57,5.9375,-1.4375,343.6875,image164.jpg,32814.28693
4,50.86356133,-0.094109,57,6.75,-2.5,343.625,image165.jpg,33014.22581
4,50.86356217,-0.094110833,57,6.1875,-4.4375,343.375,image166.jpg,33214.28658
4,50.863563,-0.0941125,57,7.5625,-3.5,343.375,image167.jpg,33414.38448
4,50.86356383,-0.094114167,57,8.1875,-2.75,344.1875,image168.jpg,33613.68792
4,50.86356467,-0.094116,57,10.3125,-3,348.5,image169.jpg,33813.5531
4,50.86356567,-0.094117333,57,8.625,-2.625,350.625,image170.jpg,34013.63188
4,50.86356667,-0.094119,57,8.3125,-1.25,351.875,image171.jpg,34214.20652
4,50.86356767,-0.094120333,57,7.5625,-1.9375,352.3125,image172.jpg,34413.75716
4,50.86356883,-0.094121833,57,8.4375,-1.75,352.0625,image173.jpg,34613.84412
4,50.86356983,-0.094123333,57,7.375,-2.625,350.9375,image174.jpg,34813.92462
4,50.86357067,-0.094125,57,7.75,-2.8125,349.125,image175.jpg,35013.97585
4,50.86357167,-0.094126667,57,7.25,-3.3125,346.625,image176.jpg,35214.00182
4,50.8635725,-0.0941285,57,8.25,-3.1875,347.5625,image177.jpg,35414.0606
4,50.8635735,-0.09413,57,7.875,-2.375,348.875,image178.jpg,35614.18866
4,50.8635745,-0.094131667,57,10,-3.8125,350,image179.jpg,35814.39599
4,50.8635755,-0.094133333,57,7.8125,-5.0625,351.5,image180.jpg,36014.29815
4,50.86357667,-0.094135,57,9.1875,-4.125,352.6875,image181.jpg,36214.33808
4,50.86357767,-0.094136333,57,6.625,-5,354.0625,image182.jpg,36414.41592
4,50.863579,-0.094138,57,7,-4,355.375,image183.jpg,36614.47012
4,50.86357983,-0.094139167,57,8.0625,-0.625,355.8125,image184.jpg,36814.48968
4,50.863581,-0.094140333,57,6.8125,-0.25,355.6875,image185.jpg,37014.56706
4,50.863582,-0.094142,57,8.25,-2.375,356.875,image186.jpg,37215.0282
4,50.86358317,-0.094143,57,4.9375,-2.1875,357.5,image187.jpg,37415.75268
4,50.863584,-0.0941445,57,7.875,-3.625,357.75,image188.jpg,37615.73428
4,50.86358533,-0.094146,57,7.875,-2,358.0625,image189.jpg,37815.8116
4,50.86358617,-0.094147,57,8.375,-1.125,358.75,image190.jpg,38015.8321
4,50.86358733,-0.094148167,57,8.6875,-1.25,359.4375,image191.jpg,38215.6091
4,50.86358817,-0.0941495,57,7.75,-3,0,image192.jpg,38415.10807
4,50.86358933,-0.094150667,57,7.625,-1.4375,357.75,image193.jpg,38615.08368
4,50.8635905,-0.094151833,57,7.5,-3.5,355.0625,image194.jpg,38815.49409
4,50.8635915,-0.094153333,57.1,8.75,-2,354.625,image195.jpg,39016.28128
4,50.8635925,-0.094154667,57,8.5,-1.375,353.8125,image196.jpg,39216.26631
4,50.8635935,-0.094156333,57.1,8.125,-2.75,354,image197.jpg,39416.29837
4,50.86359467,-0.094157667,57.1,8.1875,-4,354.9375,image198.jpg,39616.92582
4,50.86359567,-0.094159333,57.1,8.3125,-3.625,355,image199.jpg,39815.5706
4,50.86359683,-0.0941605,57.1,5.6875,-1.6875,355.75,image200.jpg,40015.55375
4,50.86359783,-0.094162,57.1,6.5,-2.4375,355.25,image201.jpg,40215.69868
4,50.86359883,-0.094163333,57.1,6.375,-2.625,354.9375,image202.jpg,40416.51312
4,50.8636,-0.094164833,57.1,5.5625,-2.875,355.875,image203.jpg,40616.6893
4,50.86360117,-0.094166167,57.1,6.625,-2.75,356.5,image204.jpg,40816.77157
4,50.863602,-0.0941675,57.1,7.375,-3.6875,356.125,image205.jpg,41016.96687
4,50.86360317,-0.094168833,57.1,5.5625,-3.625,356.3125,image206.jpg,41217.08982
4,50.86360417,-0.094170333,57.1,6.8125,-3.25,356.1875,image207.jpg,41416.13143
4,50.8636055,-0.094171667,57.1,6.125,-3.5625,354.6875,image208.jpg,41616.28089
4,50.8636065,-0.094173333,57.1,6.4375,-3,354.1875,image209.jpg,41816.36525
4,50.86360767,-0.094174833,57.1,5.6875,-3,353.75,image210.jpg,42016.60425
4,50.86360867,-0.094176333,57.1,5,-3.625,353.3125,image211.jpg,42216.4263
4,50.86360967,-0.094177667,57.1,4.6875,-2.9375,353,image212.jpg,42416.49712
4,50.86361067,-0.094179167,57.1,3.5,-2.375,351.75,image213.jpg,42616.60444
4,50.86361183,-0.094180667,57.1,5.5,-2.3125,350.75,image214.jpg,42816.77662
4,50.86361267,-0.0941825,57.1,6.6875,-2.875,350.625,image215.jpg,43016.59221
4,50.86361367,-0.094183833,57.1,6.5,-2.375,351.125,image216.jpg,43216.68475
4,50.8636145,-0.094185667,57.1,7.5625,-3.375,351.9375,image217.jpg,43416.77671
4,50.86361567,-0.094186833,57.1,5.8125,-2.875,352.375,image218.jpg,43616.82997
4,50.86361667,-0.0941885,57.1,5.9375,-3.8125,352.5625,image219.jpg,43816.98678
4,50.86361783,-0.09419,57.1,5.5,-3.4375,352.625,image220.jpg,44017.01394
4,50.86361883,-0.094191667,57.1,5.25,-1.9375,353.0625,image221.jpg,44217.12179
4,50.86362,-0.094193167,57.1,5.4375,-3.5,351.625,image222.jpg,44417.38683
4,50.863621,-0.094194833,57.1,3.5625,-3.25,351.625,image223.jpg,44617.36592
4,50.86362217,-0.0941965,57.1,5.8125,-3.125,352.0625,image224.jpg,44817.41194
4,50.86362317,-0.094198,57.1,3.625,-4.8125,351.875,image225.jpg,45018.42998
4,50.86362433,-0.094199333,57.1,4.5,-3.75,351.1875,image226.jpg,45218.39157
4,50.86362533,-0.094201167,57.1,4.9375,-2.375,350.6875,image227.jpg,45418.43223
4,50.86362617,-0.094202833,57.1,3.875,-2.6875,349.3125,image228.jpg,45618.52424
4,50.86362717,-0.0942045,57.1,5.5,-3.25,348.5625,image229.jpg,45818.70365
4,50.86362833,-0.094206333,57.1,4,-2.75,347.75,image230.jpg,46017.74552
4,50.86362917,-0.094208,57.1,4.6875,-1.8125,345.625,image231.jpg,46217.874
4,50.86363017,-0.094209667,57.1,4.5625,-2.8125,344.0625,image232.jpg,46417.8484
4,50.863631,-0.094211333,57.1,3.4375,-2.4375,342.5,image233.jpg,46618.66862
4,50.86363167,-0.094213333,57.1,5.4375,-1.375,340.625,image234.jpg,46819.12866
4,50.8636325,-0.094215167,57.1,3.6875,-1.6875,337.4375,image235.jpg,47019.20432
4,50.86363333,-0.094217167,57.1,7.8125,-2.6875,335.8125,image236.jpg,47219.28144
4,50.86363383,-0.094219,57.1,6.375,-3.4375,335.5,image237.jpg,47419.10516
4,50.86363467,-0.094221,57.1,6.875,-3.1875,334.1875,image238.jpg,47618.35615
4,50.86363517,-0.094223,57.2,6.75,-2.5625,333.0625,image239.jpg,47818.48202
4,50.863636,-0.094225,57.1,8.0625,-1.75,332.875,image240.jpg,48018.82904
4,50.8636365,-0.094227,57.2,7.375,-2.125,332.875,image241.jpg,48219.48446
4,50.86363717,-0.094228833,57.2,7.875,-3.25,333.625,image242.jpg,48419.70408
4,50.86363783,-0.094231,57.2,7.5,-3.4375,334.25,image243.jpg,48619.76912
4,50.8636385,-0.094233167,57.2,7.4375,-3.75,334.125,image244.jpg,48819.84988
4,50.86363933,-0.094235,57.2,6.75,-4,333.875,image245.jpg,49019.69454
4,50.86364,-0.094237,57.2,7.625,-2.8125,334.3125,image246.jpg,49219.00783
4,50.8636405,-0.094238833,57.2,7.4375,-2.3125,334,image247.jpg,49419.01952
4,50.86364117,-0.0942405,57.2,5.625,-3.3125,332.375,image248.jpg,49619.29962
4,50.86364183,-0.0942425,57.2,6.5625,-4.0625,331.0625,image249.jpg,49819.662
4,50.86364233,-0.0942445,57.2,6,-2,330.6875,image250.jpg,50019.11535
4,50.86364283,-0.094246167,57.2,4.5625,-1.9375,330.875,image251.jpg,50219.16554
4,50.8636435,-0.0942485,57.2,6.125,-4.3125,329.5625,image252.jpg,50419.27265
4,50.863644,-0.094250167,57.2,4.375,-3.6875,327.625,image253.jpg,50619.29784
4,50.86364433,-0.094252,57.2,4.9375,-3.125,325.9375,image254.jpg,50819.3062
4,50.86364483,-0.094253667,57.2,4.6875,-2.75,323.9375,image255.jpg,51020.58711
4,50.863645,-0.094255667,57.2,4.6875,-3.5625,323.25,image256.jpg,51220.04239
4,50.8636455,-0.0942575,57.2,4.4375,-3.3125,322.25,image257.jpg,51420.04085
4,50.86364583,-0.0942595,57.2,4.75,-3.8125,322.5,image258.jpg,51620.19907
4,50.86364617,-0.094261333,57.2,5.625,-4.4375,324.875,image259.jpg,51820.31853
4,50.86364667,-0.094263167,57.2,4.1875,-4.1875,325.8125,image260.jpg,52020.71456
4,50.86364717,-0.094264833,57.2,4.625,-3.125,326.6875,image261.jpg,52220.39495
4,50.86364767,-0.094266667,57.2,4.9375,-3.125,327,image262.jpg,52420.39362
4,50.863648,-0.0942685,57.3,5.1875,-3.125,326.5625,image263.jpg,52620.56376
4,50.86364833,-0.094270167,57.2,5.1875,-2.5625,325.875,image264.jpg,52821.34533
4,50.86364883,-0.094271833,57.3,6.125,-3.75,325.375,image265.jpg,53021.4438
4,50.86364933,-0.094273833,57.3,6.25,-3.4375,325.5,image266.jpg,53221.7164
4,50.86364967,-0.094275667,57.3,6,-4.75,326,image267.jpg,53421.82549
4,50.86365017,-0.094277667,57.3,5.875,-4.0625,327.375,image268.jpg,53622.04329
4,50.86365067,-0.0942795,57.3,6.375,-4.0625,327.875,image269.jpg,53820.76354
4,50.86365117,-0.094281167,57.3,4.875,-2.75,328.375,image270.jpg,54020.8505
4,50.8636515,-0.094283,57.3,6.625,-3.75,328.5625,image271.jpg,54221.00001
4,50.86365217,-0.094284833,57.3,4.625,-3.8125,328.5625,image272.jpg,54422.5401
4,50.86365267,-0.094286667,57.3,5.3125,-3.3125,326.5625,image273.jpg,54622.31356
4,50.86365283,-0.0942885,57.3,6.0625,-3.4375,324,image274.jpg,54822.26088
4,50.86365317,-0.094290167,57.3,6.25,-2.9375,321.9375,image275.jpg,55022.38576
4,50.8636535,-0.094292333,57.3,5.5625,-3.875,319.25,image276.jpg,55222.39782
4,50.86365383,-0.094294,57.3,4.625,-6.1875,317.25,image277.jpg,55421.89351
4,50.863654,-0.094296167,57.3,6.6875,-3.9375,318.5,image278.jpg,55621.9713
4,50.86365433,-0.094298167,57.3,4.75,-5.375,320.625,image279.jpg,55822.29249
4,50.86365483,-0.094300167,57.3,5.25,-5.1875,321.9375,image280.jpg,56022.5681
4,50.86365517,-0.094302167,57.3,5.125,-4.0625,322.125,image281.jpg,56222.82788
4,50.8636555,-0.094304333,57.3,4.1875,-4.375,321.25,image282.jpg,56423.14235
4,50.86365583,-0.094306333,57.3,5.6875,-4.875,319.5625,image283.jpg,56623.09655
4,50.86365617,-0.0943085,57.3,5.0625,-4.5625,317.8125,image284.jpg,56822.6539
4,50.8636565,-0.09431,57.3,5.5625,-3.875,318.8125,image285.jpg,57022.46987
4,50.86365667,-0.094312,57.3,5.875,-3.5,319.5,image286.jpg,57222.42922
4,50.863657,-0.094314167,57.3,5.25,-4.9375,319,image287.jpg,57422.65457
4,50.86365733,-0.094316167,57.3,5.8125,-4.4375,319.125,image288.jpg,57622.62751
4,50.8636575,-0.094318333,57.3,5,-4.6875,319.6875,image289.jpg,57823.43278
4,50.863658,-0.0943205,57.3,4.25,-3.8125,317.875,image290.jpg,58022.46028
4,50.86365833,-0.094322333,57.3,4.8125,-3,318.125,image291.jpg,58222.59302
4,50.8636585,-0.094324667,57.3,4.1875,-4.0625,317.8125,image292.jpg,58422.82754
4,50.86365883,-0.094327,57.3,4.6875,-4.3125,316.25,image293.jpg,58622.75528
4,50.863659,-0.094329333,57.4,4.1875,-4.5,316.5,image294.jpg,58822.88786
4,50.8636595,-0.094331667,57.3,6,-3.9375,317.3125,image295.jpg,59023.20931
4,50.86365967,-0.094334167,57.3,5.875,-4.5,317.875,image296.jpg,59223.01959
4,50.86366,-0.0943365,57.3,5.625,-4.5625,319.75,image297.jpg,59423.43657
4,50.8636605,-0.094338833,57.4,6.0625,-4.5625,320.6875,image298.jpg,59623.31894
4,50.86366083,-0.094341167,57.3,6.1875,-4.5,318.75,image299.jpg,59823.44996
4,50.86366117,-0.094343667,57.3,6.3125,-5.625,316.5,image300.jpg,60023.42504
4,50.86366133,-0.094346167,57.3,8.5,-3.9375,315.875,image301.jpg,60223.37372
4,50.86366167,-0.094348333,57.4,7.6875,-3.6875,315.4375,image302.jpg,60423.57818
4,50.86366183,-0.094351,57.4,7.8125,-5,315.6875,image303.jpg,60624.5295
4,50.86366217,-0.0943535,57.4,6.625,-5.5625,315.875,image304.jpg,60824.68323
4,50.86366233,-0.094355833,57.3,7.0625,-6,315.25,image305.jpg,61024.93952
4,50.8636625,-0.094358333,57.4,7.8125,-5.8125,313.9375,image306.jpg,61224.99096
4,50.86366267,-0.094360833,57.4,6.0625,-3.9375,313.8125,image307.jpg,61425.26017
4,50.863663,-0.094363167,57.4,8.1875,-5.4375,314.6875,image308.jpg,61624.20797
4,50.86366317,-0.094365833,57.4,6.3125,-6.6875,314.1875,image309.jpg,61824.36004
4,50.8636635,-0.094368333,57.4,7.375,-5.25,315.375,image310.jpg,62024.34986
4,50.86366367,-0.094370833,57.4,6.875,-6.75,315.3125,image311.jpg,62224.97648
4,50.863664,-0.094373333,57.3,8,-4.875,316.125,image312.jpg,62425.56939
4,50.86366433,-0.094375833,57.3,7.5,-6.625,316.9375,image313.jpg,62625.70323
4,50.86366467,-0.0943785,57.3,6.5625,-7.5625,317.25,image314.jpg,62825.52398
4,50.86366517,-0.094380833,57.3,8.25,-5.25,317.6875,image315.jpg,63025.55797
4,50.86366533,-0.094383333,57.3,6.125,-5.9375,318.0625,image316.jpg,63224.69318
4,50.86366583,-0.094386,57.3,8.5625,-5.8125,316.3125,image317.jpg,63424.72988
4,50.86366583,-0.094388333,57.3,6.6875,-6.75,315.625,image318.jpg,63625.22034
4,50.86366617,-0.094391,57.3,6.75,-5.6875,315.6875,image319.jpg,63825.85508
4,50.8636665,-0.0943935,57.3,8.4375,-5.4375,316.0625,image320.jpg,64026.24336
4,50.86366667,-0.094395833,57.3,5.375,-4.5625,317.0625,image321.jpg,64226.65997
4,50.863667,-0.094398333,57.3,6.6875,-3.5,317.625,image322.jpg,64426.38681
4,50.8636675,-0.094400667,57.3,4.375,-3.5,316.625,image323.jpg,64626.27928
4,50.86366767,-0.094403,57.3,5.5,-3.375,314.6875,image324.jpg,64825.39407
4,50.86366783,-0.0944055,57.3,5.0625,-4.625,312.875,image325.jpg,65025.41187
4,50.863668,-0.094408,57.3,5.5625,-4.5,311.75,image326.jpg,65225.79113
4,50.86366833,-0.094410333,57.3,4.8125,-3.5,312.375,image327.jpg,65426.45405
4,50.86366833,-0.094412667,57.3,6.5,-2.625,312.0625,image328.jpg,65625.75759
4,50.86366867,-0.094415,57.3,4.4375,-2.625,312.125,image329.jpg,65825.94039
4,50.86366867,-0.094417667,57.4,7.3125,-3.6875,313.125,image330.jpg,66025.84182
4,50.863669,-0.09442,57.3,6.875,-3.75,314.4375,image331.jpg,66226.19551
4,50.86366917,-0.094422167,57.4,5.3125,-3.4375,315.5625,image332.jpg,66426.2757
4,50.8636695,-0.094424667,57.4,7.0625,-2.5625,315.8125,image333.jpg,66626.34011
4,50.86366983,-0.094427167,57.4,3.3125,-4.0625,316.25,image334.jpg,66826.69021
4,50.86367017,-0.094429667,57.4,4.25,-4.75,317.1875,image335.jpg,67026.71716
4,50.8636705,-0.094431833,57.4,2.5625,-3.8125,318.75,image336.jpg,67226.85616
4,50.863671,-0.094434333,57.4,4.875,-3.5,320.125,image337.jpg,67426.76968
4,50.86367117,-0.094436667,57.4,2.4375,-4.0625,320.3125,image338.jpg,67626.72621
4,50.86367167,-0.094438833,57.4,4.375,-4.125,318.3125,image339.jpg,67826.735
4,50.86367183,-0.094441333,57.4,3.8125,-3,313.375,image340.jpg,68026.81951
4,50.863672,-0.094443667,57.4,5.0625,-3.6875,313.875,image341.jpg,68226.80485
4,50.86367233,-0.094445833,57.4,4.6875,-2.625,314.1875,image342.jpg,68427.56939
4,50.8636725,-0.094448333,57.4,5.0625,-3.125,314.4375,image343.jpg,68628.45716
4,50.86367267,-0.094450667,57.4,3.3125,-4.1875,315.6875,image344.jpg,68828.21697
4,50.86367283,-0.094453,57.4,4,-5,315.4375,image345.jpg,69028.17398
4,50.86367317,-0.094455333,57.4,3.4375,-2.875,316.0625,image346.jpg,69228.40136
4,50.86367333,-0.094457667,57.4,3.8125,-3.3125,316.6875,image347.jpg,69427.14458
4,50.86367383,-0.09446,57.4,4.75,-3.4375,318.5,image348.jpg,69627.60436
4,50.863674,-0.094462333,57.4,4.8125,-3.5,319,image349.jpg,69827.5259
4,50.86367433,-0.094464667,57.4,4.0625,-3.5,319.25,image350.jpg,70028.04897
4,50.86367467,-0.094467167,57.4,4.9375,-4.6875,320.0625,image351.jpg,70228.90346
4,50.86367517,-0.0944695,57.4,5.375,-5.6875,320.875,image352.jpg,70429.16793
4,50.86367567,-0.094471667,57.4,3.375,-3.4375,321.5625,image353.jpg,70629.19879
4,50.863676,-0.094474,57.4,4.4375,-1.5625,322.5,image354.jpg,70829.12304
4,50.8636765,-0.094476,57.4,5.5,-3.0625,322.25,image355.jpg,71028.29273
4,50.86367683,-0.094478333,57.4,7.5,-3.25,322.375,image356.jpg,71228.39849
4,50.86367733,-0.094480667,57.4,8.1875,-5.75,323,image357.jpg,71428.43248
4,50.86367767,-0.094482833,57.4,7.8125,-6.875,322.8125,image358.jpg,71630.1309
4,50.86367817,-0.094484833,57.4,6.875,-4.8125,320.375,image359.jpg,71829.56237
4,50.8636785,-0.094487167,57.5,7.0625,-2.6875,319.25,image360.jpg,72029.59511
4,50.86367867,-0.094489167,57.5,4.8125,-3.125,318.75,image361.jpg,72229.56176
4,50.86367917,-0.0944915,57.5,9.5625,-2.4375,319.1875,image362.jpg,72429.82273
4,50.8636795,-0.094493667,57.5,3.375,-5.1875,319.375,image363.jpg,72628.87481
4,50.86367983,-0.094495833,57.5,7.0625,-5.1875,320.875,image364.jpg,72828.98276
4,50.86368017,-0.094498,57.5,6.1875,-2,321.0625,image365.jpg,73029.15374
4,50.8636805,-0.094500333,57.5,7.4375,-3.8125,321.0625,image366.jpg,73229.64873
4,50.863681,-0.094502833,57.5,5.5,-3.875,321.3125,image367.jpg,73429.18026
4,50.86368133,-0.094505,57.5,6.5,-3.8125,319,image368.jpg,73629.38311
4,50.86368167,-0.094507333,57.5,4.9375,-3.0625,318,image369.jpg,73829.41038
4,50.863682,-0.094509833,57.5,7.0625,-3.0625,318.25,image370.jpg,74029.67037
4,50.86368233,-0.094512167,57.5,6,-4.0625,318.75,image371.jpg,74229.55143
4,50.8636825,-0.094514667,57.4,5.125,-4.0625,319.8125,image372.jpg,74429.65886
4,50.863683,-0.094516833,57.5,6.5,-3,320.875,image373.jpg,74629.88963
4,50.86368333,-0.0945195,57.4,4.8125,-4.875,320.9375,image374.jpg,74829.7894
4,50.86368383,-0.094522,57.5,9.1875,-3.875,322,image375.jpg,75029.88725
4,50.863684,-0.094524333,57.5,7.1875,-3,323.0625,image376.jpg,75229.97275
4,50.86368467,-0.094526667,57.5,10.1875,-4.75,325.8125,image377.jpg,75430.13143
4,50.86368533,-0.094528833,57.5,6.6875,-3.75,327,image378.jpg,75630.13037
4,50.86368567,-0.094531333,57.5,8.25,-3.3125,328.1875,image379.jpg,75830.16482
4,50.8636865,-0.094533667,57.5,7.8125,-5.3125,329.25,image380.jpg,76030.44023
4,50.86368717,-0.094536,57.5,8.0625,-3.375,333.5,image381.jpg,76230.88226
4,50.863688,-0.094538,57.5,9.625,-2.8125,335.5625,image382.jpg,76431.58033
4,50.86368883,-0.094540333,57.5,7.5,-3.1875,336.125,image383.jpg,76631.68542
4,50.8636895,-0.0945425,57.5,7.625,-3.625,337.0625,image384.jpg,76831.44622
4,50.86369017,-0.0945445,57.5,7.8125,-3.8125,336.25,image385.jpg,77031.60183
4,50.86369117,-0.094546667,57.5,4.625,-3.875,334.375,image386.jpg,77230.9347
4,50.86369183,-0.094549,57.5,6.1875,-3.375,334,image387.jpg,77430.90114
4,50.8636925,-0.094550833,57.5,7.25,-2.875,334.1875,image388.jpg,77630.8321
4,50.86369317,-0.094553,57.5,6.125,-3.4375,334.8125,image389.jpg,77831.20855
4,50.86369417,-0.094555167,57.5,5.875,-3.3125,334.375,image390.jpg,78032.02674
4,50.86369483,-0.094557333,57.5,3.5,-3.9375,331.5,image391.jpg,78232.01942
4,50.8636955,-0.094559667,57.5,5.25,-3.875,330.0625,image392.jpg,78432.03206
4,50.86369617,-0.094561833,57.5,6.375,-3.3125,329.8125,image393.jpg,78632.16121
4,50.86369667,-0.094564,57.5,6.875,-3.75,330.5625,image394.jpg,78831.2149
4,50.86369733,-0.094566333,57.5,9.5625,-3.6875,331.0625,image395.jpg,79031.36369
4,50.86369783,-0.0945685,57.5,7.6875,-3.6875,332.4375,image396.jpg,79231.46862
4,50.86369867,-0.094570833,57.5,8.8125,-3.4375,332.5,image397.jpg,79432.18878
4,50.86369917,-0.094573,57.5,9.125,-2.75,332.375,image398.jpg,79632.84034
4,50.8637,-0.094575167,57.5,9.5,-3.25,332.5625,image399.jpg,79833.57535
4,50.86370067,-0.094577333,57.5,7.9375,-4.25,335.4375,image400.jpg,80033.66413
4,50.8637015,-0.0945795,57.5,8,-3.5625,337.875,image401.jpg,80233.65984