gps quality,lat,lon,altitude,roll,pitch,yaw,image name,timestamp
4,50.8634141667,-0.0939553333,56.6000000000,0.8125000000,-2.3750000000,0.0000000000,image0.jpg,2.6685330000
4,50.8634141667,-0.0939553333,56.6000000000,0.8125000000,-2.3750000000,0.0000000000,image1.jpg,201.7826990000
4,50.8634143333,-0.0939555000,56.6000000000,0.8125000000,-2.3750000000,0.0000000000,image2.jpg,402.1698270000
4,50.8634141667,-0.0939555000,56.7000000000,0.8125000000,-2.3750000000,0.0000000000,image3.jpg,602.7285750000
4,50.8634141667,-0.0939555000,56.6000000000,0.8125000000,-2.3750000000,0.0000000000,image4.jpg,803.0329920000
4,50.8634141667,-0.0939555000,56.7000000000,0.8125000000,-2.3750000000,0.0000000000,image5.jpg,1003.1937060000
4,50.8634141667,-0.0939555000,56.6000000000,0.8125000000,-2.3750000000,0.0000000000,image6.jpg,1203.2646760000
4,50.8634141667,-0.0939555000,56.6000000000,0.8125000000,-2.3750000000,0.0000000000,image7.jpg,1403.1256390000
4,50.8634141667,-0.0939555000,56.6000000000,0.8125000000,-2.3750000000,0.0000000000,image8.jpg,1602.4171550000
4,50.8634141667,-0.0939555000,56.6000000000,0.8125000000,-2.3750000000,0.0000000000,image9.jpg,1802.4578640000
4,50.8634141667,-0.0939555000,56.6000000000,0.5000000000,-2.5625000000,359.6875000000,image10.jpg,2002.6823300000
4,50.8634140000,-0.0939550000,56.7000000000,-1.6875000000,-2.0625000000,359.5625000000,image11.jpg,2203.2751420000
4,50.8634138333,-0.0939548333,56.6000000000,-1.1250000000,-2.0000000000,359.2500000000,image12.jpg,2402.7048400000
4,50.8634140000,-0.0939548333,56.6000000000,-1.6250000000,-2.8750000000,359.6250000000,image13.jpg,2603.8194940000
4,50.8634138333,-0.0939548333,56.6000000000,-0.8125000000,-2.6250000000,359.6250000000,image14.jpg,2802.8677200000
4,50.8634141667,-0.0939551667,56.6000000000,0.5000000000,-3.0000000000,359.6875000000,image15.jpg,3002.8402490000
4,50.8634143333,-0.0939556667,56.6000000000,1.7500000000,-3.1250000000,359.1875000000,image16.jpg,3202.9211160000
4,50.8634146667,-0.0939560000,56.6000000000,1.8750000000,-3.5000000000,359.0625000000,image17.jpg,3403.0016700000
4,50.8634150000,-0.0939565000,56.6000000000,3.1875000000,-3.3125000000,359.0000000000,image18.jpg,3603.0559220000
4,50.8634156667,-0.0939570000,56.6000000000,1.7500000000,-2.3125000000,359.0625000000,image19.jpg,3803.3141390000
4,50.8634161667,-0.0939576667,56.6000000000,2.3125000000,-0.7500000000,359.4375000000,image20.jpg,4003.1519760000
4,50.8634168333,-0.0939585000,56.6000000000,5.7500000000,-1.3750000000,359.6250000000,image21.jpg,4203.1335690000
4,50.8634176667,-0.0939595000,56.6000000000,3.8125000000,-2.0000000000,359.8750000000,image22.jpg,4403.2056850000
4,50.8634186667,-0.0939603333,56.6000000000,4.1250000000,-2.3750000000,0.5000000000,image23.jpg,4603.2644160000
4,50.8634193333,-0.0939613333,56.6000000000,5.8125000000,-3.5625000000,0.8125000000,image24.jpg,4803.3392410000
4,50.8634203333,-0.0939623333,56.7000000000,6.8750000000,-2.3125000000,0.3125000000,image25.jpg,5003.4328170000
4,50.8634211667,-0.0939635000,56.6000000000,4.6875000000,-2.5000000000,0.9375000000,image26.jpg,5203.5837380000
4,50.8634221667,-0.0939641667,56.7000000000,4.9375000000,-2.0625000000,1.2500000000,image27.jpg,5404.3708280000
4,50.8634230000,-0.0939653333,56.7000000000,8.0625000000,-2.2500000000,1.0625000000,image28.jpg,5604.5928980000
4,50.8634240000,-0.0939661667,56.6000000000,6.9375000000,-1.0000000000,1.0625000000,image29.jpg,5804.6336070000
4,50.8634246667,-0.0939673333,56.7000000000,7.8750000000,-1.0625000000,2.1250000000,image30.jpg,6004.7019220000
4,50.8634258333,-0.0939683333,56.7000000000,6.8125000000,-3.1875000000,3.0000000000,image31.jpg,6204.7073170000
4,50.8634268333,-0.0939691667,56.7000000000,7.6250000000,-4.8125000000,3.5625000000,image32.jpg,6403.9033600000
4,50.8634278333,-0.0939703333,56.7000000000,8.1875000000,-4.2500000000,3.0625000000,image33.jpg,6603.9186520000
4,50.8634290000,-0.0939711667,56.7000000000,6.3750000000,-4.3750000000,3.5625000000,image34.jpg,6804.0429580000
4,50.8634296667,-0.0939720000,56.7000000000,8.8750000000,-2.5625000000,3.5000000000,image35.jpg,7004.5699870000
4,50.8634306667,-0.0939731667,56.7000000000,8.8125000000,-2.8750000000,6.0000000000,image36.jpg,7205.1789460000
4,50.8634316667,-0.0939738333,56.7000000000,9.0625000000,-1.6875000000,6.2500000000,image37.jpg,7405.2081440000
4,50.8634325000,-0.0939746667,56.7000000000,10.1250000000,-0.6875000000,8.0000000000,image38.jpg,7605.2979700000
4,50.8634335000,-0.0939755000,56.7000000000,12.0625000000,1.4375000000,10.5000000000,image39.jpg,7805.4402970000
4,50.8634346667,-0.0939763333,56.7000000000,11.1250000000,-1.5625000000,12.6875000000,image40.jpg,8004.5193570000
4,50.8634358333,-0.0939768333,56.7000000000,12.1250000000,-0.6875000000,13.2500000000,image41.jpg,8204.5959010000
4,50.8634366667,-0.0939778333,56.7000000000,12.0000000000,-0.6875000000,12.1875000000,image42.jpg,8404.6377560000
4,50.8634378333,-0.0939785000,56.7000000000,11.7500000000,0.2500000000,12.5000000000,image43.jpg,8605.2141090000
4,50.8634388333,-0.0939791667,56.7000000000,11.8750000000,0.5625000000,13.1875000000,image44.jpg,8805.7196790000
4,50.8634398333,-0.0939796667,56.7000000000,12.1250000000,0.0625000000,15.2500000000,image45.jpg,9005.7976810000
4,50.8634410000,-0.0939805000,56.7000000000,11.3750000000,0.0000000000,17.0625000000,image46.jpg,9206.1026710000
4,50.8634420000,-0.0939808333,56.7000000000,10.5625000000,-0.2500000000,18.0625000000,image47.jpg,9406.1224420000
4,50.8634431667,-0.0939813333,56.7000000000,9.4375000000,0.0000000000,18.6250000000,image48.jpg,9605.2406180000
4,50.8634441667,-0.0939820000,56.7000000000,11.9375000000,0.1250000000,19.7500000000,image49.jpg,9805.1162690000
4,50.8634455000,-0.0939823333,56.7000000000,8.9375000000,-0.5625000000,22.7500000000,image50.jpg,10005.1885940000
4,50.8634466667,-0.0939825000,56.7000000000,6.8125000000,-1.0000000000,26.0000000000,image51.jpg,10205.6773400000
4,50.8634478333,-0.0939826667,56.8000000000,7.3125000000,-2.5625000000,27.1250000000,image52.jpg,10405.3694430000
4,50.8634491667,-0.0939830000,56.8000000000,7.5000000000,-2.0625000000,28.1875000000,image53.jpg,10605.3940060000
4,50.8634503333,-0.0939831667,56.8000000000,6.0625000000,-1.3750000000,28.8125000000,image54.jpg,10805.4852900000
4,50.8634515000,-0.0939831667,56.7000000000,6.5000000000,-0.4375000000,30.1875000000,image55.jpg,11005.5432910000
4,50.8634528333,-0.0939835000,56.7000000000,6.3750000000,-2.0000000000,30.5000000000,image56.jpg,11205.6051990000
4,50.8634541667,-0.0939835000,56.8000000000,4.6875000000,-2.0000000000,29.4375000000,image57.jpg,11405.6793990000
4,50.8634551667,-0.0939838333,56.7000000000,5.0000000000,-1.3125000000,27.0625000000,image58.jpg,11605.7715160000
4,50.8634563333,-0.0939840000,56.7000000000,5.1875000000,-1.3750000000,23.2500000000,image59.jpg,11806.0740580000
4,50.8634575000,-0.0939845000,56.7000000000,7.7500000000,-0.0625000000,22.2500000000,image60.jpg,12005.8774150000
4,50.8634585000,-0.0939850000,56.7000000000,6.6875000000,-0.8750000000,21.5625000000,image61.jpg,12205.8405170000
4,50.8634596667,-0.0939856667,56.7000000000,9.4375000000,-0.0625000000,21.3750000000,image62.jpg,12406.0057620000
4,50.8634608333,-0.0939858333,56.7000000000,8.1250000000,-1.4375000000,21.9375000000,image63.jpg,12606.0420960000
4,50.8634620000,-0.0939863333,56.7000000000,9.2500000000,-0.5625000000,22.7500000000,image64.jpg,12806.1615580000
4,50.8634630000,-0.0939870000,56.8000000000,8.6875000000,-1.9375000000,22.3750000000,image65.jpg,13006.1371080000
4,50.8634643333,-0.0939871667,56.8000000000,7.3125000000,0.0000000000,21.0000000000,image66.jpg,13206.2852690000
4,50.8634655000,-0.0939876667,56.8000000000,9.2500000000,-1.0000000000,19.6250000000,image67.jpg,13407.0702760000
4,50.8634665000,-0.0939883333,56.8000000000,8.3125000000,-0.5000000000,18.0000000000,image68.jpg,13607.7423620000
4,50.8634676667,-0.0939888333,56.8000000000,8.3750000000,-1.0000000000,18.1875000000,image69.jpg,13807.5974920000
4,50.8634688333,-0.0939893333,56.8000000000,9.4375000000,-1.4375000000,20.9375000000,image70.jpg,14007.5391350000
4,50.8634701667,-0.0939896667,56.8000000000,8.3125000000,-1.6250000000,24.0625000000,image71.jpg,14207.5542180000
4,50.8634713333,-0.0939900000,56.8000000000,8.0000000000,-0.8125000000,24.5000000000,image72.jpg,14406.8385460000
4,50.8634725000,-0.0939903333,56.8000000000,9.0000000000,-1.0000000000,26.3125000000,image73.jpg,14606.7525840000
4,50.8634738333,-0.0939905000,56.8000000000,8.5000000000,-0.8125000000,27.1875000000,image74.jpg,14806.8674110000
4,50.8634750000,-0.0939910000,56.8000000000,8.8750000000,-0.4375000000,27.6250000000,image75.jpg,15007.2397460000
4,50.8634761667,-0.0939911667,56.8000000000,7.5000000000,-1.6875000000,24.4375000000,image76.jpg,15208.0192320000
4,50.8634775000,-0.0939915000,56.8000000000,6.2500000000,-2.0000000000,19.5000000000,image77.jpg,15408.0480140000
4,50.8634785000,-0.0939921667,56.8000000000,7.5625000000,-1.0000000000,18.2500000000,image78.jpg,15608.0911190000
4,50.8634796667,-0.0939928333,56.8000000000,9.0625000000,-0.9375000000,19.0000000000,image79.jpg,15808.2050080000
4,50.8634808333,-0.0939931667,56.8000000000,8.5625000000,-2.0625000000,19.9375000000,image80.jpg,16007.5432440000
4,50.8634820000,-0.0939936667,56.8000000000,7.3125000000,-1.9375000000,20.7500000000,image81.jpg,16207.4599900000
4,50.8634833333,-0.0939941667,56.8000000000,6.8750000000,-2.5000000000,20.0000000000,image82.jpg,16407.4478330000
4,50.8634845000,-0.0939948333,56.8000000000,8.2500000000,-2.2500000000,18.5000000000,image83.jpg,16607.8597010000
4,50.8634856667,-0.0939953333,56.8000000000,6.6875000000,-1.8125000000,17.0000000000,image84.jpg,16808.4915780000
4,50.8634868333,-0.0939958333,56.8000000000,7.1250000000,-2.7500000000,15.7500000000,image85.jpg,17008.7047930000
4,50.8634880000,-0.0939966667,56.8000000000,7.9375000000,-1.6875000000,13.6250000000,image86.jpg,17208.7123760000
4,50.8634890000,-0.0939975000,56.8000000000,8.1875000000,-2.1875000000,12.1875000000,image87.jpg,17408.7510540000
4,50.8634903333,-0.0939980000,56.8000000000,6.1875000000,-3.6250000000,12.2500000000,image88.jpg,17608.4304480000
4,50.8634915000,-0.0939990000,56.8000000000,9.4375000000,-3.5625000000,11.4375000000,image89.jpg,17807.9460860000
4,50.8634926667,-0.0940000000,56.8000000000,5.5625000000,-4.1875000000,9.0625000000,image90.jpg,18008.0320570000
4,50.8634936667,-0.0940008333,56.8000000000,9.0625000000,-2.7500000000,7.5625000000,image91.jpg,18208.4450720000
4,50.8634946667,-0.0940018333,56.8000000000,7.5000000000,-1.6875000000,7.5000000000,image92.jpg,18408.9817360000
4,50.8634958333,-0.0940025000,56.8000000000,9.7500000000,0.5625000000,9.6875000000,image93.jpg,18608.2949710000
4,50.8634968333,-0.0940033333,56.8000000000,10.1875000000,-0.1250000000,11.5000000000,image94.jpg,18808.3488580000
4,50.8634980000,-0.0940040000,56.8000000000,10.6875000000,0.6250000000,12.4375000000,image95.jpg,19008.4135260000
4,50.8634991667,-0.0940050000,56.8000000000,9.0625000000,-1.1875000000,13.5625000000,image96.jpg,19208.4841850000
4,50.8635001667,-0.0940055000,56.8000000000,8.3125000000,-1.8125000000,14.0625000000,image97.jpg,19408.5770830000
4,50.8635013333,-0.0940063333,56.8000000000,10.0625000000,-1.0625000000,14.5000000000,image98.jpg,19608.6170630000
4,50.8635025000,-0.0940070000,56.8000000000,7.3750000000,-0.8125000000,12.5000000000,image99.jpg,19808.9093440000
4,50.8635036667,-0.0940078333,56.8000000000,8.3125000000,-1.5625000000,10.6875000000,image100.jpg,20008.7308790000
4,50.8635046667,-0.0940088333,56.8000000000,8.8125000000,-1.1250000000,7.6875000000,image101.jpg,20208.8298710000
4,50.8635058333,-0.0940096667,56.8000000000,8.3125000000,-1.0625000000,6.4375000000,image102.jpg,20408.8574550000
4,50.8635070000,-0.0940106667,56.8000000000,9.3125000000,-0.6875000000,5.8750000000,image103.jpg,20608.8782150000
4,50.8635080000,-0.0940118333,56.8000000000,9.1250000000,-1.0625000000,5.4375000000,image104.jpg,20809.0061670000
4,50.8635093333,-0.0940126667,56.8000000000,8.5625000000,-1.6250000000,4.8750000000,image105.jpg,21009.0440630000
4,50.8635103333,-0.0940138333,56.8000000000,9.6875000000,-1.6250000000,4.4375000000,image106.jpg,21209.1208150000
4,50.8635115000,-0.0940150000,56.8000000000,8.3750000000,-0.9375000000,3.9375000000,image107.jpg,21409.6561250000
4,50.8635125000,-0.0940160000,56.8000000000,7.6250000000,-2.1250000000,3.3125000000,image108.jpg,21610.3315450000
4,50.8635136667,-0.0940171667,56.8000000000,7.9375000000,-3.1875000000,1.2500000000,image109.jpg,21810.2866780000
4,50.8635148333,-0.0940185000,56.8000000000,6.1250000000,-3.4375000000,359.3750000000,image110.jpg,22010.3280110000
4,50.8635158333,-0.0940198333,56.8000000000,8.1250000000,-3.3125000000,357.2500000000,image111.jpg,22210.5577380000
4,50.8635168333,-0.0940210000,56.8000000000,8.0625000000,-3.6250000000,355.0625000000,image112.jpg,22410.0469680000
4,50.8635178333,-0.0940225000,56.8000000000,9.1250000000,-1.9375000000,353.9375000000,image113.jpg,22609.6334420000
4,50.8635188333,-0.0940240000,56.9000000000,8.3125000000,-2.0000000000,352.1875000000,image114.jpg,22809.6824330000
4,50.8635198333,-0.0940255000,56.9000000000,8.7500000000,-3.1250000000,350.6875000000,image115.jpg,23010.0175270000
4,50.8635208333,-0.0940270000,56.9000000000,9.2500000000,-3.8125000000,350.1875000000,image116.jpg,23210.6751340000
4,50.8635216667,-0.0940286667,56.9000000000,10.5625000000,-3.3750000000,349.7500000000,image117.jpg,23410.8376700000
4,50.8635225000,-0.0940301667,56.9000000000,9.9375000000,-3.8750000000,349.0625000000,image118.jpg,23611.0048420000
4,50.8635235000,-0.0940320000,56.9000000000,10.8125000000,-3.6875000000,349.3125000000,image119.jpg,23811.1552940000
4,50.8635245000,-0.0940333333,56.9000000000,9.9375000000,-2.9375000000,350.0625000000,image120.jpg,24010.5848350000
4,50.8635253333,-0.0940348333,56.9000000000,9.0000000000,-3.1250000000,351.5000000000,image121.jpg,24210.1784450000
4,50.8635263333,-0.0940363333,56.9000000000,7.7500000000,-3.4375000000,348.8750000000,image122.jpg,24410.2399360000
4,50.8635273333,-0.0940380000,56.9000000000,7.0000000000,-3.3750000000,349.0000000000,image123.jpg,24610.6723250000
4,50.8635281667,-0.0940395000,56.9000000000,7.5000000000,-3.3125000000,350.0625000000,image124.jpg,24811.2935760000
4,50.8635293333,-0.0940410000,56.9000000000,7.5625000000,-3.1875000000,351.2500000000,image125.jpg,25011.5839820000
4,50.8635303333,-0.0940423333,56.9000000000,6.7500000000,-2.6875000000,351.8750000000,image126.jpg,25211.6628690000
4,50.8635313333,-0.0940438333,56.9000000000,6.8125000000,-2.6875000000,351.9375000000,image127.jpg,25411.6115440000
4,50.8635323333,-0.0940453333,56.9000000000,6.2500000000,-2.5000000000,352.5000000000,image128.jpg,25611.3747950000
4,50.8635331667,-0.0940468333,56.9000000000,6.7500000000,-1.9375000000,352.0000000000,image129.jpg,25810.8205340000
4,50.8635341667,-0.0940483333,56.9000000000,6.7500000000,-2.1875000000,351.8125000000,image130.jpg,26010.8422840000
4,50.8635351667,-0.0940498333,56.9000000000,6.8125000000,-1.0625000000,351.0625000000,image131.jpg,26211.2035780000
4,50.8635361667,-0.0940513333,56.9000000000,6.9375000000,-1.8750000000,348.1250000000,image132.jpg,26411.0026630000
4,50.8635370000,-0.0940528333,56.9000000000,5.4375000000,-3.1875000000,345.9375000000,image133.jpg,26611.0656130000
4,50.8635378333,-0.0940545000,56.9000000000,6.7500000000,-3.1875000000,343.3125000000,image134.jpg,26811.1277290000
4,50.8635386667,-0.0940563333,56.9000000000,6.9375000000,-3.3750000000,340.8125000000,image135.jpg,27011.2308880000
4,50.8635393333,-0.0940580000,56.9000000000,6.1875000000,-3.2500000000,340.5000000000,image136.jpg,27211.2810240000
4,50.8635400000,-0.0940598333,56.9000000000,8.3750000000,-3.8125000000,339.7500000000,image137.jpg,27411.3498070000
4,50.8635408333,-0.0940616667,56.9000000000,7.8750000000,-4.5625000000,339.1250000000,image138.jpg,27611.4299960000
4,50.8635415000,-0.0940636667,56.9000000000,8.6875000000,-5.1875000000,338.9375000000,image139.jpg,27811.7324860000
4,50.8635423333,-0.0940653333,56.9000000000,8.1875000000,-5.1875000000,338.1250000000,image140.jpg,28011.5443840000
4,50.8635430000,-0.0940671667,56.9000000000,9.1875000000,-3.5625000000,337.9375000000,image141.jpg,28211.6242610000
4,50.8635435000,-0.0940690000,56.9000000000,9.9375000000,-3.8750000000,339.0625000000,image142.jpg,28411.6948670000
4,50.8635443333,-0.0940705000,56.9000000000,9.3750000000,-3.5000000000,339.4375000000,image143.jpg,28611.7754210000
4,50.8635450000,-0.0940725000,56.9000000000,8.9375000000,-4.8750000000,339.3750000000,image144.jpg,28811.8875910000
4,50.8635458333,-0.0940743333,56.9000000000,8.4375000000,-4.8125000000,339.7500000000,image145.jpg,29011.8950180000
4,50.8635465000,-0.0940760000,56.9000000000,8.6875000000,-4.9375000000,339.5625000000,image146.jpg,29211.9755200000
4,50.8635473333,-0.0940775000,56.9000000000,6.5625000000,-5.6250000000,341.1875000000,image147.jpg,29412.5574980000
4,50.8635476667,-0.0940785000,56.9000000000,7.1875000000,-4.1875000000,340.0000000000,image148.jpg,29613.3295880000
4,50.8635483333,-0.0940803333,56.9000000000,7.0625000000,-4.2500000000,339.4375000000,image149.jpg,29813.1360700000
4,50.8635490000,-0.0940820000,56.9000000000,8.8750000000,-2.6250000000,338.5000000000,image150.jpg,30013.1999570000
4,50.8635496667,-0.0940838333,56.9000000000,8.6875000000,-2.6250000000,338.3750000000,image151.jpg,30213.2722810000
4,50.8635505000,-0.0940856667,56.9000000000,8.1250000000,-2.6875000000,338.1250000000,image152.jpg,30412.6794780000
4,50.8635511667,-0.0940873333,56.9000000000,8.3750000000,-3.0000000000,338.6250000000,image153.jpg,30612.5150750000
4,50.8635520000,-0.0940891667,56.9000000000,9.7500000000,-2.5000000000,338.1250000000,image154.jpg,30812.5541690000
4,50.8635526667,-0.0940910000,56.9000000000,8.3125000000,-2.5625000000,338.6250000000,image155.jpg,31012.9185360000
4,50.8635535000,-0.0940930000,56.9000000000,8.5625000000,-3.8750000000,339.1250000000,image156.jpg,31213.7231270000
4,50.8635541667,-0.0940950000,56.9000000000,8.7500000000,-3.8750000000,339.5625000000,image157.jpg,31413.7348240000
4,50.8635551667,-0.0940966667,56.9000000000,7.9375000000,-2.8750000000,340.6875000000,image158.jpg,31613.8120450000
4,50.8635560000,-0.0940985000,56.9000000000,7.0000000000,-3.7500000000,341.5000000000,image159.jpg,31813.8587440000
4,50.8635570000,-0.0941003333,56.9000000000,7.8750000000,-3.0000000000,342.4375000000,image160.jpg,32013.2527100000
4,50.8635578333,-0.0941021667,56.9000000000,8.6875000000,-2.6875000000,342.1875000000,image161.jpg,32213.0410140000
4,50.8635586667,-0.0941038333,56.9000000000,7.0625000000,-2.9375000000,343.4375000000,image162.jpg,32413.1116200000
4,50.8635595000,-0.0941058333,56.9000000000,8.3125000000,-2.5625000000,344.0625000000,image163.jpg,32613.4809870000
4,50.8635603333,-0.0941073333,57.0000000000,5.9375000000,-1.4375000000,343.6875000000,image164.jpg,32814.2869320000
4,50.8635613333,-0.0941090000,57.0000000000,6.7500000000,-2.5000000000,343.6250000000,image165.jpg,33014.2258140000
4,50.8635621667,-0.0941108333,57.0000000000,6.1875000000,-4.4375000000,343.3750000000,image166.jpg,33214.2865760000
4,50.8635630000,-0.0941125000,57.0000000000,7.5625000000,-3.5000000000,343.3750000000,image167.jpg,33414.3844750000
4,50.8635638333,-0.0941141667,57.0000000000,8.1875000000,-2.7500000000,344.1875000000,image168.jpg,33613.6879170000
4,50.8635646667,-0.0941160000,57.0000000000,10.3125000000,-3.0000000000,348.5000000000,image169.jpg,33813.5530990000
4,50.8635656667,-0.0941173333,57.0000000000,8.6250000000,-2.6250000000,350.6250000000,image170.jpg,34013.6318820000
4,50.8635666667,-0.0941190000,57.0000000000,8.3125000000,-1.2500000000,351.8750000000,image171.jpg,34214.2065170000
4,50.8635676667,-0.0941203333,57.0000000000,7.5625000000,-1.9375000000,352.3125000000,image172.jpg,34413.7571560000
4,50.8635688333,-0.0941218333,57.0000000000,8.4375000000,-1.7500000000,352.0625000000,image173.jpg,34613.8441170000
4,50.8635698333,-0.0941233333,57.0000000000,7.3750000000,-2.6250000000,350.9375000000,image174.jpg,34813.9246190000
4,50.8635706667,-0.0941250000,57.0000000000,7.7500000000,-2.8125000000,349.1250000000,image175.jpg,35013.9758490000
4,50.8635716667,-0.0941266667,57.0000000000,7.2500000000,-3.3125000000,346.6250000000,image176.jpg,35214.0018180000
4,50.8635725000,-0.0941285000,57.0000000000,8.2500000000,-3.1875000000,347.5625000000,image177.jpg,35414.0606000000
4,50.8635735000,-0.0941300000,57.0000000000,7.8750000000,-2.3750000000,348.8750000000,image178.jpg,35614.1886560000
4,50.8635745000,-0.0941316667,57.0000000000,10.0000000000,-3.8125000000,350.0000000000,image179.jpg,35814.3959860000
4,50.8635755000,-0.0941333333,57.0000000000,7.8125000000,-5.0625000000,351.5000000000,image180.jpg,36014.2981480000
4,50.8635766667,-0.0941350000,57.0000000000,9.1875000000,-4.1250000000,352.6875000000,image181.jpg,36214.3380760000
4,50.8635776667,-0.0941363333,57.0000000000,6.6250000000,-5.0000000000,354.0625000000,image182.jpg,36414.4159210000
4,50.8635790000,-0.0941380000,57.0000000000,7.0000000000,-4.0000000000,355.3750000000,image183.jpg,36614.4701200000
4,50.8635798333,-0.0941391667,57.0000000000,8.0625000000,-0.6250000000,355.8125000000,image184.jpg,36814.4896830000
4,50.8635810000,-0.0941403333,57.0000000000,6.8125000000,-0.2500000000,355.6875000000,image185.jpg,37014.5670600000
4,50.8635820000,-0.0941420000,57.0000000000,8.2500000000,-2.3750000000,356.8750000000,image186.jpg,37215.0282010000
4,50.8635831667,-0.0941430000,57.0000000000,4.9375000000,-2.1875000000,357.5000000000,image187.jpg,37415.7526840000
4,50.8635840000,-0.0941445000,57.0000000000,7.8750000000,-3.6250000000,357.7500000000,image188.jpg,37615.7342760000
4,50.8635853333,-0.0941460000,57.0000000000,7.8750000000,-2.0000000000,358.0625000000,image189.jpg,37815.8116010000
4,50.8635861667,-0.0941470000,57.0000000000,8.3750000000,-1.1250000000,358.7500000000,image190.jpg,38015.8321010000
4,50.8635873333,-0.0941481667,57.0000000000,8.6875000000,-1.2500000000,359.4375000000,image191.jpg,38215.6091030000
4,50.8635881667,-0.0941495000,57.0000000000,7.7500000000,-3.0000000000,0.0000000000,image192.jpg,38415.1080730000
4,50.8635893333,-0.0941506667,57.0000000000,7.6250000000,-1.4375000000,357.7500000000,image193.jpg,38615.0836760000
4,50.8635905000,-0.0941518333,57.0000000000,7.5000000000,-3.5000000000,355.0625000000,image194.jpg,38815.4940860000
4,50.8635915000,-0.0941533333,57.1000000000,8.7500000000,-2.0000000000,354.6250000000,image195.jpg,39016.2812800000
4,50.8635925000,-0.0941546667,57.0000000000,8.5000000000,-1.3750000000,353.8125000000,image196.jpg,39216.2663100000
4,50.8635935000,-0.0941563333,57.1000000000,8.1250000000,-2.7500000000,354.0000000000,image197.jpg,39416.2983730000
4,50.8635946667,-0.0941576667,57.1000000000,8.1875000000,-4.0000000000,354.9375000000,image198.jpg,39616.9258210000
4,50.8635956667,-0.0941593333,57.1000000000,8.3125000000,-3.6250000000,355.0000000000,image199.jpg,39815.5705950000
4,50.8635968333,-0.0941605000,57.1000000000,5.6875000000,-1.6875000000,355.7500000000,image200.jpg,40015.5537490000
4,50.8635978333,-0.0941620000,57.1000000000,6.5000000000,-2.4375000000,355.2500000000,image201.jpg,40215.6986810000
4,50.8635988333,-0.0941633333,57.1000000000,6.3750000000,-2.6250000000,354.9375000000,image202.jpg,40416.5131160000
4,50.8636000000,-0.0941648333,57.1000000000,5.5625000000,-2.8750000000,355.8750000000,image203.jpg,40616.6892980000
4,50.8636011667,-0.0941661667,57.1000000000,6.6250000000,-2.7500000000,356.5000000000,image204.jpg,40816.7715710000
4,50.8636020000,-0.0941675000,57.1000000000,7.3750000000,-3.6875000000,356.1250000000,image205.jpg,41016.9668690000
4,50.8636031667,-0.0941688333,57.1000000000,5.5625000000,-3.6250000000,356.3125000000,image206.jpg,41217.0898210000
4,50.8636041667,-0.0941703333,57.1000000000,6.8125000000,-3.2500000000,356.1875000000,image207.jpg,41416.1314310000
4,50.8636055000,-0.0941716667,57.1000000000,6.1250000000,-3.5625000000,354.6875000000,image208.jpg,41616.2808940000
4,50.8636065000,-0.0941733333,57.1000000000,6.4375000000,-3.0000000000,354.1875000000,image209.jpg,41816.3652500000
4,50.8636076667,-0.0941748333,57.1000000000,5.6875000000,-3.0000000000,353.7500000000,image210.jpg,42016.6042480000
4,50.8636086667,-0.0941763333,57.1000000000,5.0000000000,-3.6250000000,353.3125000000,image211.jpg,42216.4263030000
4,50.8636096667,-0.0941776667,57.1000000000,4.6875000000,-2.9375000000,353.0000000000,image212.jpg,42416.4971170000
4,50.8636106667,-0.0941791667,57.1000000000,3.5000000000,-2.3750000000,351.7500000000,image213.jpg,42616.6044430000
4,50.8636118333,-0.0941806667,57.1000000000,5.5000000000,-2.3125000000,350.7500000000,image214.jpg,42816.7766150000
4,50.8636126667,-0.0941825000,57.1000000000,6.6875000000,-2.8750000000,350.6250000000,image215.jpg,43016.5922120000
4,50.8636136667,-0.0941838333,57.1000000000,6.5000000000,-2.3750000000,351.1250000000,image216.jpg,43216.6847460000
4,50.8636145000,-0.0941856667,57.1000000000,7.5625000000,-3.3750000000,351.9375000000,image217.jpg,43416.7767060000
4,50.8636156667,-0.0941868333,57.1000000000,5.8125000000,-2.8750000000,352.3750000000,image218.jpg,43616.8299680000
4,50.8636166667,-0.0941885000,57.1000000000,5.9375000000,-3.8125000000,352.5625000000,image219.jpg,43816.9867750000
4,50.8636178333,-0.0941900000,57.1000000000,5.5000000000,-3.4375000000,352.6250000000,image220.jpg,44017.0139420000
4,50.8636188333,-0.0941916667,57.1000000000,5.2500000000,-1.9375000000,353.0625000000,image221.jpg,44217.1217880000
4,50.8636200000,-0.0941931667,57.1000000000,5.4375000000,-3.5000000000,351.6250000000,image222.jpg,44417.3868280000
4,50.8636210000,-0.0941948333,57.1000000000,3.5625000000,-3.2500000000,351.6250000000,image223.jpg,44617.3659210000
4,50.8636221667,-0.0941965000,57.1000000000,5.8125000000,-3.1250000000,352.0625000000,image224.jpg,44817.4119420000
4,50.8636231667,-0.0941980000,57.1000000000,3.6250000000,-4.8125000000,351.8750000000,image225.jpg,45018.4299780000
4,50.8636243333,-0.0941993333,57.1000000000,4.5000000000,-3.7500000000,351.1875000000,image226.jpg,45218.3915700000
4,50.8636253333,-0.0942011667,57.1000000000,4.9375000000,-2.3750000000,350.6875000000,image227.jpg,45418.4322260000
4,50.8636261667,-0.0942028333,57.1000000000,3.8750000000,-2.6875000000,349.3125000000,image228.jpg,45618.5242390000
4,50.8636271667,-0.0942045000,57.1000000000,5.5000000000,-3.2500000000,348.5625000000,image229.jpg,45818.7036510000
4,50.8636283333,-0.0942063333,57.1000000000,4.0000000000,-2.7500000000,347.7500000000,image230.jpg,46017.7455220000
4,50.8636291667,-0.0942080000,57.1000000000,4.6875000000,-1.8125000000,345.6250000000,image231.jpg,46217.8739950000
4,50.8636301667,-0.0942096667,57.1000000000,4.5625000000,-2.8125000000,344.0625000000,image232.jpg,46417.8483990000
4,50.8636310000,-0.0942113333,57.1000000000,3.4375000000,-2.4375000000,342.5000000000,image233.jpg,46618.6686150000
4,50.8636316667,-0.0942133333,57.1000000000,5.4375000000,-1.3750000000,340.6250000000,image234.jpg,46819.1286620000
4,50.8636325000,-0.0942151667,57.1000000000,3.6875000000,-1.6875000000,337.4375000000,image235.jpg,47019.2043210000
4,50.8636333333,-0.0942171667,57.1000000000,7.8125000000,-2.6875000000,335.8125000000,image236.jpg,47219.2814370000
4,50.8636338333,-0.0942190000,57.1000000000,6.3750000000,-3.4375000000,335.5000000000,image237.jpg,47419.1051590000
4,50.8636346667,-0.0942210000,57.1000000000,6.8750000000,-3.1875000000,334.1875000000,image238.jpg,47618.3561520000
4,50.8636351667,-0.0942230000,57.2000000000,6.7500000000,-2.5625000000,333.0625000000,image239.jpg,47818.4820200000
4,50.8636360000,-0.0942250000,57.1000000000,8.0625000000,-1.7500000000,332.8750000000,image240.jpg,48018.8290420000
4,50.8636365000,-0.0942270000,57.2000000000,7.3750000000,-2.1250000000,332.8750000000,image241.jpg,48219.4844610000
4,50.8636371667,-0.0942288333,57.2000000000,7.8750000000,-3.2500000000,333.6250000000,image242.jpg,48419.7040830000
4,50.8636378333,-0.0942310000,57.2000000000,7.5000000000,-3.4375000000,334.2500000000,image243.jpg,48619.7691150000
4,50.8636385000,-0.0942331667,57.2000000000,7.4375000000,-3.7500000000,334.1250000000,image244.jpg,48819.8498780000
4,50.8636393333,-0.0942350000,57.2000000000,6.7500000000,-4.0000000000,333.8750000000,image245.jpg,49019.6945380000
4,50.8636400000,-0.0942370000,57.2000000000,7.6250000000,-2.8125000000,334.3125000000,image246.jpg,49219.0078250000
4,50.8636405000,-0.0942388333,57.2000000000,7.4375000000,-2.3125000000,334.0000000000,image247.jpg,49419.0195230000
4,50.8636411667,-0.0942405000,57.2000000000,5.6250000000,-3.3125000000,332.3750000000,image248.jpg,49619.2996150000
4,50.8636418333,-0.0942425000,57.2000000000,6.5625000000,-4.0625000000,331.0625000000,image249.jpg,49819.6620020000
4,50.8636423333,-0.0942445000,57.2000000000,6.0000000000,-2.0000000000,330.6875000000,image250.jpg,50019.1153460000
4,50.8636428333,-0.0942461667,57.2000000000,4.5625000000,-1.9375000000,330.8750000000,image251.jpg,50219.1655350000
4,50.8636435000,-0.0942485000,57.2000000000,6.1250000000,-4.3125000000,329.5625000000,image252.jpg,50419.2726520000
4,50.8636440000,-0.0942501667,57.2000000000,4.3750000000,-3.6875000000,327.6250000000,image253.jpg,50619.2978400000
4,50.8636443333,-0.0942520000,57.2000000000,4.9375000000,-3.1250000000,325.9375000000,image254.jpg,50819.3062040000
4,50.8636448333,-0.0942536667,57.2000000000,4.6875000000,-2.7500000000,323.9375000000,image255.jpg,51020.5871140000
4,50.8636450000,-0.0942556667,57.2000000000,4.6875000000,-3.5625000000,323.2500000000,image256.jpg,51220.0423850000
4,50.8636455000,-0.0942575000,57.2000000000,4.4375000000,-3.3125000000,322.2500000000,image257.jpg,51420.0408530000
4,50.8636458333,-0.0942595000,57.2000000000,4.7500000000,-3.8125000000,322.5000000000,image258.jpg,51620.1990660000
4,50.8636461667,-0.0942613333,57.2000000000,5.6250000000,-4.4375000000,324.8750000000,image259.jpg,51820.3185280000
4,50.8636466667,-0.0942631667,57.2000000000,4.1875000000,-4.1875000000,325.8125000000,image260.jpg,52020.7145620000
4,50.8636471667,-0.0942648333,57.2000000000,4.6250000000,-3.1250000000,326.6875000000,image261.jpg,52220.3949460000
4,50.8636476667,-0.0942666667,57.2000000000,4.9375000000,-3.1250000000,327.0000000000,image262.jpg,52420.3936220000
4,50.8636480000,-0.0942685000,57.3000000000,5.1875000000,-3.1250000000,326.5625000000,image263.jpg,52620.5637630000
4,50.8636483333,-0.0942701667,57.2000000000,5.1875000000,-2.5625000000,325.8750000000,image264.jpg,52821.3453320000
4,50.8636488333,-0.0942718333,57.3000000000,6.1250000000,-3.7500000000,325.3750000000,image265.jpg,53021.4438030000
4,50.8636493333,-0.0942738333,57.3000000000,6.2500000000,-3.4375000000,325.5000000000,image266.jpg,53221.7163960000
4,50.8636496667,-0.0942756667,57.3000000000,6.0000000000,-4.7500000000,326.0000000000,image267.jpg,53421.8254920000
4,50.8636501667,-0.0942776667,57.3000000000,5.8750000000,-4.0625000000,327.3750000000,image268.jpg,53622.0432910000
4,50.8636506667,-0.0942795000,57.3000000000,6.3750000000,-4.0625000000,327.8750000000,image269.jpg,53820.7635360000
4,50.8636511667,-0.0942811667,57.3000000000,4.8750000000,-2.7500000000,328.3750000000,image270.jpg,54020.8504960000
4,50.8636515000,-0.0942830000,57.3000000000,6.6250000000,-3.7500000000,328.5625000000,image271.jpg,54221.0000110000
4,50.8636521667,-0.0942848333,57.3000000000,4.6250000000,-3.8125000000,328.5625000000,image272.jpg,54422.5400970000
4,50.8636526667,-0.0942866667,57.3000000000,5.3125000000,-3.3125000000,326.5625000000,image273.jpg,54622.3135570000
4,50.8636528333,-0.0942885000,57.3000000000,6.0625000000,-3.4375000000,324.0000000000,image274.jpg,54822.2608770000
4,50.8636531667,-0.0942901667,57.3000000000,6.2500000000,-2.9375000000,321.9375000000,image275.jpg,55022.3857560000
4,50.8636535000,-0.0942923333,57.3000000000,5.5625000000,-3.8750000000,319.2500000000,image276.jpg,55222.3978180000
4,50.8636538333,-0.0942940000,57.3000000000,4.6250000000,-6.1875000000,317.2500000000,image277.jpg,55421.8935070000
4,50.8636540000,-0.0942961667,57.3000000000,6.6875000000,-3.9375000000,318.5000000000,image278.jpg,55621.9713010000
4,50.8636543333,-0.0942981667,57.3000000000,4.7500000000,-5.3750000000,320.6250000000,image279.jpg,55822.2924890000
4,50.8636548333,-0.0943001667,57.3000000000,5.2500000000,-5.1875000000,321.9375000000,image280.jpg,56022.5681020000
4,50.8636551667,-0.0943021667,57.3000000000,5.1250000000,-4.0625000000,322.1250000000,image281.jpg,56222.8278810000
4,50.8636555000,-0.0943043333,57.3000000000,4.1875000000,-4.3750000000,321.2500000000,image282.jpg,56423.1423500000
4,50.8636558333,-0.0943063333,57.3000000000,5.6875000000,-4.8750000000,319.5625000000,image283.jpg,56623.0965460000
4,50.8636561667,-0.0943085000,57.3000000000,5.0625000000,-4.5625000000,317.8125000000,image284.jpg,56822.6539040000
4,50.8636565000,-0.0943100000,57.3000000000,5.5625000000,-3.8750000000,318.8125000000,image285.jpg,57022.4698650000
4,50.8636566667,-0.0943120000,57.3000000000,5.8750000000,-3.5000000000,319.5000000000,image286.jpg,57222.4292170000
4,50.8636570000,-0.0943141667,57.3000000000,5.2500000000,-4.9375000000,319.0000000000,image287.jpg,57422.6545680000
4,50.8636573333,-0.0943161667,57.3000000000,5.8125000000,-4.4375000000,319.1250000000,image288.jpg,57622.6275140000
4,50.8636575000,-0.0943183333,57.3000000000,5.0000000000,-4.6875000000,319.6875000000,image289.jpg,57823.4327820000
4,50.8636580000,-0.0943205000,57.3000000000,4.2500000000,-3.8125000000,317.8750000000,image290.jpg,58022.4602770000
4,50.8636583333,-0.0943223333,57.3000000000,4.8125000000,-3.0000000000,318.1250000000,image291.jpg,58222.5930210000
4,50.8636585000,-0.0943246667,57.3000000000,4.1875000000,-4.0625000000,317.8125000000,image292.jpg,58422.8275390000
4,50.8636588333,-0.0943270000,57.3000000000,4.6875000000,-4.3125000000,316.2500000000,image293.jpg,58622.7552750000
4,50.8636590000,-0.0943293333,57.4000000000,4.1875000000,-4.5000000000,316.5000000000,image294.jpg,58822.8878620000
4,50.8636595000,-0.0943316667,57.3000000000,6.0000000000,-3.9375000000,317.3125000000,image295.jpg,59023.2093100000
4,50.8636596667,-0.0943341667,57.3000000000,5.8750000000,-4.5000000000,317.8750000000,image296.jpg,59223.0195940000
4,50.8636600000,-0.0943365000,57.3000000000,5.6250000000,-4.5625000000,319.7500000000,image297.jpg,59423.4365670000
4,50.8636605000,-0.0943388333,57.4000000000,6.0625000000,-4.5625000000,320.6875000000,image298.jpg,59623.3189370000
4,50.8636608333,-0.0943411667,57.3000000000,6.1875000000,-4.5000000000,318.7500000000,image299.jpg,59823.4499620000
4,50.8636611667,-0.0943436667,57.3000000000,6.3125000000,-5.6250000000,316.5000000000,image300.jpg,60023.4250430000
4,50.8636613333,-0.0943461667,57.3000000000,8.5000000000,-3.9375000000,315.8750000000,image301.jpg,60223.3737180000
4,50.8636616667,-0.0943483333,57.4000000000,7.6875000000,-3.6875000000,315.4375000000,image302.jpg,60423.5781830000
4,50.8636618333,-0.0943510000,57.4000000000,7.8125000000,-5.0000000000,315.6875000000,image303.jpg,60624.5294970000
4,50.8636621667,-0.0943535000,57.4000000000,6.6250000000,-5.5625000000,315.8750000000,image304.jpg,60824.6832310000
4,50.8636623333,-0.0943558333,57.3000000000,7.0625000000,-6.0000000000,315.2500000000,image305.jpg,61024.9395210000
4,50.8636625000,-0.0943583333,57.4000000000,7.8125000000,-5.8125000000,313.9375000000,image306.jpg,61224.9909590000
4,50.8636626667,-0.0943608333,57.4000000000,6.0625000000,-3.9375000000,313.8125000000,image307.jpg,61425.2601660000
4,50.8636630000,-0.0943631667,57.4000000000,8.1875000000,-5.4375000000,314.6875000000,image308.jpg,61624.2079710000
4,50.8636631667,-0.0943658333,57.4000000000,6.3125000000,-6.6875000000,314.1875000000,image309.jpg,61824.3600380000
4,50.8636635000,-0.0943683333,57.4000000000,7.3750000000,-5.2500000000,315.3750000000,image310.jpg,62024.3498600000
4,50.8636636667,-0.0943708333,57.4000000000,6.8750000000,-6.7500000000,315.3125000000,image311.jpg,62224.9764750000
4,50.8636640000,-0.0943733333,57.3000000000,8.0000000000,-4.8750000000,316.1250000000,image312.jpg,62425.5693920000
4,50.8636643333,-0.0943758333,57.3000000000,7.5000000000,-6.6250000000,316.9375000000,image313.jpg,62625.7032290000
4,50.8636646667,-0.0943785000,57.3000000000,6.5625000000,-7.5625000000,317.2500000000,image314.jpg,62825.5239820000
4,50.8636651667,-0.0943808333,57.3000000000,8.2500000000,-5.2500000000,317.6875000000,image315.jpg,63025.5579720000
4,50.8636653333,-0.0943833333,57.3000000000,6.1250000000,-5.9375000000,318.0625000000,image316.jpg,63224.6931800000
4,50.8636658333,-0.0943860000,57.3000000000,8.5625000000,-5.8125000000,316.3125000000,image317.jpg,63424.7298780000
4,50.8636658333,-0.0943883333,57.3000000000,6.6875000000,-6.7500000000,315.6250000000,image318.jpg,63625.2203430000
4,50.8636661667,-0.0943910000,57.3000000000,6.7500000000,-5.6875000000,315.6875000000,image319.jpg,63825.8550840000
4,50.8636665000,-0.0943935000,57.3000000000,8.4375000000,-5.4375000000,316.0625000000,image320.jpg,64026.2433570000
4,50.8636666667,-0.0943958333,57.3000000000,5.3750000000,-4.5625000000,317.0625000000,image321.jpg,64226.6599650000
4,50.8636670000,-0.0943983333,57.3000000000,6.6875000000,-3.5000000000,317.6250000000,image322.jpg,64426.3868090000
4,50.8636675000,-0.0944006667,57.3000000000,4.3750000000,-3.5000000000,316.6250000000,image323.jpg,64626.2792830000
4,50.8636676667,-0.0944030000,57.3000000000,5.5000000000,-3.3750000000,314.6875000000,image324.jpg,64825.3940730000
4,50.8636678333,-0.0944055000,57.3000000000,5.0625000000,-4.6250000000,312.8750000000,image325.jpg,65025.4118650000
4,50.8636680000,-0.0944080000,57.3000000000,5.5625000000,-4.5000000000,311.7500000000,image326.jpg,65225.7911280000
4,50.8636683333,-0.0944103333,57.3000000000,4.8125000000,-3.5000000000,312.3750000000,image327.jpg,65426.4540470000
4,50.8636683333,-0.0944126667,57.3000000000,6.5000000000,-2.6250000000,312.0625000000,image328.jpg,65625.7575930000
4,50.8636686667,-0.0944150000,57.3000000000,4.4375000000,-2.6250000000,312.1250000000,image329.jpg,65825.9403910000
4,50.8636686667,-0.0944176667,57.4000000000,7.3125000000,-3.6875000000,313.1250000000,image330.jpg,66025.8418240000
4,50.8636690000,-0.0944200000,57.3000000000,6.8750000000,-3.7500000000,314.4375000000,image331.jpg,66226.1955130000
4,50.8636691667,-0.0944221667,57.4000000000,5.3125000000,-3.4375000000,315.5625000000,image332.jpg,66426.2757030000
4,50.8636695000,-0.0944246667,57.4000000000,7.0625000000,-2.5625000000,315.8125000000,image333.jpg,66626.3401100000
4,50.8636698333,-0.0944271667,57.4000000000,3.3125000000,-4.0625000000,316.2500000000,image334.jpg,66826.6902050000
4,50.8636701667,-0.0944296667,57.4000000000,4.2500000000,-4.7500000000,317.1875000000,image335.jpg,67026.7171640000
4,50.8636705000,-0.0944318333,57.4000000000,2.5625000000,-3.8125000000,318.7500000000,image336.jpg,67226.8561580000
4,50.8636710000,-0.0944343333,57.4000000000,4.8750000000,-3.5000000000,320.1250000000,image337.jpg,67426.7696750000
4,50.8636711667,-0.0944366667,57.4000000000,2.4375000000,-4.0625000000,320.3125000000,image338.jpg,67626.7262140000
4,50.8636716667,-0.0944388333,57.4000000000,4.3750000000,-4.1250000000,318.3125000000,image339.jpg,67826.7349950000
4,50.8636718333,-0.0944413333,57.4000000000,3.8125000000,-3.0000000000,313.3750000000,image340.jpg,68026.8195070000
4,50.8636720000,-0.0944436667,57.4000000000,5.0625000000,-3.6875000000,313.8750000000,image341.jpg,68226.8048500000
4,50.8636723333,-0.0944458333,57.4000000000,4.6875000000,-2.6250000000,314.1875000000,image342.jpg,68427.5693870000
4,50.8636725000,-0.0944483333,57.4000000000,5.0625000000,-3.1250000000,314.4375000000,image343.jpg,68628.4571570000
4,50.8636726667,-0.0944506667,57.4000000000,3.3125000000,-4.1875000000,315.6875000000,image344.jpg,68828.2169710000
4,50.8636728333,-0.0944530000,57.4000000000,4.0000000000,-5.0000000000,315.4375000000,image345.jpg,69028.1739790000
4,50.8636731667,-0.0944553333,57.4000000000,3.4375000000,-2.8750000000,316.0625000000,image346.jpg,69228.4013610000
4,50.8636733333,-0.0944576667,57.4000000000,3.8125000000,-3.3125000000,316.6875000000,image347.jpg,69427.1445750000
4,50.8636738333,-0.0944600000,57.4000000000,4.7500000000,-3.4375000000,318.5000000000,image348.jpg,69627.6043620000
4,50.8636740000,-0.0944623333,57.4000000000,4.8125000000,-3.5000000000,319.0000000000,image349.jpg,69827.5259000000
4,50.8636743333,-0.0944646667,57.4000000000,4.0625000000,-3.5000000000,319.2500000000,image350.jpg,70028.0489700000
4,50.8636746667,-0.0944671667,57.4000000000,4.9375000000,-4.6875000000,320.0625000000,image351.jpg,70228.9034590000
4,50.8636751667,-0.0944695000,57.4000000000,5.3750000000,-5.6875000000,320.8750000000,image352.jpg,70429.1679260000
4,50.8636756667,-0.0944716667,57.4000000000,3.3750000000,-3.4375000000,321.5625000000,image353.jpg,70629.1987900000
4,50.8636760000,-0.0944740000,57.4000000000,4.4375000000,-1.5625000000,322.5000000000,image354.jpg,70829.1230370000
4,50.8636765000,-0.0944760000,57.4000000000,5.5000000000,-3.0625000000,322.2500000000,image355.jpg,71028.2927250000
4,50.8636768333,-0.0944783333,57.4000000000,7.5000000000,-3.2500000000,322.3750000000,image356.jpg,71228.3984880000
4,50.8636773333,-0.0944806667,57.4000000000,8.1875000000,-5.7500000000,323.0000000000,image357.jpg,71428.4324780000
4,50.8636776667,-0.0944828333,57.4000000000,7.8125000000,-6.8750000000,322.8125000000,image358.jpg,71630.1309030000
4,50.8636781667,-0.0944848333,57.4000000000,6.8750000000,-4.8125000000,320.3750000000,image359.jpg,71829.5623710000
4,50.8636785000,-0.0944871667,57.5000000000,7.0625000000,-2.6875000000,319.2500000000,image360.jpg,72029.5951110000
4,50.8636786667,-0.0944891667,57.5000000000,4.8125000000,-3.1250000000,318.7500000000,image361.jpg,72229.5617550000
4,50.8636791667,-0.0944915000,57.5000000000,9.5625000000,-2.4375000000,319.1875000000,image362.jpg,72429.8227320000
4,50.8636795000,-0.0944936667,57.5000000000,3.3750000000,-5.1875000000,319.3750000000,image363.jpg,72628.8748120000
4,50.8636798333,-0.0944958333,57.5000000000,7.0625000000,-5.1875000000,320.8750000000,image364.jpg,72828.9827630000
4,50.8636801667,-0.0944980000,57.5000000000,6.1875000000,-2.0000000000,321.0625000000,image365.jpg,73029.1537370000
4,50.8636805000,-0.0945003333,57.5000000000,7.4375000000,-3.8125000000,321.0625000000,image366.jpg,73229.6487330000
4,50.8636810000,-0.0945028333,57.5000000000,5.5000000000,-3.8750000000,321.3125000000,image367.jpg,73429.1802570000
4,50.8636813333,-0.0945050000,57.5000000000,6.5000000000,-3.8125000000,319.0000000000,image368.jpg,73629.3831070000
4,50.8636816667,-0.0945073333,57.5000000000,4.9375000000,-3.0625000000,318.0000000000,image369.jpg,73829.4103780000
4,50.8636820000,-0.0945098333,57.5000000000,7.0625000000,-3.0625000000,318.2500000000,image370.jpg,74029.6703660000
4,50.8636823333,-0.0945121667,57.5000000000,6.0000000000,-4.0625000000,318.7500000000,image371.jpg,74229.5514340000
4,50.8636825000,-0.0945146667,57.4000000000,5.1250000000,-4.0625000000,319.8125000000,image372.jpg,74429.6588640000
4,50.8636830000,-0.0945168333,57.5000000000,6.5000000000,-3.0000000000,320.8750000000,image373.jpg,74629.8896320000
4,50.8636833333,-0.0945195000,57.4000000000,4.8125000000,-4.8750000000,320.9375000000,image374.jpg,74829.7893980000
4,50.8636838333,-0.0945220000,57.5000000000,9.1875000000,-3.8750000000,322.0000000000,image375.jpg,75029.8872450000
4,50.8636840000,-0.0945243333,57.5000000000,7.1875000000,-3.0000000000,323.0625000000,image376.jpg,75229.9727470000
4,50.8636846667,-0.0945266667,57.5000000000,10.1875000000,-4.7500000000,325.8125000000,image377.jpg,75430.1314290000
4,50.8636853333,-0.0945288333,57.5000000000,6.6875000000,-3.7500000000,327.0000000000,image378.jpg,75630.1303660000
4,50.8636856667,-0.0945313333,57.5000000000,8.2500000000,-3.3125000000,328.1875000000,image379.jpg,75830.1648240000
4,50.8636865000,-0.0945336667,57.5000000000,7.8125000000,-5.3125000000,329.2500000000,image380.jpg,76030.4402290000
4,50.8636871667,-0.0945360000,57.5000000000,8.0625000000,-3.3750000000,333.5000000000,image381.jpg,76230.8822550000
4,50.8636880000,-0.0945380000,57.5000000000,9.6250000000,-2.8125000000,335.5625000000,image382.jpg,76431.5803310000
4,50.8636888333,-0.0945403333,57.5000000000,7.5000000000,-3.1875000000,336.1250000000,image383.jpg,76631.6854170000
4,50.8636895000,-0.0945425000,57.5000000000,7.6250000000,-3.6250000000,337.0625000000,image384.jpg,76831.4462200000
4,50.8636901667,-0.0945445000,57.5000000000,7.8125000000,-3.8125000000,336.2500000000,image385.jpg,77031.6018290000
4,50.8636911667,-0.0945466667,57.5000000000,4.6250000000,-3.8750000000,334.3750000000,image386.jpg,77230.9347000000
4,50.8636918333,-0.0945490000,57.5000000000,6.1875000000,-3.3750000000,334.0000000000,image387.jpg,77430.9011360000
4,50.8636925000,-0.0945508333,57.5000000000,7.2500000000,-2.8750000000,334.1875000000,image388.jpg,77630.8321010000
4,50.8636931667,-0.0945530000,57.5000000000,6.1250000000,-3.4375000000,334.8125000000,image389.jpg,77831.2085510000
4,50.8636941667,-0.0945551667,57.5000000000,5.8750000000,-3.3125000000,334.3750000000,image390.jpg,78032.0267360000
4,50.8636948333,-0.0945573333,57.5000000000,3.5000000000,-3.9375000000,331.5000000000,image391.jpg,78232.0194230000
4,50.8636955000,-0.0945596667,57.5000000000,5.2500000000,-3.8750000000,330.0625000000,image392.jpg,78432.0320580000
4,50.8636961667,-0.0945618333,57.5000000000,6.3750000000,-3.3125000000,329.8125000000,image393.jpg,78632.1612070000
4,50.8636966667,-0.0945640000,57.5000000000,6.8750000000,-3.7500000000,330.5625000000,image394.jpg,78831.2149020000
4,50.8636973333,-0.0945663333,57.5000000000,9.5625000000,-3.6875000000,331.0625000000,image395.jpg,79031.3636870000
4,50.8636978333,-0.0945685000,57.5000000000,7.6875000000,-3.6875000000,332.4375000000,image396.jpg,79231.4686170000
4,50.8636986667,-0.0945708333,57.5000000000,8.8125000000,-3.4375000000,332.5000000000,image397.jpg,79432.1887780000
4,50.8636991667,-0.0945730000,57.5000000000,9.1250000000,-2.7500000000,332.3750000000,image398.jpg,79632.8403420000
4,50.8637000000,-0.0945751667,57.5000000000,9.5000000000,-3.2500000000,332.5625000000,image399.jpg,79833.5753470000
4,50.8637006667,-0.0945773333,57.5000000000,7.9375000000,-4.2500000000,335.4375000000,image400.jpg,80033.6641310000
4,50.8637015000,-0.0945795000,57.5000000000,8.0000000000,-3.5625000000,337.8750000000,image401.jpg,80233.6598380000
4,50.8637023333,-0.0945811667,57.5000000000,6.1250000000,-2.5000000000,341.3125000000,image402.jpg,80433.2533960000
4,50.8637033333,-0.0945831667,57.5000000000,6.3125000000,-1.0625000000,343.3125000000,image403.jpg,80632.7107500000
4,50.8637041667,-0.0945848333,57.5000000000,6.7500000000,-1.4375000000,345.1250000000,image404.jpg,80832.7611990000
4,50.8637051667,-0.0945868333,57.5000000000,6.1875000000,-3.9375000000,347.8750000000,image405.jpg,81033.0336350000
4,50.8637063333,-0.0945883333,57.5000000000,5.8125000000,-2.6875000000,354.5000000000,image406.jpg,81233.2320580000
4,50.8637073333,-0.0945896667,57.5000000000,4.5625000000,-1.0000000000,358.0625000000,image407.jpg,81432.8658250000
4,50.8637086667,-0.0945908333,57.5000000000,6.0000000000,-1.5000000000,358.8750000000,image408.jpg,81632.9699220000
4,50.8637096667,-0.0945921667,57.5000000000,4.1875000000,-1.0000000000,359.4375000000,image409.jpg,81833.0982900000
4,50.8637108333,-0.0945931667,57.5000000000,3.5625000000,-0.1250000000,0.1250000000,image410.jpg,82033.0967060000
4,50.8637116667,-0.0945940000,57.6000000000,3.4375000000,-0.6250000000,1.0000000000,image411.jpg,82233.2480960000
4,50.8637115000,-0.0945940000,57.5000000000,2.5000000000,-0.1250000000,1.6250000000,image412.jpg,82433.7568950000
4,50.8637115000,-0.0945938333,57.6000000000,2.1875000000,1.1250000000,1.6875000000,image413.jpg,82634.1702210000
4,50.8637115000,-0.0945938333,57.6000000000,2.3750000000,0.7500000000,1.6250000000,image414.jpg,82834.9943960000
4,50.8637115000,-0.0945938333,57.6000000000,2.4375000000,0.6875000000,1.6250000000,image415.jpg,83035.0717730000
4,50.8637115000,-0.0945938333,57.6000000000,2.5000000000,0.6250000000,1.6250000000,image416.jpg,83234.1838030000
4,50.8637115000,-0.0945938333,57.6000000000,2.5625000000,0.6250000000,1.6250000000,image417.jpg,83434.0544010000
4,50.8637115000,-0.0945938333,57.6000000000,2.5625000000,0.5625000000,1.6250000000,image418.jpg,83634.1790200000
4,50.8637115000,-0.0945938333,57.6000000000,2.6250000000,0.5000000000,1.6250000000,image419.jpg,83834.2499900000
4,50.8637115000,-0.0945938333,57.6000000000,2.6250000000,0.5000000000,1.6250000000,image420.jpg,84034.3734100000
4,50.8637115000,-0.0945938333,57.6000000000,2.6250000000,0.5000000000,1.6250000000,image421.jpg,84235.1641460000
4,50.8637115000,-0.0945938333,57.6000000000,2.6250000000,0.5000000000,1.6250000000,image422.jpg,84435.4770010000
4,50.8637115000,-0.0945938333,57.6000000000,2.6250000000,0.5000000000,1.6250000000,image423.jpg,84635.6415160000
4,50.8637115000,-0.0945938333,57.6000000000,2.6250000000,0.5000000000,1.6250000000,image424.jpg,84835.7130080000
4,50.8637115000,-0.0945938333,57.6000000000,2.6250000000,0.5000000000,1.6250000000,image425.jpg,85035.6345460000
4,50.8637115000,-0.0945938333,57.6000000000,2.6250000000,0.5000000000,1.6250000000,image426.jpg,85234.8693400000
4,50.8637115000,-0.0945938333,57.6000000000,2.6250000000,0.5000000000,1.6250000000,image427.jpg,85434.9433830000
4,50.8637115000,-0.0945938333,57.6000000000,2.6250000000,0.5000000000,1.6250000000,image428.jpg,85635.2334240000
4,50.8637115000,-0.0945938333,57.6000000000,2.6250000000,0.5000000000,1.6250000000,image429.jpg,85835.9560850000
4,50.8637115000,-0.0945938333,57.6000000000,2.6250000000,0.5000000000,1.6250000000,image430.jpg,86036.1764360000
4,50.8637115000,-0.0945938333,57.6000000000,2.6250000000,0.5000000000,1.6250000000,image431.jpg,86236.4003810000
4,50.8637115000,-0.0945938333,57.6000000000,2.6250000000,0.5000000000,1.6250000000,image432.jpg,86436.5584380000
4,50.8637115000,-0.0945938333,57.6000000000,2.6250000000,0.5000000000,1.6250000000,image433.jpg,86635.7332300000
4,50.8637115000,-0.0945938333,57.6000000000,2.6250000000,0.5000000000,1.6250000000,image434.jpg,86835.4605940000
4,50.8637115000,-0.0945938333,57.6000000000,2.6250000000,0.5000000000,1.6250000000,image435.jpg,87035.5038550000
4,50.8637115000,-0.0945938333,57.6000000000,2.6250000000,0.5000000000,1.6250000000,image436.jpg,87235.8497320000
4,50.8637115000,-0.0945938333,57.6000000000,2.6250000000,0.5000000000,1.6250000000,image437.jpg,87436.7592220000
4,50.8637115000,-0.0945938333,57.6000000000,2.6250000000,0.5000000000,1.6250000000,image438.jpg,87636.7798260000
4,50.8637115000,-0.0945938333,57.6000000000,2.6250000000,0.5000000000,1.6250000000,image439.jpg,87836.7681890000
4,50.8637115000,-0.0945938333,57.6000000000,2.6250000000,0.5000000000,1.6250000000,image440.jpg,88036.9004640000
4,50.8637115000,-0.0945938333,57.6000000000,2.6250000000,0.5000000000,1.6250000000,image441.jpg,88236.0205150000
4,50.8637115000,-0.0945938333,57.6000000000,2.6250000000,0.5000000000,1.6250000000,image442.jpg,88436.0990900000
4,50.8637115000,-0.0945938333,57.6000000000,2.6250000000,0.5000000000,1.6250000000,image443.jpg,88636.3059500000
4,50.8637115000,-0.0945938333,57.6000000000,2.6250000000,0.5000000000,1.6250000000,image444.jpg,88836.9312120000
4,50.8637115000,-0.0945938333,57.6000000000,2.6250000000,0.5000000000,1.6250000000,image445.jpg,89037.2335450000
4,50.8637115000,-0.0945938333,57.6000000000,2.6250000000,0.5000000000,1.6250000000,image446.jpg,89237.3119110000
4,50.8637115000,-0.0945938333,57.6000000000,2.6250000000,0.5000000000,1.6250000000,image447.jpg,89437.4316860000
4,50.8637115000,-0.0945938333,57.6000000000,2.6250000000,0.5000000000,1.6250000000,image448.jpg,89637.5107810000
4,50.8637115000,-0.0945938333,57.6000000000,2.6250000000,0.5000000000,1.6250000000,image449.jpg,89836.6128110000
4,50.8637115000,-0.0945938333,57.6000000000,2.6250000000,0.5000000000,1.6250000000,image450.jpg,90036.7080530000
4,50.8637115000,-0.0945938333,57.6000000000,2.6250000000,0.5000000000,1.6250000000,image451.jpg,90237.2021640000
4,50.8637115000,-0.0945938333,57.6000000000,2.6250000000,0.5000000000,1.6250000000,image452.jpg,90437.5254870000
4,50.8637115000,-0.0945938333,57.6000000000,2.6250000000,0.5000000000,1.6250000000,image453.jpg,90637.8646960000
4,50.8637115000,-0.0945938333,57.6000000000,2.6250000000,0.5000000000,1.6250000000,image454.jpg,90836.9635480000
4,50.8637115000,-0.0945938333,57.6000000000,2.6250000000,0.5000000000,1.6250000000,image455.jpg,91037.0134760000
4,50.8637115000,-0.0945938333,57.6000000000,2.6250000000,0.5000000000,1.6250000000,image456.jpg,91237.1172080000
4,50.8637115000,-0.0945938333,57.6000000000,2.6250000000,0.5000000000,1.6250000000,image457.jpg,91437.2413060000
4,50.8637115000,-0.0945938333,57.6000000000,2.6250000000,0.5000000000,1.6250000000,image458.jpg,91637.1689380000
4,50.8637115000,-0.0945938333,57.6000000000,2.6250000000,0.5000000000,1.6250000000,image459.jpg,91837.8145120000
4,50.8637115000,-0.0945938333,57.6000000000,2.6250000000,0.5000000000,1.6250000000,image460.jpg,92038.4915460000
4,50.8637115000,-0.0945938333,57.6000000000,2.6250000000,0.5000000000,1.6250000000,image461.jpg,92238.5496520000
4,50.8637115000,-0.0945938333,57.6000000000,2.6250000000,0.5000000000,1.6250000000,image462.jpg,92438.7029170000
4,50.8637115000,-0.0945938333,57.6000000000,2.6250000000,0.5000000000,1.6250000000,image463.jpg,92638.5534110000
4,50.8637115000,-0.0945938333,57.6000000000,2.6250000000,0.5000000000,1.6250000000,image464.jpg,92838.1591040000
4,50.8637115000,-0.0945938333,57.6000000000,2.6250000000,0.5000000000,1.6250000000,image465.jpg,93037.7747970000
4,50.8637115000,-0.0945938333,57.6000000000,2.6250000000,0.5000000000,1.6250000000,image466.jpg,93237.9000930000
4,50.8637115000,-0.0945938333,57.6000000000,2.6250000000,0.5000000000,1.6250000000,image467.jpg,93438.4382160000
4,50.8637115000,-0.0945938333,57.6000000000,2.6250000000,0.5000000000,1.6250000000,image468.jpg,93639.2060340000
4,50.8637115000,-0.0945938333,57.6000000000,2.6250000000,0.5000000000,1.6250000000,image469.jpg,93839.2865880000
4,50.8637115000,-0.0945938333,57.6000000000,2.6250000000,0.5000000000,1.6250000000,image470.jpg,94039.3055260000
4,50.8637115000,-0.0945938333,57.6000000000,2.6250000000,0.5000000000,1.6250000000,image471.jpg,94239.4485300000
4,50.8637115000,-0.0945938333,57.6000000000,2.6250000000,0.5000000000,1.6250000000,image472.jpg,94438.2497670000
4,50.8637115000,-0.0945938333,57.6000000000,2.6250000000,0.5000000000,1.6250000000,image473.jpg,94638.3951150000
4,50.8637115000,-0.0945938333,57.6000000000,2.6250000000,0.5000000000,1.6250000000,image474.jpg,94838.5116080000
4,50.8637115000,-0.0945938333,57.6000000000,2.6250000000,0.5000000000,1.6250000000,image475.jpg,95039.2935420000
4,50.8637115000,-0.0945938333,57.6000000000,2.6250000000,0.5000000000,1.6250000000,image476.jpg,95239.4747250000
4,50.8637115000,-0.0945938333,57.6000000000,2.6250000000,0.5000000000,1.6250000000,image477.jpg,95439.8241950000
4,50.8637115000,-0.0945938333,57.6000000000,2.6250000000,0.5000000000,1.6250000000,image478.jpg,95639.8971960000
4,50.8637115000,-0.0945938333,57.6000000000,2.6250000000,0.5000000000,1.6250000000,image479.jpg,95839.6099770000
4,50.8637115000,-0.0945938333,57.6000000000,2.6250000000,0.5000000000,1.6250000000,image480.jpg,96038.9873810000
4,50.8637115000,-0.0945938333,57.6000000000,2.6250000000,0.5000000000,1.6250000000,image481.jpg,96239.0329860000
4,50.8637115000,-0.0945938333,57.6000000000,2.6250000000,0.5000000000,1.6250000000,image482.jpg,96439.4311030000
4,50.8637115000,-0.0945938333,57.6000000000,2.6250000000,0.5000000000,1.6250000000,image483.jpg,96640.1275650000
4,50.8637115000,-0.0945938333,57.6000000000,2.6250000000,0.5000000000,1.6250000000,image484.jpg,96840.4782850000
4,50.8637115000,-0.0945938333,57.6000000000,2.6250000000,0.5000000000,1.6250000000,image485.jpg,97040.5244630000
4,50.8637115000,-0.0945938333,57.6000000000,2.6250000000,0.5000000000,1.6250000000,image486.jpg,97240.5642350000
4,50.8637115000,-0.0945938333,57.6000000000,2.6250000000,0.5000000000,1.6250000000,image487.jpg,97440.0032550000
4,50.8637115000,-0.0945938333,57.6000000000,2.6250000000,0.5000000000,1.6250000000,image488.jpg,97639.6277510000
4,50.8637115000,-0.0945938333,57.6000000000,2.6250000000,0.5000000000,1.6250000000,image489.jpg,97839.7722140000
4,50.8637115000,-0.0945938333,57.6000000000,2.6250000000,0.5000000000,1.6250000000,image490.jpg,98040.2815340000
4,50.8637115000,-0.0945938333,57.6000000000,2.6250000000,0.5000000000,1.6250000000,image491.jpg,98241.0699260000
4,50.8637115000,-0.0945938333,57.6000000000,2.6250000000,0.5000000000,1.6250000000,image492.jpg,98440.8114050000
4,50.8637115000,-0.0945938333,57.6000000000,2.6250000000,0.5000000000,1.6250000000,image493.jpg,98640.0558350000
4,50.8637115000,-0.0945938333,57.6000000000,2.6250000000,0.5000000000,1.6250000000,image494.jpg,98840.1895690000
4,50.8637113333,-0.0945940000,57.6000000000,2.6250000000,0.5000000000,1.6250000000,image495.jpg,99040.2238710000
4,50.8637115000,-0.0945940000,57.6000000000,2.6250000000,0.5000000000,1.6250000000,image496.jpg,99240.2870290000
4,50.8637113333,-0.0945938333,57.6000000000,2.6250000000,0.5000000000,1.6250000000,image497.jpg,99440.4901390000
4,50.8637115000,-0.0945938333,57.6000000000,2.6250000000,0.5000000000,1.6250000000,image498.jpg,99641.2782190000
4,50.8637115000,-0.0945938333,57.6000000000,2.6250000000,0.5000000000,1.6250000000,image499.jpg,99841.4867470000
4,50.8637115000,-0.0945938333,57.6000000000,2.6250000000,0.5000000000,1.6250000000,image500.jpg,100041.5172990000
4,50.8637115000,-0.0945938333,57.6000000000,2.6250000000,0.5000000000,1.6250000000,image501.jpg,100241.6870230000
4,50.8637115000,-0.0945938333,57.6000000000,2.6250000000,0.5000000000,1.6250000000,image502.jpg,100441.5648090000
4,50.8637115000,-0.0945938333,57.6000000000,2.6250000000,0.5000000000,1.6250000000,image503.jpg,100640.7975730000
4,50.8637116667,-0.0945938333,57.6000000000,2.6250000000,0.5000000000,1.6250000000,image504.jpg,100840.8771890000
4,50.8637115000,-0.0945938333,57.6000000000,2.6250000000,0.5000000000,1.6250000000,image505.jpg,101041.2506710000
4,50.8637115000,-0.0945938333,57.6000000000,2.6250000000,0.5000000000,1.6250000000,image506.jpg,101242.0786480000
4,50.8637115000,-0.0945938333,57.6000000000,2.6250000000,0.5000000000,1.6250000000,image507.jpg,101442.1037310000
4,50.8637115000,-0.0945938333,57.6000000000,2.5625000000,0.4375000000,1.6250000000,image508.jpg,101642.3426760000
4,50.8637115000,-0.0945938333,57.6000000000,2.6250000000,0.4375000000,1.6875000000,image509.jpg,101842.3699990000
4,50.8637115000,-0.0945938333,57.6000000000,1.7500000000,0.5000000000,1.5625000000,image510.jpg,102042.0309030000
4,50.8637115000,-0.0945938333,57.6000000000,1.7500000000,0.4375000000,1.5625000000,image511.jpg,102241.5151330000
4,50.8637115000,-0.0945938333,57.6000000000,2.0000000000,0.4375000000,1.5625000000,image512.jpg,102441.5302160000
4,50.8637115000,-0.0945938333,57.6000000000,1.9375000000,0.4375000000,1.5625000000,image513.jpg,102642.2346990000
4,50.8637115000,-0.0945938333,57.6000000000,1.5625000000,0.5000000000,1.5625000000,image514.jpg,102842.6737040000
4,50.8637115000,-0.0945938333,57.6000000000,1.7500000000,0.5000000000,1.5625000000,image515.jpg,103042.6509210000
4,50.8637115000,-0.0945938333,57.6000000000,1.8750000000,0.3750000000,1.5000000000,image516.jpg,103242.9033040000
4,50.8637115000,-0.0945938333,57.6000000000,1.0000000000,0.6875000000,1.1875000000,image517.jpg,103442.9360960000
4,50.8637115000,-0.0945936667,57.6000000000,1.7500000000,2.2500000000,0.8125000000,image518.jpg,103641.9554660000
4,50.8637118333,-0.0945931667,57.7000000000,2.8125000000,3.1250000000,4.4375000000,image519.jpg,103841.9585180000
4,50.8637121667,-0.0945921667,57.9000000000,2.1875000000,3.5000000000,9.3750000000,image520.jpg,104041.9988100000
