speed,steering angle,gps quality,lat,lon,altitude,roll,pitch,yaw,image name,timestamp
0.0392156877,1.0000000000,5,50.8680558333,-0.0982463333,69.3000000000,8.6250000000,-3.7500000000,0.0000000000,image0.jpg,9.9346880000
0.0549019612,1.0000000000,5,50.8680560000,-0.0982460000,69.3000000000,8.6250000000,-3.7500000000,0.0000000000,image1.jpg,75.5594270000
0.0549019612,0.0000000000,5,50.8680561667,-0.0982460000,69.3000000000,8.6250000000,-3.7500000000,0.0000000000,image3.jpg,204.7356770000
0.0392156877,1.0000000000,5,50.8680561667,-0.0982460000,69.3000000000,8.6250000000,-3.7500000000,0.0000000000,image4.jpg,273.4064580000
0.0470588244,0.0000000000,5,50.8680560000,-0.0982458333,69.3000000000,8.6250000000,-3.7500000000,0.0000000000,image6.jpg,404.1222920000
0.0470588244,1.0000000000,5,50.8680560000,-0.0982460000,69.3000000000,8.6250000000,-3.7500000000,359.9375000000,image7.jpg,473.1103650000
0.0000000000,0.0000000000,5,50.8680560000,-0.0982460000,69.3000000000,8.6250000000,-3.7500000000,359.9375000000,image9.jpg,604.1540620000
0.0549019612,0.0000000000,5,50.8680561667,-0.0982458333,69.3000000000,8.6250000000,-3.7500000000,359.9375000000,image10.jpg,674.2048440000
0.0549019612,0.0000000000,5,50.8680561667,-0.0982458333,69.3000000000,8.6250000000,-3.7500000000,359.9375000000,image12.jpg,804.8572390000
0.0392156877,0.0000000000,5,50.8680561667,-0.0982460000,69.3000000000,8.6250000000,-3.7500000000,359.9375000000,image13.jpg,874.4935410000
0.0392156877,2.0000000000,5,50.8680561667,-0.0982460000,69.3000000000,8.6250000000,-3.7500000000,359.9375000000,image15.jpg,1005.2538020000
0.0078431377,0.0000000000,5,50.8680561667,-0.0982458333,69.3000000000,8.6250000000,-3.7500000000,359.9375000000,image16.jpg,1073.8229680000
0.1411764771,0.0000000000,5,50.8680561667,-0.0982460000,69.3000000000,8.6250000000,-3.7500000000,359.9375000000,image18.jpg,1209.4868230000
0.1411764771,0.0000000000,5,50.8680560000,-0.0982458333,69.3000000000,8.6250000000,-3.7500000000,359.9375000000,image19.jpg,1273.3600000000
0.2431372553,0.0000000000,5,50.8680560000,-0.0982458333,69.3000000000,8.6250000000,-3.7500000000,359.9375000000,image21.jpg,1408.9981250000
0.2431372553,1.0000000000,5,50.8680560000,-0.0982458333,69.3000000000,8.6250000000,-3.7500000000,359.9375000000,image22.jpg,1472.8340620000
0.3137255013,0.0000000000,5,50.8680560000,-0.0982458333,69.3000000000,8.3125000000,-3.5625000000,359.9375000000,image24.jpg,1609.2572910000
0.3372549117,0.0000000000,5,50.8680561667,-0.0982460000,69.3000000000,8.1875000000,-3.5000000000,359.8750000000,image25.jpg,1673.1370830000
0.2431372553,1.0000000000,5,50.8680561667,-0.0982460000,69.3000000000,7.8125000000,-2.8750000000,359.9375000000,image27.jpg,1808.3580200000
0.3686274588,0.0000000000,5,50.8680561667,-0.0982460000,69.3000000000,7.3750000000,-2.5000000000,0.0625000000,image28.jpg,1878.0152080000
0.3607843220,0.0000000000,5,50.8680561667,-0.0982461667,69.3000000000,6.3125000000,-2.3125000000,0.3125000000,image30.jpg,2008.9677600000
0.3607843220,1.0000000000,5,50.8680563333,-0.0982465000,69.3000000000,6.0000000000,-2.1250000000,0.3125000000,image31.jpg,2073.3318220000
0.3607843220,0.0000000000,5,50.8680563333,-0.0982466667,69.3000000000,6.4375000000,-2.6875000000,0.1875000000,image33.jpg,2208.1174990000
0.2745098174,0.0000000000,5,50.8680565000,-0.0982471667,69.3000000000,5.9375000000,-3.3125000000,0.3125000000,image34.jpg,2273.6915620000
0.2745098174,0.0000000000,5,50.8680566667,-0.0982475000,69.3000000000,4.0000000000,-4.7500000000,0.3125000000,image36.jpg,2407.9671350000
0.1490196139,0.0000000000,5,50.8680568333,-0.0982480000,69.3000000000,4.1250000000,-4.3125000000,1.1250000000,image37.jpg,2476.9872910000
0.0627451017,0.0000000000,5,50.8680568333,-0.0982485000,69.3000000000,7.4375000000,-2.4375000000,1.0625000000,image39.jpg,2608.1436970000
0.0627451017,0.0000000000,5,50.8680568333,-0.0982486667,69.3000000000,8.1875000000,-2.9375000000,0.2500000000,image40.jpg,2677.2250510000
0.0862745121,0.0000000000,5,50.8680568333,-0.0982488333,69.3000000000,7.8750000000,-2.5625000000,0.6875000000,image42.jpg,2808.7755200000
0.0941176489,0.0000000000,5,50.8680568333,-0.0982486667,69.3000000000,8.0000000000,-2.5625000000,0.6875000000,image43.jpg,2878.9604160000
0.0862745121,1.0000000000,5,50.8680568333,-0.0982488333,69.3000000000,7.8750000000,-2.6250000000,0.5625000000,image45.jpg,3009.2989050000
0.1411764771,0.0000000000,5,50.8680568333,-0.0982488333,69.3000000000,7.8750000000,-2.6250000000,0.5625000000,image46.jpg,3077.6855200000
0.2431372553,0.0000000000,5,50.8680568333,-0.0982488333,69.3000000000,7.8750000000,-2.6250000000,0.5625000000,image48.jpg,3209.0777070000
0.3215686381,0.0000000000,5,50.8680568333,-0.0982488333,69.3000000000,7.8750000000,-2.6250000000,0.5625000000,image49.jpg,3276.6228630000
0.3843137324,0.0000000000,5,50.8680568333,-0.0982488333,69.3000000000,7.8750000000,-2.6250000000,0.5625000000,image51.jpg,3408.1858840000
0.3686274588,0.0000000000,5,50.8680568333,-0.0982488333,69.3000000000,8.0625000000,-2.5000000000,0.3125000000,image52.jpg,3476.6572900000
0.4313725531,0.0000000000,5,50.8680568333,-0.0982488333,69.3000000000,7.1250000000,-2.5625000000,0.1250000000,image54.jpg,3610.5088530000
0.4392156899,0.0000000000,5,50.8680566667,-0.0982490000,69.3000000000,6.1250000000,-2.3750000000,0.1250000000,image55.jpg,3675.9552070000
0.3921568692,0.0000000000,5,50.8680568333,-0.0982491667,69.3000000000,5.3125000000,-2.7500000000,0.1250000000,image57.jpg,3810.1665610000
0.4313725531,0.0000000000,5,50.8680568333,-0.0982495000,69.3000000000,5.2500000000,-3.0000000000,0.1250000000,image58.jpg,3878.7093220000
0.3921568692,0.0000000000,5,50.8680568333,-0.0982498333,69.3000000000,5.2500000000,-3.3750000000,0.0000000000,image59.jpg,3946.6871340000
0.4000000060,0.0000000000,5,50.8680570000,-0.0982503333,69.3000000000,4.8125000000,-3.8750000000,359.6875000000,image61.jpg,4078.5547380000
0.4627451003,0.0000000000,5,50.8680571667,-0.0982506667,69.3000000000,4.6250000000,-3.6875000000,0.0000000000,image62.jpg,4145.2283320000
0.4549019635,0.0000000000,5,50.8680571667,-0.0982510000,69.3000000000,6.3125000000,-2.0625000000,359.9375000000,image64.jpg,4277.7589570000
0.4549019635,0.0000000000,5,50.8680571667,-0.0982511667,69.3000000000,7.6250000000,0.0000000000,359.6250000000,image66.jpg,4408.1949460000
0.4549019635,1.0000000000,5,50.8680571667,-0.0982516667,69.3000000000,7.3125000000,1.3750000000,359.3125000000,image67.jpg,4477.8281760000
0.4627451003,0.0000000000,5,50.8680573333,-0.0982518333,69.3000000000,5.1250000000,2.1875000000,359.0000000000,image69.jpg,4608.0643730000
0.4627451003,0.0000000000,5,50.8680575000,-0.0982523333,69.3000000000,5.4375000000,1.8750000000,358.9375000000,image70.jpg,4676.4556750000
0.4784313738,0.0000000000,5,50.8680575000,-0.0982530000,69.3000000000,5.6250000000,1.9375000000,359.1250000000,image71.jpg,4745.7845820000
0.4627451003,0.0000000000,5,50.8680576667,-0.0982533333,69.2000000000,3.6250000000,2.4375000000,358.8750000000,image73.jpg,4877.8972380000
0.4313725531,0.0000000000,5,50.8680576667,-0.0982536667,69.2000000000,2.3750000000,1.5625000000,358.8750000000,image75.jpg,5011.9347380000
0.4705882370,0.0000000000,5,50.8680578333,-0.0982543333,69.3000000000,2.6250000000,1.3750000000,358.5625000000,image76.jpg,5076.8309880000
0.4705882370,0.0000000000,5,50.8680580000,-0.0982548333,69.3000000000,2.1875000000,1.4375000000,358.3125000000,image77.jpg,5145.3170820000
0.4392156899,3.0000000000,5,50.8680581667,-0.0982551667,69.3000000000,1.1875000000,1.6250000000,359.5625000000,image79.jpg,5277.1947900000
0.4862745106,4.0000000000,5,50.8680580000,-0.0982555000,69.3000000000,1.1250000000,1.1250000000,359.6250000000,image80.jpg,5344.9867170000
0.4705882370,12.0000000000,5,50.8680581667,-0.0982558333,69.3000000000,1.0000000000,0.7500000000,359.8125000000,image82.jpg,5476.7175500000
0.4705882370,14.0000000000,5,50.8680583333,-0.0982563333,69.3000000000,1.6250000000,0.6875000000,359.8125000000,image83.jpg,5544.9517170000
0.4784313738,15.0000000000,5,50.8680583333,-0.0982566667,69.3000000000,2.2500000000,0.6250000000,0.0000000000,image85.jpg,5676.7355710000
0.4862745106,7.0000000000,5,50.8680585000,-0.0982570000,69.3000000000,2.0000000000,-0.2500000000,0.9375000000,image87.jpg,5812.2586440000
0.5098039508,4.0000000000,5,50.8680588333,-0.0982575000,69.3000000000,1.8125000000,-0.4375000000,0.8125000000,image88.jpg,5876.5192690000
0.4862745106,-2.0000000000,5,50.8680590000,-0.0982581667,69.3000000000,1.8125000000,0.1250000000,1.3125000000,image90.jpg,6013.6598940000
0.4862745106,-6.0000000000,5,50.8680591667,-0.0982585000,69.3000000000,1.4375000000,0.1250000000,1.3750000000,image91.jpg,6076.5154670000
0.4941176474,-6.0000000000,5,50.8680593333,-0.0982590000,69.3000000000,0.0000000000,0.0000000000,1.0000000000,image92.jpg,6145.1671330000
0.5019608140,-7.0000000000,5,50.8680595000,-0.0982593333,69.3000000000,-1.3750000000,0.0000000000,0.6875000000,image94.jpg,6276.2745290000
0.4941176474,-4.0000000000,5,50.8680596667,-0.0982600000,69.3000000000,-1.6250000000,0.1875000000,0.3750000000,image95.jpg,6345.5596850000
0.4627451003,1.0000000000,5,50.8680596667,-0.0982605000,69.3000000000,-1.6875000000,-0.1250000000,359.5000000000,image97.jpg,6480.6530190000
0.5098039508,1.0000000000,5,50.8680600000,-0.0982610000,69.3000000000,-3.2500000000,1.0625000000,0.1875000000,image99.jpg,6612.6046330000
0.5176470876,0.0000000000,5,50.8680601667,-0.0982613333,69.3000000000,-3.5000000000,2.2500000000,0.1250000000,image100.jpg,6680.4712480000
0.5176470876,1.0000000000,5,50.8680605000,-0.0982616667,69.2000000000,-3.5625000000,3.2500000000,0.1250000000,image101.jpg,6745.0154140000
0.5176470876,1.0000000000,5,50.8680606667,-0.0982623333,69.2000000000,-1.6875000000,2.8750000000,0.0625000000,image103.jpg,6884.7579660000
0.5176470876,1.0000000000,5,50.8680606667,-0.0982628333,69.2000000000,0.3750000000,1.8750000000,359.1875000000,image105.jpg,7011.7656220000
0.5333333611,1.0000000000,5,50.8680606667,-0.0982635000,69.3000000000,-1.1875000000,2.0625000000,358.5000000000,image106.jpg,7081.2162470000
0.5176470876,1.0000000000,5,50.8680608333,-0.0982640000,69.3000000000,-2.0000000000,1.4375000000,359.4375000000,image107.jpg,7144.8915080000
0.5176470876,3.0000000000,5,50.8680611667,-0.0982645000,69.3000000000,-2.6875000000,1.6250000000,359.5625000000,image109.jpg,7279.5466120000
0.5176470876,4.0000000000,5,50.8680613333,-0.0982648333,69.3000000000,-3.1875000000,2.3125000000,0.0625000000,image110.jpg,7343.3191640000
0.5176470876,6.0000000000,5,50.8680613333,-0.0982650000,69.3000000000,-2.6250000000,2.6250000000,359.5000000000,image112.jpg,7480.6205180000
0.5176470876,7.0000000000,5,50.8680613333,-0.0982656667,69.3000000000,-2.9375000000,1.5000000000,359.0625000000,image113.jpg,7545.5287990000
0.4392156899,11.0000000000,5,50.8680615000,-0.0982660000,69.3000000000,-2.5000000000,2.1875000000,359.5000000000,image115.jpg,7680.5566120000
0.5098039508,13.0000000000,5,50.8680616667,-0.0982661667,69.3000000000,-1.1875000000,2.5625000000,359.8750000000,image117.jpg,7813.0962470000
0.5098039508,14.0000000000,5,50.8680616667,-0.0982666667,69.3000000000,0.3125000000,3.1875000000,0.4375000000,image118.jpg,7880.8321850000
0.5176470876,15.0000000000,5,50.8680616667,-0.0982670000,69.3000000000,1.8750000000,3.0000000000,0.8125000000,image119.jpg,7947.8722370000
0.5176470876,13.0000000000,5,50.8680616667,-0.0982676667,69.3000000000,1.3125000000,2.0625000000,1.6250000000,image121.jpg,8081.2077570000
0.4862745106,13.0000000000,5,50.8680620000,-0.0982683333,69.3000000000,0.5000000000,3.1875000000,2.8125000000,image122.jpg,8148.4042680000
0.5254902244,11.0000000000,5,50.8680621667,-0.0982688333,69.3000000000,0.9375000000,1.9375000000,2.7500000000,image124.jpg,8280.1511950000
0.5254902244,8.0000000000,5,50.8680623333,-0.0982691667,69.3000000000,1.1875000000,0.7500000000,3.1875000000,image125.jpg,8350.0065070000
0.5254902244,4.0000000000,5,50.8680626667,-0.0982696667,69.3000000000,2.3125000000,1.3750000000,4.2500000000,image127.jpg,8481.8131220000
0.5254902244,3.0000000000,5,50.8680625000,-0.0982701667,69.3000000000,2.9375000000,1.2500000000,4.1875000000,image128.jpg,8547.9909860000
0.5254902244,0.0000000000,5,50.8680626667,-0.0982705000,69.3000000000,2.1875000000,1.0000000000,4.5000000000,image130.jpg,8682.2759860000
0.5411764979,0.0000000000,5,50.8680628333,-0.0982710000,69.3000000000,2.5625000000,0.9375000000,4.5000000000,image131.jpg,8749.5568200000
0.4862745106,1.0000000000,5,50.8680628333,-0.0982715000,69.3000000000,4.6250000000,1.3750000000,4.6875000000,image133.jpg,8880.5937990000
0.5333333611,6.0000000000,5,50.8680628333,-0.0982720000,69.3000000000,2.8750000000,2.4375000000,4.4375000000,image135.jpg,9016.6388510000
0.5333333611,8.0000000000,5,50.8680631667,-0.0982726667,69.3000000000,1.6875000000,1.6250000000,4.6250000000,image136.jpg,9081.6299970000
0.5333333611,11.0000000000,5,50.8680633333,-0.0982730000,69.2000000000,1.6875000000,1.1875000000,4.8125000000,image137.jpg,9148.4154650000
0.5333333611,14.0000000000,5,50.8680635000,-0.0982735000,69.2000000000,3.6875000000,2.1250000000,5.6250000000,image139.jpg,9281.8797880000
0.5176470876,18.0000000000,5,50.8680635000,-0.0982741667,69.2000000000,5.8125000000,3.2500000000,5.9375000000,image140.jpg,9347.9024970000
0.5411764979,15.0000000000,5,50.8680635000,-0.0982745000,69.3000000000,6.5625000000,2.8125000000,6.8125000000,image142.jpg,9480.5530690000
0.5333333611,15.0000000000,5,50.8680638333,-0.0982750000,69.3000000000,4.6875000000,2.1250000000,7.1250000000,image143.jpg,9548.8083300000
0.5098039508,15.0000000000,5,50.8680641667,-0.0982755000,69.3000000000,4.0625000000,0.8750000000,9.2500000000,image145.jpg,9680.5811940000
0.5411764979,10.0000000000,5,50.8680641667,-0.0982761667,69.3000000000,4.5000000000,0.8750000000,10.8125000000,image147.jpg,9816.9892150000
0.5568627715,4.0000000000,5,50.8680643333,-0.0982766667,69.3000000000,3.8125000000,1.3125000000,10.8125000000,image148.jpg,9880.7252570000
0.5176470876,3.0000000000,5,50.8680646667,-0.0982770000,69.3000000000,2.3750000000,1.3750000000,11.5625000000,image149.jpg,9948.3062980000
0.5411764979,3.0000000000,5,50.8680648333,-0.0982775000,69.3000000000,3.4375000000,3.0625000000,12.5625000000,image151.jpg,10081.7110900000
0.5098039508,0.0000000000,5,50.8680650000,-0.0982780000,69.3000000000,2.3750000000,2.8750000000,12.3750000000,image152.jpg,10147.8867150000
0.5411764979,0.0000000000,5,50.8680653333,-0.0982781667,69.3000000000,1.8125000000,3.1875000000,12.3750000000,image154.jpg,10281.2881210000
0.5411764979,2.0000000000,5,50.8680655000,-0.0982786667,69.3000000000,2.1875000000,3.1250000000,11.8125000000,image155.jpg,10348.4595270000
0.5568627715,0.0000000000,5,50.8680656667,-0.0982793333,69.3000000000,3.1875000000,2.5625000000,11.5625000000,image157.jpg,10485.0903090000
0.5490196347,1.0000000000,5,50.8680658333,-0.0982798333,69.3000000000,4.5000000000,3.0000000000,11.1875000000,image158.jpg,10548.2112460000
0.5490196347,-2.0000000000,5,50.8680660000,-0.0982801667,69.3000000000,5.3125000000,2.0000000000,10.2500000000,image160.jpg,10685.0350480000
0.5490196347,-4.0000000000,5,50.8680661667,-0.0982806667,69.3000000000,5.2500000000,2.2500000000,9.9375000000,image161.jpg,10750.4128610000
0.5176470876,-3.0000000000,5,50.8680663333,-0.0982810000,69.4000000000,5.2500000000,2.3750000000,9.6875000000,image163.jpg,10885.5366630000
0.5490196347,-3.0000000000,5,50.8680663333,-0.0982815000,69.4000000000,5.6250000000,2.0625000000,9.0625000000,image164.jpg,10948.8962980000
0.5568627715,-3.0000000000,5,50.8680666667,-0.0982820000,69.4000000000,6.5625000000,0.7500000000,8.4375000000,image166.jpg,11085.5623920000
0.4627451003,-4.0000000000,5,50.8680668333,-0.0982825000,69.4000000000,5.9375000000,0.4375000000,7.5000000000,image167.jpg,11149.7016630000
0.5490196347,-2.0000000000,5,50.8680671667,-0.0982830000,69.4000000000,3.5625000000,-0.5625000000,8.0625000000,image169.jpg,11283.5857250000
0.5019608140,-2.0000000000,5,50.8680673333,-0.0982835000,69.4000000000,5.1250000000,-0.3125000000,7.9375000000,image170.jpg,11350.2254650000
0.5490196347,2.0000000000,5,50.8680673333,-0.0982838333,69.4000000000,6.5625000000,0.4375000000,7.5000000000,image172.jpg,11484.6003080000
0.5490196347,4.0000000000,5,50.8680676667,-0.0982845000,69.4000000000,7.0625000000,0.1875000000,8.0000000000,image173.jpg,11549.5292140000
0.5490196347,5.0000000000,5,50.8680676667,-0.0982850000,69.4000000000,5.5625000000,1.1250000000,7.8750000000,image175.jpg,11684.5795270000
0.5490196347,6.0000000000,5,50.8680678333,-0.0982853333,69.4000000000,5.3125000000,1.4375000000,7.8750000000,image176.jpg,11754.2949440000
0.5490196347,2.0000000000,5,50.8680681667,-0.0982856667,69.4000000000,4.8750000000,2.2500000000,8.1250000000,image178.jpg,11889.8174440000
0.5568627715,-1.0000000000,5,50.8680683333,-0.0982865000,69.4000000000,4.0625000000,2.3125000000,8.4375000000,image179.jpg,11955.3268710000
0.5019608140,-1.0000000000,5,50.8680686667,-0.0982870000,69.4000000000,3.6250000000,2.9375000000,8.1875000000,image181.jpg,12085.1737980000
0.5568627715,-1.0000000000,5,50.8680688333,-0.0982875000,69.4000000000,2.9375000000,3.5625000000,8.8750000000,image182.jpg,12153.2272350000
0.5568627715,-2.0000000000,5,50.8680690000,-0.0982880000,69.4000000000,4.9375000000,3.5000000000,8.9375000000,image184.jpg,12285.2887980000
0.5490196347,-2.0000000000,5,50.8680691667,-0.0982883333,69.4000000000,4.5000000000,2.8125000000,8.7500000000,image185.jpg,12353.4884330000
0.5568627715,-3.0000000000,5,50.8680695000,-0.0982890000,69.5000000000,4.1250000000,2.2500000000,8.0625000000,image187.jpg,12486.4303080000
0.5019608140,-5.0000000000,5,50.8680696667,-0.0982895000,69.5000000000,3.9375000000,1.6250000000,7.3750000000,image188.jpg,12552.5052560000
0.5490196347,-5.0000000000,5,50.8680698333,-0.0982900000,69.5000000000,0.9375000000,2.1250000000,7.2500000000,image190.jpg,12683.9990580000
0.5647059083,-3.0000000000,5,50.8680701667,-0.0982903333,69.5000000000,-0.1875000000,2.8125000000,7.0625000000,image191.jpg,12752.1499430000
0.5490196347,-2.0000000000,5,50.8680701667,-0.0982910000,69.5000000000,1.6250000000,3.0000000000,6.6875000000,image193.jpg,12885.4374430000
0.5490196347,1.0000000000,5,50.8680703333,-0.0982918333,69.5000000000,2.8125000000,2.0625000000,6.0625000000,image194.jpg,12953.0907760000
0.5490196347,2.0000000000,5,50.8680705000,-0.0982921667,69.5000000000,1.6875000000,1.1875000000,5.6875000000,image196.jpg,13084.2905680000
0.5490196347,3.0000000000,5,50.8680706667,-0.0982925000,69.5000000000,2.4375000000,1.7500000000,5.3750000000,image197.jpg,13153.5641100000
0.4549019635,6.0000000000,5,50.8680708333,-0.0982930000,69.5000000000,3.3750000000,1.1250000000,5.7500000000,image199.jpg,13283.2291100000
0.5568627715,5.0000000000,5,50.8680710000,-0.0982936667,69.5000000000,3.0625000000,0.9375000000,5.6250000000,image200.jpg,13352.4256200000
0.5490196347,0.0000000000,5,50.8680711667,-0.0982941667,69.5000000000,2.9375000000,0.4375000000,5.3125000000,image202.jpg,13483.6503600000
0.5490196347,1.0000000000,5,50.8680713333,-0.0982946667,69.5000000000,2.6250000000,0.0000000000,5.8125000000,image203.jpg,13554.3659320000
0.5490196347,0.0000000000,5,50.8680715000,-0.0982951667,69.5000000000,2.3750000000,-0.8125000000,6.5000000000,image205.jpg,13683.8708280000
0.5098039508,0.0000000000,5,50.8680716667,-0.0982956667,69.5000000000,2.7500000000,-0.7500000000,6.5625000000,image206.jpg,13752.6091090000
0.5490196347,0.0000000000,5,50.8680718333,-0.0982963333,69.4000000000,1.5000000000,-0.6250000000,6.4375000000,image208.jpg,13884.2600990000
0.5568627715,0.0000000000,5,50.8680721667,-0.0982971667,69.4000000000,1.2500000000,-1.0625000000,6.3750000000,image209.jpg,13952.5691610000
0.5490196347,0.0000000000,5,50.8680723333,-0.0982976667,69.4000000000,0.4375000000,-0.3125000000,6.6875000000,image211.jpg,14083.2905680000
0.5490196347,0.0000000000,5,50.8680725000,-0.0982983333,69.4000000000,1.9375000000,0.1875000000,6.4375000000,image212.jpg,14152.4749430000
0.5568627715,1.0000000000,5,50.8680723333,-0.0982991667,69.4000000000,2.9375000000,0.6250000000,6.2500000000,image214.jpg,14283.8735360000
0.5176470876,0.0000000000,5,50.8680726667,-0.0982995000,69.4000000000,3.4375000000,0.3750000000,6.3750000000,image215.jpg,14352.9706720000
0.5333333611,0.0000000000,5,50.8680730000,-0.0983001667,69.4000000000,2.6250000000,0.6250000000,6.0000000000,image217.jpg,14488.0333800000
0.5725490451,0.0000000000,5,50.8680731667,-0.0983006667,69.4000000000,2.6250000000,0.3125000000,5.6875000000,image218.jpg,14553.5727030000
0.5568627715,0.0000000000,5,50.8680733333,-0.0983013333,69.4000000000,-1.3125000000,-0.5625000000,5.1875000000,image220.jpg,14687.9371300000
0.5176470876,2.0000000000,5,50.8680735000,-0.0983018333,69.4000000000,-3.2500000000,0.0625000000,5.5000000000,image221.jpg,14753.7662970000
0.5568627715,2.0000000000,5,50.8680738333,-0.0983025000,69.4000000000,-4.0000000000,-1.1875000000,6.7500000000,image223.jpg,14888.4439010000
0.5176470876,2.0000000000,5,50.8680738333,-0.0983031667,69.4000000000,-2.9375000000,-2.1250000000,6.8125000000,image224.jpg,14953.4522340000
0.5411764979,2.0000000000,5,50.8680740000,-0.0983038333,69.4000000000,0.1875000000,-3.7500000000,6.2500000000,image226.jpg,15087.9862960000
0.5568627715,1.0000000000,5,50.8680740000,-0.0983045000,69.4000000000,0.1250000000,-3.0625000000,6.0000000000,image227.jpg,15153.0115570000
0.5333333611,1.0000000000,5,50.8680743333,-0.0983048333,69.4000000000,1.6875000000,-1.0000000000,5.7500000000,image229.jpg,15287.8801510000
0.5568627715,1.0000000000,5,50.8680743333,-0.0983053333,69.4000000000,3.3125000000,-0.0625000000,6.0625000000,image230.jpg,15352.3735360000
0.5647059083,3.0000000000,5,50.8680743333,-0.0983056667,69.4000000000,-0.5625000000,0.0625000000,4.5625000000,image232.jpg,15487.9108280000
0.5254902244,1.0000000000,5,50.8680746667,-0.0983060000,69.4000000000,-7.1875000000,-2.2500000000,6.6250000000,image233.jpg,15552.5016610000
0.5647059083,2.0000000000,5,50.8680751667,-0.0983063333,69.4000000000,-5.8750000000,0.0000000000,7.4375000000,image235.jpg,15688.4485360000
0.5725490451,0.0000000000,5,50.8680751667,-0.0983071667,69.4000000000,-3.5000000000,1.3125000000,6.9375000000,image236.jpg,15756.9893170000
0.5725490451,0.0000000000,5,50.8680753333,-0.0983075000,69.4000000000,-2.3125000000,3.3125000000,7.1875000000,image238.jpg,15888.3047860000
0.5647059083,2.0000000000,5,50.8680756667,-0.0983080000,69.4000000000,-2.8750000000,2.3125000000,7.1250000000,image239.jpg,15957.1364000000
0.5647059083,1.0000000000,5,50.8680758333,-0.0983086667,69.3000000000,-4.8750000000,2.6250000000,7.6250000000,image241.jpg,16087.9222340000
0.5803921819,1.0000000000,5,50.8680760000,-0.0983090000,69.4000000000,-5.7500000000,2.8125000000,8.0625000000,image242.jpg,16156.4611920000
0.5254902244,0.0000000000,5,50.8680760000,-0.0983091667,69.4000000000,-4.1875000000,3.5000000000,7.8750000000,image244.jpg,16288.4870770000
0.5647059083,0.0000000000,5,50.8680760000,-0.0983098333,69.4000000000,-3.8750000000,4.0000000000,6.5625000000,image245.jpg,16357.1738480000
0.5333333611,0.0000000000,5,50.8680765000,-0.0983103333,69.4000000000,-8.8125000000,6.0000000000,7.2500000000,image247.jpg,16488.7645250000
0.5647059083,1.0000000000,5,50.8680766667,-0.0983106667,69.4000000000,-7.7500000000,6.3750000000,7.8125000000,image248.jpg,16558.3720770000
0.5725490451,3.0000000000,5,50.8680765000,-0.0983110000,69.4000000000,-3.7500000000,5.1250000000,7.8125000000,image250.jpg,16688.9006190000
0.4941176474,1.0000000000,5,50.8680766667,-0.0983115000,69.4000000000,-3.9375000000,4.8125000000,7.6875000000,image251.jpg,16755.7658790000
0.5725490451,1.0000000000,5,50.8680770000,-0.0983118333,69.4000000000,-2.9375000000,4.7500000000,7.8125000000,image253.jpg,16892.1667650000
0.5725490451,0.0000000000,5,50.8680771667,-0.0983123333,69.4000000000,-2.2500000000,4.3750000000,7.6250000000,image254.jpg,16956.5212960000
0.5725490451,0.0000000000,5,50.8680771667,-0.0983128333,69.4000000000,-3.8750000000,5.8750000000,7.1875000000,image256.jpg,17089.3766600000
0.5803921819,1.0000000000,5,50.8680775000,-0.0983131667,69.4000000000,-6.2500000000,6.1875000000,7.5625000000,image257.jpg,17156.2244730000
0.5803921819,-1.0000000000,5,50.8680778333,-0.0983135000,69.4000000000,-5.6875000000,7.8125000000,8.8750000000,image259.jpg,17288.1280660000
0.5960784554,-2.0000000000,5,50.8680778333,-0.0983138333,69.4000000000,-3.8125000000,7.7500000000,8.1875000000,image260.jpg,17356.3522850000
0.5333333611,-4.0000000000,5,50.8680780000,-0.0983141667,69.4000000000,-2.5000000000,6.0000000000,7.5000000000,image262.jpg,17488.5397330000
0.5960784554,-4.0000000000,5,50.8680780000,-0.0983148333,69.4000000000,-1.6250000000,5.7500000000,7.3125000000,image263.jpg,17556.5680660000
0.5490196347,-6.0000000000,5,50.8680781667,-0.0983153333,69.4000000000,0.1250000000,7.0000000000,6.6250000000,image265.jpg,17688.0187430000
0.6039215922,-5.0000000000,5,50.8680781667,-0.0983158333,69.4000000000,0.5625000000,6.8125000000,6.6250000000,image266.jpg,17756.4019730000
0.6117647290,-1.0000000000,5,50.8680785000,-0.0983161667,69.4000000000,2.4375000000,8.0625000000,6.6875000000,image268.jpg,17888.6292640000
0.5647059083,2.0000000000,5,50.8680786667,-0.0983168333,69.4000000000,2.6250000000,8.5625000000,6.1875000000,image269.jpg,17956.4775970000
0.5960784554,2.0000000000,5,50.8680786667,-0.0983171667,69.4000000000,1.4375000000,7.9375000000,5.0625000000,image271.jpg,18089.0240040000
0.5882353187,0.0000000000,5,50.8680790000,-0.0983176667,69.4000000000,1.0625000000,7.2500000000,4.5625000000,image272.jpg,18156.4185870000
0.5882353187,1.0000000000,5,50.8680791667,-0.0983181667,69.4000000000,1.7500000000,6.5000000000,4.1875000000,image274.jpg,18288.8611910000
0.5882353187,2.0000000000,5,50.8680793333,-0.0983185000,69.4000000000,2.5000000000,7.1250000000,4.3125000000,image275.jpg,18356.2345760000
0.6039215922,5.0000000000,5,50.8680793333,-0.0983188333,69.4000000000,3.5625000000,7.0000000000,4.1875000000,image277.jpg,18492.9234310000
0.5882353187,7.0000000000,5,50.8680793333,-0.0983193333,69.4000000000,4.1875000000,6.3125000000,4.5625000000,image278.jpg,18556.3466600000
0.5098039508,10.0000000000,5,50.8680795000,-0.0983200000,69.4000000000,3.6875000000,5.5625000000,4.6250000000,image280.jpg,18692.7561910000
0.5882353187,7.0000000000,5,50.8680795000,-0.0983203333,69.4000000000,3.6250000000,4.8125000000,4.8125000000,image281.jpg,18756.5704100000
0.5098039508,1.0000000000,5,50.8680798333,-0.0983210000,69.4000000000,5.4375000000,4.1250000000,4.6875000000,image283.jpg,18892.7796280000
0.5960784554,0.0000000000,5,50.8680800000,-0.0983215000,69.4000000000,5.9375000000,4.1250000000,4.6875000000,image284.jpg,18956.8668680000
0.6039215922,0.0000000000,5,50.8680801667,-0.0983220000,69.5000000000,5.3750000000,3.5000000000,5.0000000000,image286.jpg,19092.6492640000
0.5098039508,1.0000000000,5,50.8680805000,-0.0983226667,69.5000000000,5.8125000000,3.2500000000,5.0000000000,image287.jpg,19157.7046280000
0.5960784554,0.0000000000,5,50.8680805000,-0.0983233333,69.5000000000,5.0625000000,3.3125000000,4.9375000000,image289.jpg,19291.9225450000
0.5960784554,0.0000000000,5,50.8680808333,-0.0983238333,69.5000000000,4.5625000000,3.1250000000,4.8750000000,image290.jpg,19357.3452530000
0.5960784554,1.0000000000,5,50.8680811667,-0.0983243333,69.5000000000,3.8125000000,2.0625000000,4.2500000000,image292.jpg,19492.1072320000
0.5960784554,2.0000000000,5,50.8680813333,-0.0983248333,69.5000000000,2.8125000000,2.1250000000,4.5000000000,image293.jpg,19557.3986390000
0.6117647290,3.0000000000,5,50.8680816667,-0.0983255000,69.5000000000,5.0625000000,1.1875000000,4.5000000000,image295.jpg,19692.0593680000
0.5960784554,3.0000000000,5,50.8680816667,-0.0983265000,69.5000000000,4.7500000000,1.1250000000,4.3125000000,image296.jpg,19761.3567630000
0.5647059083,4.0000000000,5,50.8680818333,-0.0983273333,69.5000000000,4.1875000000,0.8750000000,4.5000000000,image298.jpg,19892.9081180000
0.5647059083,4.0000000000,5,50.8680821667,-0.0983280000,69.5000000000,4.1250000000,1.2500000000,4.2500000000,image299.jpg,19961.6290550000
0.5725490451,4.0000000000,5,50.8680821667,-0.0983285000,69.5000000000,3.7500000000,1.6875000000,4.5625000000,image301.jpg,20093.0636900000
0.6039215922,2.0000000000,5,50.8680825000,-0.0983293333,69.5000000000,4.6875000000,1.6250000000,4.6875000000,image302.jpg,20161.6674400000
0.6117647290,0.0000000000,5,50.8680826667,-0.0983298333,69.5000000000,4.5000000000,2.3125000000,4.6875000000,image304.jpg,20292.8268670000
0.5803921819,2.0000000000,5,50.8680826667,-0.0983303333,69.5000000000,4.6250000000,2.1875000000,5.0625000000,image305.jpg,20360.7403050000
0.6117647290,0.0000000000,5,50.8680828333,-0.0983311667,69.5000000000,3.0625000000,2.5000000000,5.0625000000,image307.jpg,20492.5372840000
0.6117647290,0.0000000000,5,50.8680830000,-0.0983316667,69.5000000000,2.4375000000,1.6875000000,5.2500000000,image308.jpg,20559.2371800000
0.5803921819,0.0000000000,5,50.8680833333,-0.0983323333,69.5000000000,3.5625000000,1.6250000000,5.1875000000,image310.jpg,20691.4406170000
0.6117647290,0.0000000000,5,50.8680835000,-0.0983328333,69.5000000000,4.3750000000,1.8125000000,5.1875000000,image311.jpg,20759.6401480000
0.6117647290,0.0000000000,5,50.8680835000,-0.0983335000,69.5000000000,4.4375000000,3.4375000000,4.8125000000,image313.jpg,20892.3139510000
0.6039215922,0.0000000000,5,50.8680836667,-0.0983340000,69.5000000000,4.7500000000,3.5000000000,4.6875000000,image314.jpg,20960.8763980000
0.5725490451,2.0000000000,5,50.8680836667,-0.0983346667,69.5000000000,5.6875000000,2.6250000000,4.5000000000,image316.jpg,21092.4053050000
0.5725490451,0.0000000000,5,50.8680840000,-0.0983353333,69.5000000000,4.9375000000,2.1875000000,4.5000000000,image317.jpg,21161.3547320000
0.6039215922,1.0000000000,5,50.8680843333,-0.0983360000,69.5000000000,3.6250000000,2.2500000000,4.5625000000,image319.jpg,21292.1496270000
0.6196078658,0.0000000000,5,50.8680846667,-0.0983366667,69.5000000000,3.4375000000,2.0625000000,4.4375000000,image320.jpg,21361.4211380000
0.6117647290,0.0000000000,5,50.8680846667,-0.0983375000,69.5000000000,5.8750000000,2.0625000000,4.0625000000,image322.jpg,21492.0804090000
0.6117647290,2.0000000000,5,50.8680846667,-0.0983378333,69.5000000000,5.3750000000,2.1250000000,3.8750000000,image323.jpg,21561.3888460000
0.6117647290,0.0000000000,5,50.8680848333,-0.0983381667,69.4000000000,3.6875000000,1.9375000000,4.2500000000,image325.jpg,21692.0998360000
0.6117647290,1.0000000000,5,50.8680853333,-0.0983388333,69.4000000000,4.1875000000,0.7500000000,4.0000000000,image326.jpg,21760.8958770000
0.5803921819,2.0000000000,5,50.8680855000,-0.0983396667,69.4000000000,3.9375000000,2.8125000000,3.7500000000,image328.jpg,21895.5872310000
0.6274510026,2.0000000000,5,50.8680858333,-0.0983403333,69.4000000000,5.3125000000,3.7500000000,4.5000000000,image329.jpg,21961.1542110000
0.6117647290,1.0000000000,5,50.8680856667,-0.0983408333,69.4000000000,7.1875000000,3.6250000000,3.9375000000,image331.jpg,22092.4651480000
0.6117647290,1.0000000000,5,50.8680858333,-0.0983415000,69.4000000000,5.7500000000,2.9375000000,4.5625000000,image332.jpg,22160.5536380000
0.6117647290,6.0000000000,5,50.8680861667,-0.0983420000,69.4000000000,6.3750000000,2.7500000000,4.1875000000,image334.jpg,22291.8855650000
0.5254902244,5.0000000000,5,50.8680861667,-0.0983426667,69.4000000000,5.8750000000,2.8125000000,3.8750000000,image335.jpg,22361.0624920000
0.6274510026,7.0000000000,5,50.8680861667,-0.0983431667,69.4000000000,5.6875000000,3.5000000000,4.3125000000,image337.jpg,22495.8934810000
0.6196078658,7.0000000000,5,50.8680865000,-0.0983436667,69.4000000000,6.1250000000,4.0625000000,4.1875000000,image338.jpg,22561.6520750000
0.6117647290,8.0000000000,5,50.8680866667,-0.0983443333,69.4000000000,5.5625000000,3.3750000000,4.7500000000,image340.jpg,22695.8488460000
0.6196078658,7.0000000000,5,50.8680868333,-0.0983450000,69.4000000000,6.1250000000,3.6875000000,5.0625000000,image341.jpg,22763.5562940000
0.6117647290,0.0000000000,5,50.8680870000,-0.0983451667,69.4000000000,3.6875000000,4.4375000000,4.9375000000,image343.jpg,22896.0591060000
0.6117647290,0.0000000000,5,50.8680871667,-0.0983458333,69.4000000000,4.3750000000,5.4375000000,5.6875000000,image344.jpg,22961.2163460000
0.5803921819,0.0000000000,5,50.8680873333,-0.0983465000,69.4000000000,5.8750000000,5.3125000000,5.1250000000,image346.jpg,23096.0074910000
0.6196078658,0.0000000000,5,50.8680873333,-0.0983471667,69.4000000000,5.1875000000,3.8125000000,5.1250000000,image347.jpg,23161.1030120000
0.6196078658,0.0000000000,5,50.8680876667,-0.0983478333,69.4000000000,7.9375000000,3.7500000000,5.0000000000,image349.jpg,23295.8175430000
0.6196078658,-1.0000000000,5,50.8680878333,-0.0983483333,69.4000000000,7.6250000000,3.3750000000,4.7500000000,image350.jpg,23360.5242100000
0.6196078658,-10.0000000000,5,50.8680878333,-0.0983488333,69.4000000000,5.0625000000,2.3125000000,4.4375000000,image352.jpg,23496.2239500000
0.5647059083,-14.0000000000,5,50.8680881667,-0.0983496667,69.4000000000,3.8125000000,4.0000000000,4.4375000000,image353.jpg,23560.3965540000
0.6196078658,-15.0000000000,5,50.8680883333,-0.0983501667,69.4000000000,4.5625000000,3.1875000000,3.5000000000,image355.jpg,23696.6121270000
0.6196078658,-8.0000000000,5,50.8680885000,-0.0983506667,69.4000000000,5.5000000000,2.3125000000,2.8750000000,image356.jpg,23764.4751470000
0.6196078658,0.0000000000,5,50.8680885000,-0.0983511667,69.4000000000,8.0625000000,3.0625000000,1.4375000000,image358.jpg,23895.9098350000
0.6196078658,1.0000000000,5,50.8680885000,-0.0983518333,69.4000000000,9.1875000000,3.8125000000,1.4375000000,image359.jpg,23964.4135330000
0.6196078658,2.0000000000,5,50.8680885000,-0.0983523333,69.4000000000,11.2500000000,4.1250000000,0.7500000000,image361.jpg,24096.1150950000
0.6196078658,5.0000000000,5,50.8680885000,-0.0983530000,69.4000000000,9.5000000000,3.8125000000,0.1250000000,image362.jpg,24164.5744180000
0.5333333611,23.0000000000,5,50.8680888333,-0.0983535000,69.4000000000,7.5625000000,3.5625000000,0.5000000000,image364.jpg,24295.8474390000
0.6196078658,27.0000000000,5,50.8680891667,-0.0983541667,69.4000000000,6.6250000000,2.5000000000,0.5000000000,image365.jpg,24364.5286370000
0.6196078658,23.0000000000,5,50.8680893333,-0.0983548333,69.4000000000,3.9375000000,2.3750000000,2.7500000000,image367.jpg,24497.0291050000
0.6196078658,8.0000000000,5,50.8680896667,-0.0983553333,69.4000000000,3.7500000000,2.9375000000,4.1875000000,image368.jpg,24564.1415010000
0.6196078658,0.0000000000,5,50.8680900000,-0.0983558333,69.4000000000,5.2500000000,3.3125000000,6.8125000000,image370.jpg,24697.0190010000
0.5490196347,0.0000000000,5,50.8680900000,-0.0983563333,69.4000000000,7.2500000000,4.2500000000,7.3750000000,image371.jpg,24763.9687410000
0.6196078658,0.0000000000,5,50.8680900000,-0.0983568333,69.4000000000,10.0625000000,4.1250000000,6.1875000000,image373.jpg,24897.1143140000
0.6196078658,-2.0000000000,5,50.8680901667,-0.0983571667,69.4000000000,9.5625000000,4.0000000000,6.3125000000,image374.jpg,24964.5433760000
0.6196078658,1.0000000000,5,50.8680903333,-0.0983576667,69.4000000000,5.9375000000,3.9375000000,6.0625000000,image376.jpg,25097.3233240000
0.6196078658,0.0000000000,5,50.8680905000,-0.0983583333,69.4000000000,4.9375000000,4.6875000000,6.0625000000,image377.jpg,25164.1035840000
0.6196078658,3.0000000000,5,50.8680905000,-0.0983586667,69.4000000000,5.0625000000,3.1250000000,5.1875000000,image379.jpg,25296.4336360000
0.6352941394,4.0000000000,5,50.8680908333,-0.0983595000,69.4000000000,5.0625000000,2.8125000000,4.7500000000,image380.jpg,25364.6465010000
0.5960784554,7.0000000000,5,50.8680911667,-0.0983605000,69.4000000000,5.4375000000,1.0000000000,5.6875000000,image382.jpg,25496.0058240000
0.6352941394,6.0000000000,5,50.8680915000,-0.0983611667,69.4000000000,5.9375000000,0.0625000000,5.7500000000,image383.jpg,25564.5378550000
0.6352941394,0.0000000000,5,50.8680915000,-0.0983616667,69.4000000000,4.7500000000,0.5000000000,5.9375000000,image385.jpg,25700.9685320000
0.6274510026,0.0000000000,5,50.8680915000,-0.0983621667,69.5000000000,3.6875000000,1.1250000000,5.9375000000,image386.jpg,25764.4688970000
0.6274510026,1.0000000000,5,50.8680916667,-0.0983628333,69.5000000000,4.9375000000,0.3125000000,6.1875000000,image388.jpg,25896.8379590000
0.5803921819,1.0000000000,5,50.8680920000,-0.0983636667,69.5000000000,4.8750000000,1.4375000000,6.5625000000,image389.jpg,25964.5676470000
0.6196078658,0.0000000000,5,50.8680925000,-0.0983641667,69.5000000000,4.6875000000,3.2500000000,6.0000000000,image391.jpg,26097.2096260000
0.6196078658,1.0000000000,5,50.8680926667,-0.0983645000,69.5000000000,4.3750000000,2.8125000000,6.3125000000,image392.jpg,26164.3755630000
0.5803921819,4.0000000000,5,50.8680928333,-0.0983653333,69.5000000000,3.8125000000,3.5000000000,5.6875000000,image394.jpg,26297.0276980000
0.6117647290,8.0000000000,5,50.8680931667,-0.0983658333,69.5000000000,3.8750000000,3.7500000000,5.5000000000,image395.jpg,26364.3961360000
0.6196078658,6.0000000000,5,50.8680933333,-0.0983665000,69.5000000000,4.5625000000,3.8750000000,5.6250000000,image397.jpg,26500.7766050000
0.5725490451,3.0000000000,5,50.8680935000,-0.0983671667,69.5000000000,5.5625000000,5.0000000000,6.1875000000,image398.jpg,26564.2311880000
0.5647059083,2.0000000000,5,50.8680936667,-0.0983680000,69.4000000000,6.1250000000,5.0000000000,6.2500000000,image400.jpg,26700.6058230000
0.5647059083,0.0000000000,5,50.8680938333,-0.0983685000,69.4000000000,5.9375000000,3.4375000000,6.5625000000,image401.jpg,26768.5345210000
0.6117647290,8.0000000000,5,50.8680943333,-0.0983691667,69.5000000000,7.0625000000,3.5625000000,6.4375000000,image403.jpg,26903.7543650000
0.6117647290,12.0000000000,5,50.8680945000,-0.0983695000,69.5000000000,5.8750000000,3.3125000000,6.0000000000,image404.jpg,26965.4402500000
0.6196078658,1.0000000000,5,50.8680948333,-0.0983700000,69.5000000000,6.1250000000,3.8125000000,6.8125000000,image406.jpg,27100.7257190000
0.6039215922,0.0000000000,5,50.8680950000,-0.0983701667,69.5000000000,6.5000000000,4.3125000000,7.1250000000,image407.jpg,27168.4010840000
0.6039215922,9.0000000000,5,50.8680953333,-0.0983706667,69.5000000000,6.9375000000,3.0000000000,7.5625000000,image409.jpg,27299.8468650000
0.6039215922,12.0000000000,5,50.8680956667,-0.0983713333,69.5000000000,6.5625000000,2.3125000000,7.7500000000,image410.jpg,27368.3117610000
0.5803921819,0.0000000000,5,50.8680958333,-0.0983720000,69.5000000000,6.4375000000,2.7500000000,8.4375000000,image412.jpg,27499.4217600000
0.6039215922,3.0000000000,5,50.8680958333,-0.0983723333,69.5000000000,7.0625000000,3.0625000000,8.8750000000,image413.jpg,27564.5396250000
0.6039215922,9.0000000000,5,50.8680961667,-0.0983730000,69.6000000000,6.5625000000,3.6250000000,8.6875000000,image415.jpg,27700.1571250000
0.5725490451,7.0000000000,5,50.8680961667,-0.0983735000,69.6000000000,6.2500000000,3.3125000000,8.5000000000,image416.jpg,27768.4604060000
0.5960784554,8.0000000000,5,50.8680963333,-0.0983741667,69.6000000000,7.5625000000,2.7500000000,8.8750000000,image418.jpg,27900.9629060000
0.5960784554,9.0000000000,5,50.8680965000,-0.0983748333,69.6000000000,7.8750000000,3.1250000000,8.8125000000,image419.jpg,27969.3415520000
0.5960784554,0.0000000000,5,50.8680965000,-0.0983751667,69.6000000000,6.1875000000,2.5625000000,8.7500000000,image421.jpg,28100.8920210000
0.6039215922,6.0000000000,5,50.8680968333,-0.0983758333,69.6000000000,7.0000000000,3.5625000000,9.3125000000,image422.jpg,28169.1727500000
0.5882353187,0.0000000000,5,50.8680966667,-0.0983761667,69.6000000000,10.2500000000,4.4375000000,9.5000000000,image424.jpg,28300.5760830000
0.5882353187,1.0000000000,5,50.8680966667,-0.0983766667,69.6000000000,10.0000000000,3.7500000000,9.3750000000,image425.jpg,28369.0415000000
0.5960784554,2.0000000000,5,50.8680970000,-0.0983773333,69.6000000000,7.5625000000,2.8125000000,9.5625000000,image427.jpg,28501.4081140000
0.5882353187,6.0000000000,5,50.8680971667,-0.0983781667,69.6000000000,6.5625000000,2.1250000000,9.5000000000,image428.jpg,28568.2359270000
0.5490196347,2.0000000000,5,50.8680971667,-0.0983786667,69.6000000000,6.5000000000,2.0000000000,10.1875000000,image430.jpg,28699.9225930000
0.6039215922,7.0000000000,5,50.8680973333,-0.0983790000,69.6000000000,7.3750000000,1.5625000000,9.8125000000,image431.jpg,28769.8068120000
0.5960784554,1.0000000000,5,50.8680976667,-0.0983798333,69.6000000000,9.4375000000,3.0000000000,10.2500000000,image433.jpg,28899.9781660000
0.5411764979,2.0000000000,5,50.8680976667,-0.0983801667,69.6000000000,10.6250000000,2.5625000000,11.3750000000,image434.jpg,28968.8506140000
0.5882353187,1.0000000000,5,50.8680978333,-0.0983806667,69.6000000000,9.1250000000,2.7500000000,11.2500000000,image436.jpg,29100.5312390000
0.5882353187,0.0000000000,5,50.8680980000,-0.0983811667,69.6000000000,7.5000000000,2.8125000000,11.2500000000,image437.jpg,29169.6256660000
0.5882353187,0.0000000000,5,50.8680981667,-0.0983816667,69.6000000000,6.6875000000,3.2500000000,10.9375000000,image439.jpg,29299.8196240000
0.6039215922,0.0000000000,5,50.8680981667,-0.0983821667,69.6000000000,5.4375000000,2.8125000000,10.3125000000,image440.jpg,29369.4060310000
0.5882353187,-7.0000000000,5,50.8680985000,-0.0983828333,69.6000000000,2.4375000000,3.0000000000,10.8750000000,image442.jpg,29499.9709260000
0.5882353187,-7.0000000000,5,50.8680990000,-0.0983835000,69.6000000000,3.3750000000,3.0625000000,11.1875000000,image443.jpg,29569.2884780000
0.5882353187,-7.0000000000,5,50.8680990000,-0.0983840000,69.6000000000,7.5000000000,1.5625000000,11.1875000000,image445.jpg,29704.3136870000
0.5882353187,-8.0000000000,5,50.8680991667,-0.0983845000,69.6000000000,8.8125000000,2.0000000000,10.3750000000,image446.jpg,29768.6669680000
0.5490196347,-6.0000000000,5,50.8680995000,-0.0983850000,69.6000000000,8.8750000000,1.8125000000,8.1875000000,image448.jpg,29899.9504050000
0.6117647290,-1.0000000000,5,50.8680996667,-0.0983855000,69.6000000000,7.6250000000,2.2500000000,7.6250000000,image449.jpg,29968.5357180000
0.5960784554,0.0000000000,5,50.8681000000,-0.0983860000,69.6000000000,5.6250000000,2.3750000000,7.3750000000,image451.jpg,30103.7021760000
0.5098039508,1.0000000000,5,50.8681000000,-0.0983866667,69.6000000000,4.0625000000,2.5625000000,6.8750000000,image452.jpg,30169.1751450000
0.6039215922,4.0000000000,5,50.8681005000,-0.0983873333,69.6000000000,3.0000000000,3.0000000000,7.1875000000,image454.jpg,30301.1233740000
0.6039215922,5.0000000000,5,50.8681006667,-0.0983878333,69.6000000000,3.3750000000,2.2500000000,7.5625000000,image455.jpg,30369.9636340000
0.6196078658,0.0000000000,5,50.8681008333,-0.0983885000,69.6000000000,4.9375000000,2.9375000000,7.9375000000,image457.jpg,30503.2933220000
0.6039215922,2.0000000000,5,50.8681008333,-0.0983888333,69.6000000000,5.5000000000,3.1875000000,8.1875000000,image458.jpg,30576.8401970000
0.5960784554,4.0000000000,5,50.8681011667,-0.0983895000,69.6000000000,8.6875000000,3.7500000000,7.8125000000,image460.jpg,30703.6987380000
0.5803921819,0.0000000000,5,50.8681011667,-0.0983903333,69.6000000000,8.0625000000,4.2500000000,7.3125000000,image461.jpg,30768.3004570000
0.5803921819,5.0000000000,5,50.8681013333,-0.0983905000,69.6000000000,4.6875000000,3.3125000000,7.3125000000,image463.jpg,30903.7597280000
0.5803921819,6.0000000000,5,50.8681016667,-0.0983911667,69.6000000000,4.9375000000,3.1250000000,7.6250000000,image464.jpg,30969.2344150000
0.5333333611,4.0000000000,5,50.8681020000,-0.0983918333,69.5000000000,6.8750000000,2.5000000000,7.0000000000,image466.jpg,31103.9457700000
0.5725490451,5.0000000000,5,50.8681020000,-0.0983923333,69.5000000000,5.6250000000,2.1250000000,7.1250000000,image467.jpg,31168.4720720000
0.5725490451,4.0000000000,5,50.8681025000,-0.0983930000,69.5000000000,2.5625000000,2.7500000000,7.6875000000,image469.jpg,31303.6637900000
0.5333333611,7.0000000000,5,50.8681026667,-0.0983931667,69.5000000000,2.5000000000,2.9375000000,8.0625000000,image470.jpg,31373.3072280000
0.5725490451,7.0000000000,5,50.8681025000,-0.0983936667,69.5000000000,5.8125000000,1.2500000000,7.8750000000,image472.jpg,31503.8728530000
0.5725490451,7.0000000000,5,50.8681026667,-0.0983943333,69.5000000000,6.6875000000,0.1875000000,7.9375000000,image473.jpg,31568.3386340000
0.5411764979,0.0000000000,5,50.8681028333,-0.0983950000,69.5000000000,6.9375000000,0.7500000000,7.6875000000,image475.jpg,31703.9959260000
0.5803921819,4.0000000000,5,50.8681030000,-0.0983955000,69.5000000000,7.8750000000,0.6250000000,8.1875000000,image476.jpg,31772.3085300000
0.5803921819,12.0000000000,5,50.8681031667,-0.0983963333,69.5000000000,7.9375000000,1.5000000000,7.8750000000,image478.jpg,31903.2999880000
0.5803921819,0.0000000000,5,50.8681033333,-0.0983966667,69.6000000000,6.3125000000,1.6250000000,7.8125000000,image479.jpg,31972.0332690000
0.5882353187,8.0000000000,5,50.8681036667,-0.0983971667,69.6000000000,5.6875000000,1.0000000000,7.5000000000,image481.jpg,32103.7675920000
0.5647059083,9.0000000000,5,50.8681040000,-0.0983978333,69.6000000000,5.9375000000,0.0000000000,7.7500000000,image482.jpg,32172.6395710000
0.5568627715,0.0000000000,5,50.8681041667,-0.0983983333,69.6000000000,6.3125000000,0.6250000000,8.8750000000,image484.jpg,32303.9855610000
0.5960784554,7.0000000000,5,50.8681045000,-0.0983988333,69.6000000000,6.0000000000,0.5000000000,9.0625000000,image485.jpg,32372.3839460000
0.5960784554,16.0000000000,5,50.8681046667,-0.0983996667,69.6000000000,5.6875000000,1.5625000000,9.2500000000,image487.jpg,32505.2778520000
0.5960784554,13.0000000000,5,50.8681048333,-0.0984001667,69.6000000000,5.6875000000,2.1875000000,9.5000000000,image488.jpg,32572.3106130000
0.5960784554,9.0000000000,5,50.8681051667,-0.0984006667,69.6000000000,9.9375000000,3.6875000000,9.6250000000,image490.jpg,32704.7498310000
0.6039215922,13.0000000000,5,50.8681053333,-0.0984013333,69.5000000000,12.5000000000,3.3125000000,9.4375000000,image491.jpg,32772.1306650000
0.5568627715,2.0000000000,5,50.8681053333,-0.0984018333,69.5000000000,12.4375000000,4.0625000000,10.0000000000,image493.jpg,32904.8959250000
0.5882353187,4.0000000000,5,50.8681053333,-0.0984021667,69.5000000000,11.3125000000,3.5625000000,10.0000000000,image494.jpg,32972.3775400000
0.5882353187,15.0000000000,5,50.8681056667,-0.0984026667,69.5000000000,9.7500000000,3.0625000000,10.3750000000,image496.jpg,33104.8999880000
0.5882353187,15.0000000000,5,50.8681060000,-0.0984035000,69.5000000000,7.2500000000,2.5625000000,10.0625000000,image497.jpg,33172.5438940000
0.6117647290,7.0000000000,5,50.8681063333,-0.0984041667,69.5000000000,4.5625000000,1.6250000000,12.0625000000,image499.jpg,33303.5636330000
0.5803921819,16.0000000000,5,50.8681066667,-0.0984045000,69.5000000000,5.7500000000,0.1250000000,12.8750000000,image500.jpg,33372.3092060000
0.5960784554,13.0000000000,5,50.8681068333,-0.0984051667,69.6000000000,8.6250000000,0.2500000000,15.2500000000,image502.jpg,33508.8905080000
0.6039215922,14.0000000000,5,50.8681070000,-0.0984056667,69.6000000000,9.2500000000,-0.3125000000,15.0625000000,image503.jpg,33572.5878000000
0.6039215922,8.0000000000,5,50.8681070000,-0.0984065000,69.6000000000,8.9375000000,2.7500000000,15.1250000000,image505.jpg,33707.9507690000
0.6039215922,11.0000000000,5,50.8681071667,-0.0984066667,69.6000000000,8.4375000000,3.9375000000,14.8750000000,image506.jpg,33772.2133210000
0.6117647290,6.0000000000,5,50.8681073333,-0.0984070000,69.6000000000,6.7500000000,3.6250000000,15.0000000000,image508.jpg,33904.8792580000
0.6196078658,10.0000000000,5,50.8681076667,-0.0984076667,69.6000000000,6.8750000000,2.7500000000,14.6875000000,image509.jpg,33972.4213410000
0.5490196347,5.0000000000,5,50.8681081667,-0.0984083333,69.6000000000,6.3125000000,1.0625000000,15.5000000000,image511.jpg,34107.8792060000
0.6039215922,9.0000000000,5,50.8681085000,-0.0984088333,69.6000000000,6.5000000000,2.0625000000,15.7500000000,image512.jpg,34172.6726950000
0.6039215922,4.0000000000,5,50.8681085000,-0.0984096667,69.6000000000,6.5000000000,3.2500000000,17.0000000000,image514.jpg,34309.3682680000
0.6039215922,9.0000000000,5,50.8681086667,-0.0984101667,69.6000000000,6.4375000000,2.0000000000,16.6250000000,image515.jpg,34374.8797270000
0.6196078658,6.0000000000,5,50.8681090000,-0.0984108333,69.6000000000,6.8125000000,1.8125000000,17.1250000000,image517.jpg,34508.6820180000
0.5568627715,7.0000000000,5,50.8681090000,-0.0984111667,69.6000000000,6.0625000000,1.5625000000,17.3125000000,image518.jpg,34572.4272270000
0.6039215922,-1.0000000000,5,50.8681091667,-0.0984116667,69.6000000000,5.3125000000,3.5625000000,18.9375000000,image520.jpg,34708.5916010000
0.6039215922,-1.0000000000,5,50.8681093333,-0.0984123333,69.6000000000,6.7500000000,5.5625000000,19.0000000000,image521.jpg,34774.4991540000
0.6039215922,-2.0000000000,5,50.8681096667,-0.0984126667,69.5000000000,8.5000000000,4.8125000000,18.5000000000,image523.jpg,34908.9442580000
0.6039215922,0.0000000000,5,50.8681100000,-0.0984135000,69.5000000000,7.6250000000,4.4375000000,17.6875000000,image524.jpg,34976.4971740000
0.6274510026,0.0000000000,5,50.8681103333,-0.0984138333,69.5000000000,4.8125000000,4.6875000000,17.6875000000,image526.jpg,35110.6033200000
0.6196078658,0.0000000000,5,50.8681106667,-0.0984143333,69.5000000000,5.1250000000,4.1250000000,17.6250000000,image527.jpg,35180.1809760000
0.5647059083,2.0000000000,5,50.8681110000,-0.0984148333,69.4000000000,7.1250000000,4.8125000000,17.3750000000,image529.jpg,35308.1922780000
0.6117647290,1.0000000000,5,50.8681111667,-0.0984153333,69.4000000000,6.8750000000,3.9375000000,16.8750000000,image530.jpg,35379.2961850000
0.6117647290,1.0000000000,5,50.8681113333,-0.0984161667,69.4000000000,5.5625000000,2.5000000000,17.2500000000,image532.jpg,35507.2277470000
0.6117647290,3.0000000000,5,50.8681118333,-0.0984165000,69.4000000000,6.3750000000,2.5000000000,17.3750000000,image533.jpg,35576.3350910000
0.6117647290,10.0000000000,5,50.8681120000,-0.0984171667,69.4000000000,6.3750000000,1.5000000000,16.8750000000,image535.jpg,35708.1100390000
0.5176470876,3.0000000000,5,50.8681123333,-0.0984178333,69.4000000000,4.5625000000,2.1250000000,16.8125000000,image536.jpg,35776.7584760000
0.6117647290,1.0000000000,5,50.8681126667,-0.0984181667,69.4000000000,4.8750000000,2.5000000000,17.2500000000,image538.jpg,35907.9561840000
0.6117647290,6.0000000000,5,50.8681128333,-0.0984190000,69.4000000000,4.5000000000,2.0000000000,17.3125000000,image539.jpg,35976.1948820000
0.6117647290,12.0000000000,5,50.8681130000,-0.0984193333,69.4000000000,2.7500000000,3.8750000000,17.1250000000,image541.jpg,36108.9203510000
0.6039215922,8.0000000000,5,50.8681131667,-0.0984198333,69.4000000000,2.3125000000,4.5000000000,17.5000000000,image542.jpg,36177.5720700000
0.6117647290,0.0000000000,5,50.8681133333,-0.0984203333,69.4000000000,5.7500000000,4.5000000000,18.3750000000,image544.jpg,36308.7620700000
0.6117647290,3.0000000000,5,50.8681135000,-0.0984210000,69.4000000000,5.8125000000,4.3750000000,17.7500000000,image545.jpg,36376.2041530000
0.5803921819,11.0000000000,5,50.8681136667,-0.0984218333,69.4000000000,3.7500000000,4.8125000000,17.9375000000,image547.jpg,36509.0001950000
0.6117647290,6.0000000000,5,50.8681140000,-0.0984220000,69.4000000000,4.1250000000,4.6875000000,18.1875000000,image548.jpg,36576.0079030000
0.6196078658,2.0000000000,5,50.8681143333,-0.0984225000,69.4000000000,3.5625000000,3.6250000000,18.4375000000,image550.jpg,36707.9921220000
0.6352941394,8.0000000000,5,50.8681146667,-0.0984231667,69.4000000000,4.0625000000,1.7500000000,18.4375000000,image551.jpg,36776.2722260000
0.6196078658,15.0000000000,5,50.8681151667,-0.0984236667,69.4000000000,5.1250000000,2.2500000000,18.3125000000,image553.jpg,36909.1776940000
0.5803921819,4.0000000000,5,50.8681153333,-0.0984241667,69.4000000000,5.2500000000,2.5625000000,18.8750000000,image554.jpg,36979.2565490000
0.6039215922,12.0000000000,5,50.8681156667,-0.0984248333,69.4000000000,6.6250000000,3.7500000000,19.8750000000,image555.jpg,37045.3506110000
0.6117647290,21.0000000000,5,50.8681160000,-0.0984253333,69.5000000000,6.7500000000,3.3125000000,19.2500000000,image557.jpg,37177.1867050000
0.5803921819,25.0000000000,5,50.8681163333,-0.0984255000,69.5000000000,5.3125000000,5.1250000000,19.8125000000,image559.jpg,37307.9013400000
0.6196078658,27.0000000000,5,50.8681165000,-0.0984260000,69.4000000000,5.8750000000,6.0000000000,20.5625000000,image560.jpg,37377.8567050000
0.6039215922,27.0000000000,5,50.8681166667,-0.0984265000,69.4000000000,8.1250000000,5.9375000000,23.4375000000,image562.jpg,37511.9424340000
0.5725490451,28.0000000000,5,50.8681170000,-0.0984270000,69.4000000000,7.1250000000,6.1250000000,24.5000000000,image563.jpg,37577.3000380000
0.5725490451,29.0000000000,5,50.8681173333,-0.0984271667,69.5000000000,7.4375000000,6.9375000000,25.5625000000,image565.jpg,37712.5654020000
0.5725490451,29.0000000000,5,50.8681176667,-0.0984275000,69.5000000000,7.0625000000,7.5000000000,25.0625000000,image566.jpg,37776.5070170000
0.6196078658,29.0000000000,5,50.8681180000,-0.0984278333,69.4000000000,7.0000000000,8.6250000000,27.8750000000,image568.jpg,37911.7355070000
0.6039215922,29.0000000000,5,50.8681180000,-0.0984278333,69.4000000000,8.4375000000,8.2500000000,29.4375000000,image569.jpg,37976.0163920000
0.6196078658,26.0000000000,5,50.8681181667,-0.0984281667,69.4000000000,8.1250000000,9.1250000000,30.3125000000,image571.jpg,38111.8417040000
0.6117647290,12.0000000000,5,50.8681185000,-0.0984285000,69.4000000000,7.5000000000,9.4375000000,31.1875000000,image572.jpg,38176.4562880000
0.6274510026,1.0000000000,5,50.8681188333,-0.0984286667,69.4000000000,7.0000000000,8.5000000000,34.3125000000,image574.jpg,38311.5047250000
0.6274510026,-1.0000000000,5,50.8681191667,-0.0984290000,69.4000000000,7.0625000000,7.8750000000,34.8750000000,image575.jpg,38377.1916520000
0.6039215922,-6.0000000000,5,50.8681195000,-0.0984296667,69.4000000000,8.3125000000,5.6250000000,33.6250000000,image577.jpg,38512.4664440000
0.6274510026,-7.0000000000,5,50.8681198333,-0.0984301667,69.4000000000,6.6250000000,5.8750000000,33.0625000000,image578.jpg,38577.2564440000
0.6274510026,-3.0000000000,5,50.8681201667,-0.0984303333,69.4000000000,4.5000000000,5.1875000000,33.0000000000,image580.jpg,38711.4533710000
0.5960784554,0.0000000000,5,50.8681205000,-0.0984306667,69.4000000000,4.5625000000,5.7500000000,32.6875000000,image581.jpg,38780.6141000000
0.6274510026,2.0000000000,5,50.8681206667,-0.0984310000,69.4000000000,5.2500000000,4.5000000000,32.0000000000,image583.jpg,38911.8886830000
0.5960784554,1.0000000000,5,50.8681210000,-0.0984315000,69.5000000000,5.1875000000,5.0625000000,32.3750000000,image584.jpg,38981.5418080000
0.6431372762,0.0000000000,5,50.8681213333,-0.0984316667,69.5000000000,4.2500000000,4.5000000000,32.0625000000,image585.jpg,39049.0825370000
0.6274510026,2.0000000000,5,50.8681220000,-0.0984320000,69.5000000000,4.8750000000,3.8750000000,32.1875000000,image587.jpg,39181.6211310000
0.6274510026,-4.0000000000,5,50.8681221667,-0.0984326667,69.5000000000,5.7500000000,4.1250000000,32.1250000000,image589.jpg,39311.8449330000
0.6274510026,-4.0000000000,5,50.8681223333,-0.0984331667,69.5000000000,5.1250000000,4.2500000000,32.0000000000,image590.jpg,39381.1523810000
0.6274510026,-8.0000000000,5,50.8681226667,-0.0984335000,69.5000000000,5.4375000000,4.0000000000,31.9375000000,image592.jpg,39511.8819640000
0.6274510026,-9.0000000000,5,50.8681230000,-0.0984340000,69.4000000000,5.9375000000,4.1250000000,31.1875000000,image593.jpg,39581.1372250000
0.5411764979,-11.0000000000,5,50.8681233333,-0.0984345000,69.5000000000,6.6250000000,3.8125000000,30.3125000000,image595.jpg,39712.0421200000
0.6274510026,-12.0000000000,5,50.8681235000,-0.0984350000,69.5000000000,7.3750000000,4.8750000000,29.6875000000,image596.jpg,39780.4486830000
0.6274510026,-6.0000000000,5,50.8681238333,-0.0984353333,69.4000000000,7.0000000000,5.6875000000,28.5625000000,image598.jpg,39912.1886310000
0.5725490451,-5.0000000000,5,50.8681241667,-0.0984356667,69.4000000000,6.9375000000,5.7500000000,27.9375000000,image599.jpg,39980.1034740000
0.6274510026,-1.0000000000,5,50.8681246667,-0.0984363333,69.4000000000,6.2500000000,5.5000000000,26.9375000000,image600.jpg,40048.7643600000
0.5803921819,1.0000000000,5,50.8681250000,-0.0984368333,69.4000000000,4.4375000000,6.6250000000,26.4375000000,image602.jpg,40180.5729010000
0.6352941394,0.0000000000,5,50.8681251667,-0.0984371667,69.4000000000,3.3125000000,7.0000000000,27.0000000000,image603.jpg,40248.8329540000
0.6274510026,1.0000000000,5,50.8681253333,-0.0984375000,69.4000000000,2.8125000000,7.1875000000,27.3750000000,image605.jpg,40380.0705580000
0.6274510026,0.0000000000,5,50.8681255000,-0.0984380000,69.4000000000,4.9375000000,5.1875000000,26.8125000000,image607.jpg,40512.9720160000
0.6274510026,1.0000000000,5,50.8681260000,-0.0984386667,69.4000000000,5.0625000000,4.5625000000,26.3750000000,image608.jpg,40580.3484740000
0.6274510026,0.0000000000,5,50.8681265000,-0.0984391667,69.4000000000,3.6875000000,4.3125000000,26.3125000000,image609.jpg,40649.2409220000
0.6509804130,0.0000000000,5,50.8681270000,-0.0984395000,69.4000000000,4.1875000000,3.8125000000,26.8750000000,image611.jpg,40780.9071200000
0.6352941394,1.0000000000,5,50.8681271667,-0.0984400000,69.4000000000,5.5625000000,1.6250000000,25.8125000000,image612.jpg,40849.5048280000
0.6352941394,0.0000000000,5,50.8681275000,-0.0984408333,69.4000000000,4.9375000000,1.1250000000,24.8125000000,image614.jpg,40980.1924320000
0.6352941394,0.0000000000,5,50.8681276667,-0.0984411667,69.4000000000,5.3125000000,2.1250000000,24.9375000000,image616.jpg,41113.1566510000
0.5803921819,2.0000000000,2,50.8681280000,-0.0984415000,69.4000000000,4.9375000000,3.1250000000,25.3750000000,image617.jpg,41180.5126930000
0.6274510026,1.0000000000,2,50.8681280000,-0.0984418333,69.4000000000,4.1875000000,2.9375000000,25.1875000000,image618.jpg,41249.1328490000
0.5411764979,12.0000000000,2,50.8681286667,-0.0984423333,69.4000000000,5.3750000000,1.8125000000,25.1875000000,image620.jpg,41380.4985260000
0.6274510026,16.0000000000,2,50.8681288333,-0.0984430000,69.4000000000,5.8125000000,3.1875000000,27.1875000000,image622.jpg,41516.7809740000
0.6274510026,11.0000000000,2,50.8681291667,-0.0984435000,69.4000000000,6.8125000000,2.7500000000,26.8750000000,image623.jpg,41581.1383700000
0.5411764979,4.0000000000,2,50.8681296667,-0.0984440000,69.4000000000,5.0625000000,3.1875000000,26.9375000000,image624.jpg,41649.3165470000
0.6274510026,0.0000000000,2,50.8681300000,-0.0984441667,69.4000000000,5.7500000000,2.5000000000,28.4375000000,image626.jpg,41779.2636300000
0.6352941394,1.0000000000,5,50.8681300000,-0.0984446667,69.4000000000,4.1875000000,1.9375000000,27.5000000000,image628.jpg,41919.4611820000
0.6274510026,0.0000000000,5,50.8681303333,-0.0984450000,69.4000000000,3.3125000000,2.3750000000,27.5000000000,image629.jpg,41979.1768590000
0.5411764979,1.0000000000,5,50.8681305000,-0.0984451667,69.4000000000,5.1875000000,3.5000000000,28.0000000000,image631.jpg,42115.0583700000
0.6274510026,0.0000000000,5,50.8681305000,-0.0984456667,69.5000000000,5.3125000000,2.9375000000,27.5000000000,image632.jpg,42180.5250360000
0.6352941394,-1.0000000000,5,50.8681308333,-0.0984461667,69.5000000000,3.5000000000,2.6250000000,27.0625000000,image634.jpg,42316.1440470000
0.5960784554,-2.0000000000,5,50.8681311667,-0.0984466667,69.5000000000,2.4375000000,2.8125000000,26.8125000000,image635.jpg,42380.6881090000
0.6509804130,-4.0000000000,5,50.8681316667,-0.0984473333,69.5000000000,0.3750000000,3.9375000000,26.5000000000,image637.jpg,42516.6627440000
0.5960784554,-3.0000000000,5,50.8681320000,-0.0984475000,69.5000000000,0.0000000000,3.3750000000,26.5625000000,image638.jpg,42580.7701400000
0.6352941394,0.0000000000,5,50.8681323333,-0.0984480000,69.4000000000,1.0000000000,3.1250000000,26.3125000000,image639.jpg,42648.4499840000
0.6352941394,0.0000000000,5,50.8681326667,-0.0984488333,69.4000000000,3.3750000000,2.3125000000,25.0625000000,image641.jpg,42784.3121710000
