speed,steering angle,gps quality,lat,lon,altitude,roll,pitch,yaw,image name,timestamp
0.0392156877,0.0000000000,5,50.8680646667,-0.0982328333,69.1000000000,5.8125000000,-5.3750000000,359.9375000000,image0.jpg,8.4336980000
0.0392156877,0.0000000000,5,50.8680650000,-0.0982325000,69.0000000000,5.8125000000,-5.3750000000,359.9375000000,image1.jpg,70.4353130000
0.0313725509,0.0000000000,5,50.8680650000,-0.0982325000,69.0000000000,5.8125000000,-5.3750000000,359.9375000000,image3.jpg,204.6078650000
0.0392156877,2.0000000000,5,50.8680650000,-0.0982325000,69.0000000000,5.8125000000,-5.3750000000,359.9375000000,image4.jpg,272.0920840000
0.0549019612,0.0000000000,5,50.8680650000,-0.0982325000,69.0000000000,5.8125000000,-5.3750000000,359.9375000000,image6.jpg,403.6617710000
0.0549019612,0.0000000000,5,50.8680650000,-0.0982325000,69.0000000000,5.8125000000,-5.3750000000,359.9375000000,image7.jpg,472.1648960000
0.0078431377,0.0000000000,5,50.8680650000,-0.0982323333,69.0000000000,5.8125000000,-5.3750000000,359.9375000000,image9.jpg,603.7850520000
0.0392156877,0.0000000000,5,50.8680650000,-0.0982323333,69.0000000000,5.8125000000,-5.3750000000,359.9375000000,image10.jpg,672.0299480000
0.0392156877,0.0000000000,5,50.8680650000,-0.0982323333,69.0000000000,5.8125000000,-5.3750000000,359.9375000000,image12.jpg,803.7546870000
0.0392156877,0.0000000000,5,50.8680650000,-0.0982323333,69.0000000000,5.8125000000,-5.3750000000,359.9375000000,image13.jpg,873.4096870000
0.0470588244,2.0000000000,5,50.8680651667,-0.0982325000,69.0000000000,5.8125000000,-5.3750000000,359.9375000000,image15.jpg,1004.6716140000
0.0156862754,0.0000000000,5,50.8680650000,-0.0982325000,69.0000000000,5.8125000000,-5.3750000000,359.9375000000,image16.jpg,1073.4579170000
0.0392156877,0.0000000000,5,50.8680650000,-0.0982325000,69.0000000000,5.8125000000,-5.3750000000,359.9375000000,image18.jpg,1204.6191660000
0.0392156877,0.0000000000,5,50.8680650000,-0.0982323333,69.0000000000,5.8125000000,-5.3750000000,359.9375000000,image19.jpg,1273.1075520000
0.0392156877,0.0000000000,5,50.8680650000,-0.0982325000,69.0000000000,5.8125000000,-5.3750000000,359.9375000000,image21.jpg,1404.7090100000
0.0392156877,1.0000000000,5,50.8680651667,-0.0982325000,69.0000000000,5.8125000000,-5.3750000000,359.9375000000,image22.jpg,1473.1171350000
0.1490196139,0.0000000000,5,50.8680651667,-0.0982323333,69.0000000000,5.8125000000,-5.3750000000,359.9375000000,image24.jpg,1604.6914060000
0.2274509817,0.0000000000,5,50.8680651667,-0.0982325000,69.0000000000,5.8125000000,-5.3750000000,359.9375000000,image25.jpg,1672.2153640000
0.0862745121,0.0000000000,5,50.8680651667,-0.0982323333,69.0000000000,5.6875000000,-5.5625000000,359.9375000000,image27.jpg,1803.8333850000
0.1254902035,0.0000000000,5,50.8680653333,-0.0982325000,69.0000000000,5.5000000000,-5.7500000000,359.7500000000,image28.jpg,1871.9686450000
0.1568627506,0.0000000000,5,50.8680653333,-0.0982325000,69.0000000000,5.3750000000,-5.9375000000,359.8125000000,image30.jpg,2003.6393220000
0.2274509817,0.0000000000,5,50.8680653333,-0.0982325000,69.0000000000,5.3125000000,-5.9375000000,359.8125000000,image31.jpg,2072.5325520000
0.3215686381,1.0000000000,5,50.8680653333,-0.0982325000,69.0000000000,5.0000000000,-6.2500000000,359.6875000000,image33.jpg,2204.0532810000
0.2745098174,0.0000000000,5,50.8680653333,-0.0982325000,69.0000000000,4.7500000000,-6.3750000000,359.6875000000,image34.jpg,2272.0328640000
0.3215686381,0.0000000000,5,50.8680655000,-0.0982328333,69.1000000000,5.6250000000,-6.4375000000,359.0625000000,image36.jpg,2404.6323430000
0.3215686381,0.0000000000,5,50.8680655000,-0.0982336667,69.0000000000,5.1250000000,-5.6250000000,358.8125000000,image37.jpg,2470.9282280000
0.3294117749,0.0000000000,5,50.8680656667,-0.0982343333,69.0000000000,9.2500000000,-4.5000000000,359.6250000000,image39.jpg,2604.8093220000
0.3294117749,1.0000000000,5,50.8680656667,-0.0982346667,69.0000000000,11.1875000000,-5.6250000000,358.5625000000,image40.jpg,2672.3664060000
0.3294117749,0.0000000000,5,50.8680658333,-0.0982351667,69.0000000000,8.1875000000,-3.7500000000,358.0625000000,image42.jpg,2804.9134890000
0.3215686381,0.0000000000,5,50.8680660000,-0.0982358333,69.0000000000,6.0625000000,-4.6250000000,357.3750000000,image43.jpg,2872.7947910000
0.2588235438,0.0000000000,5,50.8680665000,-0.0982363333,69.1000000000,5.7500000000,-3.5000000000,357.0000000000,image45.jpg,3008.4812490000
0.3215686381,0.0000000000,5,50.8680663333,-0.0982370000,69.1000000000,6.3750000000,-3.0000000000,357.1250000000,image46.jpg,3072.3209370000
0.3215686381,0.0000000000,5,50.8680663333,-0.0982375000,69.1000000000,8.3750000000,-1.6875000000,358.1250000000,image48.jpg,3208.8069780000
0.3294117749,1.0000000000,5,50.8680665000,-0.0982380000,69.0000000000,9.5625000000,-0.5000000000,358.1250000000,image49.jpg,3272.2771340000
0.3058823645,-7.0000000000,5,50.8680666667,-0.0982386667,69.0000000000,10.2500000000,-0.7500000000,358.0000000000,image51.jpg,3408.2648430000
0.2196078449,-7.0000000000,5,50.8680666667,-0.0982391667,69.0000000000,8.5625000000,-2.0000000000,357.8125000000,image52.jpg,3472.1388530000
0.3137255013,-8.0000000000,5,50.8680665000,-0.0982396667,69.1000000000,1.6250000000,-2.6875000000,357.9375000000,image54.jpg,3607.8175510000
0.3137255013,-1.0000000000,5,50.8680668333,-0.0982405000,69.0000000000,-0.3750000000,-4.5000000000,358.4375000000,image55.jpg,3675.4260410000
0.3137255013,2.0000000000,5,50.8680668333,-0.0982415000,69.0000000000,2.0000000000,-5.0000000000,358.3750000000,image56.jpg,3742.6417180000
0.3294117749,7.0000000000,5,50.8680666667,-0.0982426667,69.0000000000,7.0000000000,-3.8750000000,357.7500000000,image58.jpg,3875.0289050000
0.3137255013,12.0000000000,5,50.8680665000,-0.0982433333,69.0000000000,5.0000000000,-2.3125000000,358.1250000000,image60.jpg,4011.1501030000
0.3215686381,13.0000000000,5,50.8680666667,-0.0982435000,69.0000000000,4.3750000000,-2.2500000000,358.5000000000,image61.jpg,4076.0809360000
0.3294117749,12.0000000000,5,50.8680666667,-0.0982436667,69.0000000000,4.9375000000,-2.1250000000,359.5625000000,image63.jpg,4211.1215610000
0.3686274588,8.0000000000,5,50.8680665000,-0.0982441667,69.0000000000,6.2500000000,-1.6250000000,359.6250000000,image64.jpg,4275.7746340000
0.3686274588,0.0000000000,5,50.8680665000,-0.0982448333,69.0000000000,7.3125000000,0.5625000000,0.0625000000,image66.jpg,4408.3544780000
0.3843137324,1.0000000000,5,50.8680668333,-0.0982450000,69.0000000000,4.8125000000,1.3750000000,359.3750000000,image67.jpg,4476.9612490000
0.3607843220,3.0000000000,5,50.8680670000,-0.0982455000,69.0000000000,1.3125000000,2.3750000000,0.1250000000,image69.jpg,4608.7220300000
0.3294117749,8.0000000000,5,50.8680671667,-0.0982458333,69.0000000000,1.9375000000,3.5625000000,1.0625000000,image70.jpg,4677.3866130000
0.3686274588,13.0000000000,5,50.8680675000,-0.0982463333,69.0000000000,2.0000000000,2.5625000000,0.3750000000,image72.jpg,4808.7594260000
0.3686274588,17.0000000000,5,50.8680676667,-0.0982471667,69.1000000000,1.8750000000,2.2500000000,0.7500000000,image73.jpg,4877.1820300000
0.3450980484,21.0000000000,5,50.8680676667,-0.0982481667,69.0000000000,4.8125000000,-0.1875000000,2.1250000000,image75.jpg,5008.8143210000
0.3843137324,23.0000000000,5,50.8680680000,-0.0982483333,69.0000000000,6.8125000000,-2.5000000000,3.0000000000,image76.jpg,5076.0639050000
0.3686274588,26.0000000000,5,50.8680683333,-0.0982485000,69.0000000000,4.3750000000,-1.5625000000,4.4375000000,image78.jpg,5208.3121340000
0.3686274588,25.0000000000,5,50.8680685000,-0.0982483333,69.1000000000,4.0625000000,-2.7500000000,5.0000000000,image79.jpg,5280.5582800000
0.3686274588,25.0000000000,5,50.8680686667,-0.0982488333,69.1000000000,3.8750000000,-3.3125000000,4.3750000000,image80.jpg,5339.8788520000
0.3372549117,22.0000000000,5,50.8680691667,-0.0982491667,69.1000000000,1.1875000000,-3.0000000000,6.5000000000,image82.jpg,5476.3738520000
0.3921568692,24.0000000000,5,50.8680693333,-0.0982496667,69.1000000000,1.5625000000,-2.5000000000,9.3125000000,image84.jpg,5607.7730710000
0.3686274588,27.0000000000,5,50.8680696667,-0.0982505000,69.1000000000,3.1250000000,-1.5625000000,11.0000000000,image85.jpg,5677.0265090000
0.3372549117,25.0000000000,5,50.8680698333,-0.0982508333,69.1000000000,5.8750000000,-1.0000000000,12.3125000000,image86.jpg,5743.6386960000
0.3686274588,25.0000000000,5,50.8680700000,-0.0982513333,69.1000000000,7.9375000000,-0.3125000000,13.4375000000,image88.jpg,5877.0364040000
0.3686274588,24.0000000000,5,50.8680703333,-0.0982520000,69.1000000000,6.5625000000,0.0000000000,13.7500000000,image89.jpg,5943.8471330000
0.3686274588,23.0000000000,5,50.8680705000,-0.0982520000,69.1000000000,6.5625000000,1.7500000000,14.5625000000,image91.jpg,6075.9964560000
0.3529411852,21.0000000000,5,50.8680706667,-0.0982523333,69.1000000000,3.6250000000,2.2500000000,16.0625000000,image93.jpg,6209.1125500000
0.3686274588,18.0000000000,5,50.8680711667,-0.0982526667,69.1000000000,3.6250000000,1.5000000000,17.4375000000,image94.jpg,6275.5562480000
0.3686274588,4.0000000000,5,50.8680715000,-0.0982531667,69.1000000000,6.6250000000,0.3750000000,19.9375000000,image96.jpg,6407.7332790000
0.3372549117,1.0000000000,5,50.8680718333,-0.0982536667,69.1000000000,8.0000000000,1.5625000000,20.6250000000,image97.jpg,6477.4763520000
0.3686274588,0.0000000000,5,50.8680720000,-0.0982543333,69.1000000000,8.1250000000,3.8125000000,21.5625000000,image98.jpg,6543.9657270000
0.3529411852,2.0000000000,5,50.8680723333,-0.0982546667,69.1000000000,8.7500000000,5.0625000000,21.5000000000,image100.jpg,6676.3977580000
0.3843137324,0.0000000000,5,50.8680723333,-0.0982550000,69.1000000000,8.5000000000,4.7500000000,20.9375000000,image101.jpg,6745.0183830000
0.3764705956,2.0000000000,5,50.8680725000,-0.0982555000,69.1000000000,6.6875000000,2.0000000000,21.0000000000,image103.jpg,6876.4735390000
0.3764705956,0.0000000000,5,50.8680728333,-0.0982560000,69.1000000000,6.1250000000,2.0625000000,20.3125000000,image105.jpg,7011.7385910000
0.3686274588,3.0000000000,5,50.8680730000,-0.0982565000,69.1000000000,6.1875000000,2.1250000000,20.5000000000,image106.jpg,7076.9225500000
0.3764705956,3.0000000000,5,50.8680731667,-0.0982570000,69.1000000000,7.2500000000,3.7500000000,20.5625000000,image107.jpg,7144.2298410000
0.3921568692,7.0000000000,5,50.8680733333,-0.0982573333,69.1000000000,6.8750000000,1.9375000000,20.6250000000,image109.jpg,7276.6024970000
0.3921568692,11.0000000000,5,50.8680740000,-0.0982581667,69.1000000000,6.6875000000,0.9375000000,20.5625000000,image110.jpg,7343.9228620000
0.3764705956,14.0000000000,5,50.8680743333,-0.0982588333,69.1000000000,10.0625000000,0.5000000000,20.7500000000,image112.jpg,7476.0873930000
0.3764705956,15.0000000000,5,50.8680745000,-0.0982595000,69.1000000000,10.8750000000,2.0000000000,20.7500000000,image113.jpg,7543.5587990000
0.3294117749,15.0000000000,5,50.8680746667,-0.0982600000,69.1000000000,7.9375000000,2.6875000000,21.8125000000,image115.jpg,7675.9879660000
0.3764705956,14.0000000000,5,50.8680750000,-0.0982601667,69.1000000000,7.3125000000,2.5625000000,23.0625000000,image116.jpg,7743.2283310000
0.3372549117,0.0000000000,5,50.8680751667,-0.0982608333,69.1000000000,6.6875000000,2.0000000000,22.9375000000,image118.jpg,7876.5170290000
0.3764705956,-9.0000000000,5,50.8680755000,-0.0982615000,69.1000000000,7.6250000000,2.1250000000,23.7500000000,image120.jpg,8011.0529660000
0.3764705956,-11.0000000000,5,50.8680758333,-0.0982623333,69.1000000000,9.8125000000,2.5000000000,23.8125000000,image121.jpg,8075.0608830000
0.3764705956,-10.0000000000,5,50.8680760000,-0.0982630000,69.1000000000,11.0625000000,-0.1250000000,22.3750000000,image123.jpg,8212.8054660000
0.3764705956,1.0000000000,5,50.8680765000,-0.0982636667,69.1000000000,7.2500000000,-0.6250000000,20.7500000000,image124.jpg,8276.5872890000
0.3843137324,1.0000000000,5,50.8680768333,-0.0982645000,69.1000000000,6.3125000000,-1.1250000000,20.4375000000,image125.jpg,8343.9346850000
0.3921568692,0.0000000000,5,50.8680771667,-0.0982650000,69.1000000000,6.0625000000,0.1250000000,19.4375000000,image127.jpg,8479.2210390000
0.3921568692,1.0000000000,5,50.8680775000,-0.0982655000,69.1000000000,5.8750000000,0.0000000000,20.2500000000,image128.jpg,8544.2098930000
0.3843137324,0.0000000000,5,50.8680778333,-0.0982661667,69.1000000000,7.4375000000,0.3125000000,19.8750000000,image130.jpg,8680.3789550000
0.3843137324,0.0000000000,5,50.8680778333,-0.0982670000,69.1000000000,7.3750000000,1.2500000000,20.3125000000,image132.jpg,8811.7480180000
0.3294117749,2.0000000000,5,50.8680781667,-0.0982675000,69.1000000000,5.1875000000,2.0625000000,19.6250000000,image133.jpg,8880.3664550000
0.4000000060,2.0000000000,5,50.8680785000,-0.0982681667,69.1000000000,4.6875000000,3.5000000000,20.5000000000,image135.jpg,9011.9431220000
0.2980392277,3.0000000000,5,50.8680788333,-0.0982685000,69.1000000000,5.9375000000,4.2500000000,20.3750000000,image136.jpg,9079.1140070000
0.3843137324,7.0000000000,5,50.8680790000,-0.0982690000,69.1000000000,8.3750000000,5.2500000000,19.9375000000,image138.jpg,9212.3985380000
0.3921568692,6.0000000000,5,50.8680791667,-0.0982695000,69.1000000000,8.0625000000,5.7500000000,20.1875000000,image139.jpg,9280.0765590000
0.3921568692,0.0000000000,5,50.8680795000,-0.0982700000,69.1000000000,3.4375000000,3.8125000000,20.7500000000,image141.jpg,9412.7653090000
0.3921568692,-2.0000000000,5,50.8680798333,-0.0982703333,69.1000000000,1.1875000000,4.0625000000,21.1875000000,image142.jpg,9480.3456740000
0.4078431427,-8.0000000000,5,50.8680805000,-0.0982710000,69.1000000000,0.8125000000,4.9375000000,20.6875000000,image143.jpg,9544.0458300000
0.4000000060,-21.0000000000,5,50.8680806667,-0.0982716667,69.1000000000,0.3750000000,3.5000000000,20.1250000000,image145.jpg,9679.8316110000
0.4000000060,-25.0000000000,5,50.8680808333,-0.0982723333,69.1000000000,1.2500000000,3.5625000000,20.4375000000,image146.jpg,9748.3278610000
0.4000000060,-29.0000000000,5,50.8680811667,-0.0982728333,69.1000000000,5.5625000000,4.3750000000,19.3125000000,image148.jpg,9879.6159860000
0.4000000060,-26.0000000000,5,50.8680811667,-0.0982733333,69.1000000000,5.0000000000,4.2500000000,17.5625000000,image149.jpg,9947.9064030000
0.3686274588,-13.0000000000,5,50.8680815000,-0.0982740000,69.1000000000,2.2500000000,2.1875000000,13.3125000000,image151.jpg,10080.5145280000
0.4235294163,-10.0000000000,5,50.8680818333,-0.0982746667,69.1000000000,2.3125000000,0.7500000000,12.0000000000,image152.jpg,10148.4511940000
0.3686274588,-6.0000000000,5,50.8680818333,-0.0982755000,69.1000000000,4.5625000000,1.8750000000,9.6250000000,image154.jpg,10285.1140590000
0.4078431427,0.0000000000,5,50.8680820000,-0.0982760000,69.1000000000,3.0625000000,2.1875000000,9.0000000000,image155.jpg,10349.3922360000
0.4078431427,0.0000000000,5,50.8680823333,-0.0982765000,69.1000000000,3.8125000000,2.1250000000,10.5000000000,image157.jpg,10480.5572360000
0.3686274588,0.0000000000,5,50.8680823333,-0.0982771667,69.1000000000,7.5000000000,2.6875000000,10.4375000000,image158.jpg,10548.9276530000
0.4235294163,-11.0000000000,5,50.8680823333,-0.0982778333,69.1000000000,7.8125000000,4.3125000000,9.8750000000,image160.jpg,10680.1871840000
0.4235294163,-15.0000000000,5,50.8680826667,-0.0982781667,69.1000000000,8.1875000000,5.2500000000,10.1250000000,image161.jpg,10749.0055170000
0.3764705956,-18.0000000000,5,50.8680825000,-0.0982785000,69.1000000000,10.8125000000,6.8125000000,9.1250000000,image163.jpg,10880.6647360000
0.4078431427,-16.0000000000,5,50.8680828333,-0.0982791667,69.1000000000,9.7500000000,6.9375000000,8.3750000000,image164.jpg,10947.7396320000
0.4156862795,-3.0000000000,5,50.8680833333,-0.0982800000,69.1000000000,4.8750000000,4.9375000000,5.5625000000,image166.jpg,11080.3419750000
0.4156862795,-1.0000000000,5,50.8680835000,-0.0982806667,69.1000000000,3.6875000000,2.1250000000,4.6250000000,image167.jpg,11147.1133810000
0.3921568692,2.0000000000,5,50.8680835000,-0.0982816667,69.1000000000,7.3125000000,1.3750000000,5.0000000000,image169.jpg,11279.3115580000
0.3921568692,0.0000000000,5,50.8680835000,-0.0982826667,69.1000000000,7.0625000000,-1.4375000000,5.1875000000,image170.jpg,11348.1524440000
0.3764705956,0.0000000000,5,50.8680840000,-0.0982833333,69.1000000000,8.1875000000,-3.1250000000,5.2500000000,image172.jpg,11480.4813500000
0.4156862795,-4.0000000000,5,50.8680840000,-0.0982841667,69.1000000000,8.9375000000,-2.2500000000,5.5625000000,image173.jpg,11548.5901520000
0.4156862795,-10.0000000000,5,50.8680841667,-0.0982850000,69.1000000000,5.6250000000,-0.5625000000,4.7500000000,image175.jpg,11680.4521310000
0.3764705956,-7.0000000000,5,50.8680843333,-0.0982858333,69.1000000000,6.5625000000,-0.1875000000,4.6875000000,image176.jpg,11748.0029650000
0.4313725531,0.0000000000,5,50.8680843333,-0.0982866667,69.1000000000,9.3750000000,0.4375000000,3.0625000000,image178.jpg,11881.2292670000
0.4156862795,1.0000000000,5,50.8680845000,-0.0982875000,69.1000000000,9.1250000000,0.3750000000,2.5625000000,image179.jpg,11948.6262460000
0.3764705956,11.0000000000,5,50.8680846667,-0.0982883333,69.1000000000,6.3750000000,-1.3125000000,3.2500000000,image181.jpg,12080.9595270000
0.4156862795,13.0000000000,5,50.8680850000,-0.0982891667,69.1000000000,5.9375000000,-1.1875000000,2.6250000000,image182.jpg,12147.4061410000
0.4156862795,5.0000000000,5,50.8680851667,-0.0982896667,69.1000000000,6.6875000000,-0.8125000000,3.3750000000,image184.jpg,12280.4777040000
0.4235294163,0.0000000000,5,50.8680851667,-0.0982908333,69.1000000000,8.0625000000,0.5625000000,5.4375000000,image185.jpg,12347.1584330000
0.4313725531,1.0000000000,5,50.8680853333,-0.0982911667,69.1000000000,9.3125000000,1.3750000000,5.1250000000,image187.jpg,12484.3887460000
0.3843137324,1.0000000000,5,50.8680855000,-0.0982918333,69.1000000000,9.3125000000,1.6875000000,4.6250000000,image188.jpg,12547.0712980000
0.4156862795,-1.0000000000,5,50.8680856667,-0.0982928333,69.1000000000,6.7500000000,1.8750000000,3.5625000000,image190.jpg,12684.0587450000
0.4156862795,-2.0000000000,5,50.8680858333,-0.0982936667,69.1000000000,6.1250000000,1.1875000000,4.3125000000,image191.jpg,12748.3451520000
0.4156862795,0.0000000000,5,50.8680861667,-0.0982941667,69.1000000000,5.0625000000,1.1875000000,4.1250000000,image193.jpg,12884.8664540000
0.4392156899,8.0000000000,5,50.8680863333,-0.0982948333,69.1000000000,5.5625000000,0.8750000000,4.1875000000,image194.jpg,12947.9612970000
0.4156862795,14.0000000000,5,50.8680863333,-0.0982958333,69.1000000000,6.8125000000,-0.0625000000,3.9375000000,image196.jpg,13084.5993180000
0.4156862795,14.0000000000,5,50.8680865000,-0.0982968333,69.1000000000,6.0625000000,0.6875000000,3.8750000000,image197.jpg,13148.2453600000
0.3686274588,1.0000000000,5,50.8680866667,-0.0982973333,69.1000000000,4.3125000000,1.5625000000,5.4375000000,image199.jpg,13283.8287970000
0.4156862795,0.0000000000,5,50.8680870000,-0.0982980000,69.1000000000,6.0625000000,1.5000000000,6.0625000000,image200.jpg,13348.3665580000
0.4235294163,0.0000000000,5,50.8680871667,-0.0982991667,69.1000000000,8.2500000000,1.0625000000,5.9375000000,image202.jpg,13483.6692660000
0.4392156899,0.0000000000,5,50.8680873333,-0.0982996667,69.1000000000,7.0000000000,1.2500000000,5.8125000000,image203.jpg,13548.1707760000
0.4235294163,1.0000000000,5,50.8680878333,-0.0983001667,69.1000000000,8.6250000000,-0.8750000000,6.0625000000,image205.jpg,13684.4735370000
0.3843137324,0.0000000000,5,50.8680876667,-0.0983011667,69.1000000000,8.0000000000,-2.1250000000,5.6250000000,image206.jpg,13752.2860370000
0.4392156899,0.0000000000,5,50.8680880000,-0.0983020000,69.2000000000,5.9375000000,-0.3125000000,5.9375000000,image208.jpg,13884.7023390000
0.4392156899,3.0000000000,5,50.8680883333,-0.0983025000,69.2000000000,7.7500000000,0.3750000000,6.3750000000,image209.jpg,13951.8780680000
0.4549019635,14.0000000000,5,50.8680883333,-0.0983031667,69.2000000000,9.7500000000,-0.6875000000,6.5000000000,image211.jpg,14084.0184840000
0.4627451003,21.0000000000,5,50.8680885000,-0.0983041667,69.2000000000,8.1875000000,1.0000000000,6.1875000000,image212.jpg,14152.3072870000
0.4392156899,13.0000000000,5,50.8680888333,-0.0983050000,69.2000000000,6.9375000000,1.4375000000,8.8125000000,image214.jpg,14285.4183280000
0.4392156899,5.0000000000,5,50.8680890000,-0.0983061667,69.2000000000,7.4375000000,0.3750000000,10.3750000000,image215.jpg,14352.0847860000
0.3921568692,1.0000000000,5,50.8680890000,-0.0983070000,69.2000000000,8.3125000000,-0.5000000000,11.0000000000,image217.jpg,14485.0736410000
0.4392156899,0.0000000000,5,50.8680890000,-0.0983076667,69.2000000000,6.2500000000,-0.0625000000,10.6875000000,image218.jpg,14552.3259840000
0.4627451003,0.0000000000,5,50.8680893333,-0.0983085000,69.2000000000,5.6250000000,0.3125000000,10.0000000000,image220.jpg,14683.2412970000
0.4549019635,1.0000000000,5,50.8680893333,-0.0983093333,69.2000000000,3.3750000000,-1.0000000000,9.8125000000,image221.jpg,14752.0819220000
0.4549019635,0.0000000000,5,50.8680901667,-0.0983103333,69.2000000000,6.8750000000,0.0000000000,11.5000000000,image223.jpg,14883.8070260000
0.3686274588,0.0000000000,5,50.8680903333,-0.0983113333,69.2000000000,8.7500000000,0.0625000000,10.5625000000,image224.jpg,14953.2107760000
0.4549019635,-4.0000000000,5,50.8680901667,-0.0983118333,69.2000000000,4.6875000000,0.2500000000,10.1875000000,image226.jpg,15083.7387450000
0.4549019635,-5.0000000000,5,50.8680906667,-0.0983125000,69.2000000000,3.8125000000,-0.0625000000,10.3125000000,image227.jpg,15152.2388490000
0.4784313738,-2.0000000000,5,50.8680908333,-0.0983131667,69.3000000000,5.2500000000,1.0625000000,8.8125000000,image229.jpg,15287.8350470000
0.4627451003,0.0000000000,5,50.8680910000,-0.0983138333,69.3000000000,5.5000000000,1.0000000000,8.8750000000,image230.jpg,15353.5697860000
0.4627451003,4.0000000000,5,50.8680911667,-0.0983145000,69.3000000000,10.5625000000,1.5000000000,8.8125000000,image232.jpg,15484.7103070000
0.4627451003,6.0000000000,5,50.8680915000,-0.0983155000,69.3000000000,9.5625000000,3.3750000000,7.5000000000,image233.jpg,15553.1897860000
0.4235294163,10.0000000000,5,50.8680920000,-0.0983160000,69.3000000000,6.0625000000,2.4375000000,8.8750000000,image235.jpg,15685.2307230000
0.4627451003,10.0000000000,5,50.8680921667,-0.0983173333,69.3000000000,5.9375000000,2.8125000000,8.8125000000,image236.jpg,15752.2490050000
0.4627451003,16.0000000000,5,50.8680925000,-0.0983181667,69.3000000000,7.3750000000,1.1250000000,10.3125000000,image238.jpg,15884.5082230000
0.4549019635,16.0000000000,5,50.8680928333,-0.0983190000,69.3000000000,8.1875000000,0.5000000000,11.3750000000,image239.jpg,15952.1472340000
0.4470588267,6.0000000000,5,50.8680930000,-0.0983196667,69.3000000000,9.0625000000,-1.8750000000,12.2500000000,image241.jpg,16083.6170250000
0.4156862795,3.0000000000,5,50.8680936667,-0.0983206667,69.3000000000,6.5000000000,-2.5625000000,12.6875000000,image242.jpg,16152.1534840000
0.4549019635,5.0000000000,5,50.8680941667,-0.0983213333,69.3000000000,4.4375000000,-1.6875000000,13.0625000000,image244.jpg,16283.5062960000
0.4705882370,8.0000000000,5,50.8680943333,-0.0983221667,69.3000000000,6.6250000000,-1.2500000000,13.8750000000,image245.jpg,16352.3430670000
0.4235294163,7.0000000000,5,50.8680946667,-0.0983231667,69.3000000000,5.4375000000,1.1250000000,13.7500000000,image247.jpg,16487.8686400000
0.4627451003,6.0000000000,5,50.8680951667,-0.0983240000,69.3000000000,4.3125000000,0.7500000000,14.5000000000,image248.jpg,16553.2997340000
0.4549019635,0.0000000000,5,50.8680953333,-0.0983248333,69.3000000000,3.1250000000,1.3125000000,14.6875000000,image250.jpg,16687.7389520000
0.4235294163,0.0000000000,5,50.8680961667,-0.0983256667,69.3000000000,4.7500000000,2.1250000000,14.9375000000,image251.jpg,16753.6131710000
0.4235294163,-8.0000000000,5,50.8680958333,-0.0983260000,69.3000000000,7.3750000000,1.8750000000,15.2500000000,image253.jpg,16887.7827020000
0.4705882370,-10.0000000000,5,50.8680963333,-0.0983268333,69.3000000000,8.1875000000,0.5000000000,14.0625000000,image254.jpg,16951.3468170000
0.4549019635,-6.0000000000,5,50.8680965000,-0.0983276667,69.3000000000,5.0000000000,5.5000000000,13.6875000000,image256.jpg,17088.2019730000
0.4627451003,-1.0000000000,5,50.8680966667,-0.0983280000,69.3000000000,4.6250000000,4.7500000000,12.9375000000,image257.jpg,17152.1202020000
0.4627451003,-1.0000000000,5,50.8680973333,-0.0983286667,69.3000000000,3.0625000000,2.7500000000,11.9375000000,image259.jpg,17287.7986920000
0.4235294163,-8.0000000000,5,50.8680983333,-0.0983293333,69.3000000000,3.6250000000,1.6250000000,11.5000000000,image260.jpg,17351.2620250000
0.4705882370,-11.0000000000,5,50.8680985000,-0.0983300000,69.3000000000,6.5625000000,4.2500000000,10.7500000000,image262.jpg,17486.9019730000
0.4705882370,-5.0000000000,5,50.8680986667,-0.0983306667,69.3000000000,7.6875000000,1.6250000000,9.5625000000,image263.jpg,17552.1181190000
0.4235294163,0.0000000000,5,50.8680990000,-0.0983315000,69.3000000000,6.1875000000,0.5000000000,8.0625000000,image265.jpg,17687.8816600000
0.4549019635,0.0000000000,5,50.8680991667,-0.0983323333,69.3000000000,5.8125000000,2.0000000000,7.0000000000,image266.jpg,17759.1106190000
0.4549019635,0.0000000000,5,50.8680993333,-0.0983331667,69.3000000000,1.0000000000,2.5000000000,6.3125000000,image268.jpg,17887.7268680000
0.4156862795,0.0000000000,5,50.8681000000,-0.0983338333,69.3000000000,2.0625000000,3.3750000000,7.1250000000,image269.jpg,17956.0316080000
0.4705882370,-1.0000000000,5,50.8681000000,-0.0983346667,69.3000000000,4.8125000000,1.3125000000,6.5625000000,image271.jpg,18087.9614520000
0.4156862795,-7.0000000000,5,50.8681001667,-0.0983358333,69.3000000000,3.8750000000,0.8750000000,6.2500000000,image272.jpg,18156.4706700000
0.4549019635,-3.0000000000,5,50.8681006667,-0.0983365000,69.3000000000,3.8125000000,2.4375000000,5.9375000000,image274.jpg,18287.7175450000
0.4549019635,2.0000000000,5,50.8681008333,-0.0983375000,69.3000000000,4.5625000000,2.0625000000,4.8750000000,image275.jpg,18357.1702540000
0.4549019635,0.0000000000,5,50.8681010000,-0.0983380000,69.3000000000,3.3750000000,1.5625000000,3.6250000000,image277.jpg,18487.6636910000
0.4549019635,1.0000000000,5,50.8681013333,-0.0983388333,69.3000000000,4.6250000000,2.0000000000,4.1875000000,image278.jpg,18557.0849410000
0.4705882370,0.0000000000,5,50.8681015000,-0.0983396667,69.3000000000,7.2500000000,4.4375000000,3.8125000000,image280.jpg,18687.7740560000
0.4549019635,0.0000000000,5,50.8681015000,-0.0983405000,69.3000000000,6.5000000000,4.4375000000,3.0625000000,image281.jpg,18757.2837950000
0.4000000060,5.0000000000,5,50.8681018333,-0.0983410000,69.3000000000,6.5000000000,2.4375000000,3.3750000000,image283.jpg,18887.5874410000
0.4549019635,8.0000000000,5,50.8681021667,-0.0983420000,69.3000000000,5.4375000000,1.3125000000,3.5000000000,image284.jpg,18957.0472330000
0.4627451003,4.0000000000,5,50.8681021667,-0.0983430000,69.3000000000,2.6250000000,1.0625000000,3.7500000000,image286.jpg,19087.6312950000
0.4078431427,7.0000000000,5,50.8681025000,-0.0983435000,69.4000000000,3.7500000000,1.0000000000,4.2500000000,image287.jpg,19156.0202530000
0.4784313738,17.0000000000,5,50.8681028333,-0.0983443333,69.4000000000,4.7500000000,0.8750000000,4.0000000000,image289.jpg,19288.5428050000
0.4627451003,14.0000000000,5,50.8681028333,-0.0983451667,69.4000000000,3.3125000000,2.3125000000,4.3125000000,image290.jpg,19356.0240550000
0.4705882370,0.0000000000,5,50.8681030000,-0.0983455000,69.4000000000,-0.8125000000,3.7500000000,5.3125000000,image292.jpg,19487.6297850000
0.4627451003,1.0000000000,5,50.8681033333,-0.0983463333,69.4000000000,-3.4375000000,7.3125000000,5.6250000000,image293.jpg,19556.6537950000
0.4705882370,0.0000000000,5,50.8681035000,-0.0983466667,69.4000000000,-2.1875000000,7.9375000000,5.6875000000,image295.jpg,19692.0317120000
0.4941176474,0.0000000000,5,50.8681036667,-0.0983475000,69.4000000000,0.9375000000,3.9375000000,5.8125000000,image296.jpg,19756.8066590000
0.4862745106,8.0000000000,5,50.8681038333,-0.0983486667,69.4000000000,10.0625000000,3.8750000000,5.0625000000,image298.jpg,19888.5925970000
0.4784313738,18.0000000000,5,50.8681035000,-0.0983490000,69.4000000000,11.9375000000,3.5625000000,5.1875000000,image299.jpg,19956.2517110000
0.3921568692,18.0000000000,5,50.8681036667,-0.0983496667,69.4000000000,2.1250000000,1.9375000000,5.1875000000,image301.jpg,20088.6506180000
0.4784313738,1.0000000000,5,50.8681041667,-0.0983501667,69.4000000000,1.9375000000,2.6875000000,6.9375000000,image302.jpg,20155.9489510000
0.4862745106,1.0000000000,5,50.8681045000,-0.0983511667,69.4000000000,0.2500000000,0.5000000000,5.0625000000,image304.jpg,20292.3840550000
0.4392156899,5.0000000000,5,50.8681048333,-0.0983515000,69.4000000000,-1.3750000000,0.0000000000,4.9375000000,image305.jpg,20356.4683260000
0.4862745106,13.0000000000,5,50.8681051667,-0.0983523333,69.4000000000,3.6250000000,2.6875000000,8.6250000000,image307.jpg,20493.0469200000
0.4862745106,11.0000000000,5,50.8681048333,-0.0983531667,69.4000000000,7.5625000000,0.4375000000,6.7500000000,image308.jpg,20557.1273880000
0.4784313738,15.0000000000,5,50.8681048333,-0.0983538333,69.4000000000,0.8125000000,2.4375000000,5.8750000000,image310.jpg,20693.4804610000
0.4784313738,17.0000000000,5,50.8681053333,-0.0983543333,69.4000000000,-0.8125000000,3.5000000000,8.3750000000,image311.jpg,20757.4192110000
0.4784313738,11.0000000000,5,50.8681058333,-0.0983546667,69.4000000000,3.2500000000,0.6250000000,9.1875000000,image313.jpg,20892.8011900000
0.5019608140,4.0000000000,5,50.8681060000,-0.0983558333,69.4000000000,2.1250000000,-0.4375000000,10.0625000000,image314.jpg,20956.4332210000
0.4862745106,10.0000000000,5,50.8681063333,-0.0983566667,69.4000000000,3.6875000000,2.2500000000,11.3750000000,image316.jpg,21092.6045760000
0.4862745106,5.0000000000,5,50.8681063333,-0.0983570000,69.4000000000,3.7500000000,1.0625000000,11.4375000000,image317.jpg,21156.0645230000
0.4549019635,5.0000000000,5,50.8681063333,-0.0983578333,69.5000000000,0.6250000000,0.3125000000,12.8750000000,image319.jpg,21291.6323360000
0.4941176474,12.0000000000,5,50.8681068333,-0.0983585000,69.5000000000,1.5625000000,1.6875000000,13.7500000000,image320.jpg,21356.8385340000
0.5098039508,10.0000000000,5,50.8681071667,-0.0983595000,69.5000000000,6.6250000000,1.4375000000,14.1875000000,image322.jpg,21492.3698360000
0.4705882370,12.0000000000,5,50.8681073333,-0.0983605000,69.4000000000,6.8125000000,0.9375000000,16.0000000000,image323.jpg,21556.5148360000
0.4862745106,19.0000000000,5,50.8681075000,-0.0983613333,69.4000000000,4.4375000000,0.8125000000,17.0625000000,image325.jpg,21692.3332210000
0.4941176474,18.0000000000,5,50.8681083333,-0.0983621667,69.4000000000,1.8750000000,-1.1250000000,18.0000000000,image326.jpg,21756.5008770000
0.4627451003,0.0000000000,5,50.8681088333,-0.0983630000,69.4000000000,4.3750000000,1.5625000000,21.6875000000,image328.jpg,21893.5461380000
0.4862745106,0.0000000000,5,50.8681090000,-0.0983636667,69.4000000000,4.3750000000,2.8125000000,21.2500000000,image329.jpg,21959.6393670000
0.4784313738,-1.0000000000,5,50.8681091667,-0.0983643333,69.5000000000,1.1875000000,2.9375000000,21.3750000000,image331.jpg,22092.3559290000
0.4705882370,-2.0000000000,5,50.8681095000,-0.0983645000,69.5000000000,4.2500000000,1.7500000000,20.8750000000,image332.jpg,22158.9043670000
0.4627451003,-4.0000000000,5,50.8681098333,-0.0983660000,69.4000000000,2.1875000000,4.1250000000,20.3125000000,image334.jpg,22292.3230130000
0.4313725531,-4.0000000000,5,50.8681103333,-0.0983668333,69.4000000000,3.0625000000,2.8125000000,20.0625000000,image335.jpg,22358.8991060000
0.4392156899,0.0000000000,5,50.8681106667,-0.0983676667,69.4000000000,3.8125000000,-0.4375000000,18.5000000000,image337.jpg,22493.3676480000
0.4705882370,0.0000000000,5,50.8681108333,-0.0983686667,69.4000000000,2.8125000000,-0.2500000000,18.3750000000,image338.jpg,22560.3918670000
0.4862745106,-4.0000000000,5,50.8681113333,-0.0983695000,69.4000000000,2.8125000000,-1.0625000000,18.3750000000,image340.jpg,22691.7466580000
0.4392156899,-2.0000000000,5,50.8681118333,-0.0983706667,69.4000000000,4.9375000000,-1.3750000000,18.0000000000,image341.jpg,22760.2980650000
0.4862745106,-2.0000000000,5,50.8681121667,-0.0983715000,69.4000000000,4.3125000000,-3.6875000000,17.1875000000,image343.jpg,22891.5849920000
0.4549019635,0.0000000000,5,50.8681125000,-0.0983725000,69.4000000000,5.6875000000,-3.2500000000,17.0625000000,image344.jpg,22961.0042620000
0.4549019635,11.0000000000,5,50.8681125000,-0.0983733333,69.4000000000,1.7500000000,0.7500000000,16.3125000000,image346.jpg,23092.0110330000
0.4941176474,14.0000000000,5,50.8681131667,-0.0983738333,69.4000000000,1.0000000000,-0.3750000000,16.3750000000,image347.jpg,23161.0661890000
0.4941176474,14.0000000000,5,50.8681138333,-0.0983750000,69.4000000000,5.6250000000,0.5625000000,16.5000000000,image349.jpg,23293.0686370000
0.4784313738,9.0000000000,5,50.8681140000,-0.0983761667,69.4000000000,4.2500000000,0.6875000000,17.7500000000,image350.jpg,23361.1922310000
0.4784313738,1.0000000000,5,50.8681145000,-0.0983770000,69.4000000000,5.4375000000,-0.3125000000,18.7500000000,image352.jpg,23493.0806680000
0.4392156899,2.0000000000,5,50.8681150000,-0.0983780000,69.4000000000,3.9375000000,-0.3125000000,19.4375000000,image353.jpg,23561.3670750000
0.4627451003,10.0000000000,5,50.8681153333,-0.0983786667,69.4000000000,4.1250000000,-0.5625000000,20.4375000000,image355.jpg,23692.6983250000
0.4784313738,11.0000000000,5,50.8681156667,-0.0983796667,69.3000000000,5.5000000000,-0.8750000000,20.0625000000,image356.jpg,23760.5588450000
0.4705882370,5.0000000000,5,50.8681160000,-0.0983805000,69.3000000000,4.5625000000,-0.1875000000,21.0000000000,image358.jpg,23892.9992620000
0.4705882370,9.0000000000,5,50.8681166667,-0.0983815000,69.3000000000,6.4375000000,0.5625000000,21.6250000000,image359.jpg,23960.2510850000
0.4627451003,19.0000000000,5,50.8681170000,-0.0983821667,69.3000000000,6.5000000000,0.3125000000,21.5000000000,image361.jpg,24092.0226990000
0.4627451003,20.0000000000,5,50.8681173333,-0.0983831667,69.3000000000,6.7500000000,0.5625000000,22.4375000000,image362.jpg,24160.4893140000
0.3843137324,10.0000000000,5,50.8681176667,-0.0983840000,69.3000000000,5.5000000000,2.6875000000,23.8125000000,image364.jpg,24291.0304600000
0.4784313738,7.0000000000,5,50.8681178333,-0.0983843333,69.3000000000,3.8750000000,2.4375000000,24.8750000000,image365.jpg,24360.7397830000
0.4627451003,7.0000000000,5,50.8681183333,-0.0983850000,69.3000000000,4.7500000000,0.3125000000,26.6250000000,image367.jpg,24496.3820220000
0.4627451003,7.0000000000,5,50.8681188333,-0.0983856667,69.3000000000,6.0625000000,0.7500000000,27.2500000000,image368.jpg,24561.1466580000
0.4627451003,5.0000000000,5,50.8681191667,-0.0983865000,69.3000000000,8.3125000000,0.3125000000,27.6250000000,image370.jpg,24695.9251990000
0.4078431427,4.0000000000,5,50.8681195000,-0.0983873333,69.3000000000,9.8750000000,0.3125000000,27.5625000000,image371.jpg,24760.1498350000
0.4784313738,3.0000000000,5,50.8681198333,-0.0983880000,69.3000000000,7.2500000000,1.1250000000,26.5625000000,image373.jpg,24895.6642620000
0.4784313738,1.0000000000,5,50.8681201667,-0.0983883333,69.3000000000,4.8750000000,0.2500000000,27.4375000000,image374.jpg,24961.4976470000
0.4784313738,-1.0000000000,5,50.8681208333,-0.0983890000,69.3000000000,3.4375000000,2.3125000000,28.0000000000,image376.jpg,25096.1671780000
0.4784313738,-1.0000000000,5,50.8681210000,-0.0983896667,69.3000000000,4.5000000000,3.0000000000,27.3750000000,image377.jpg,25165.0361370000
0.4784313738,-5.0000000000,5,50.8681213333,-0.0983903333,69.4000000000,6.9375000000,3.3750000000,28.3750000000,image379.jpg,25298.8378030000
0.4784313738,-7.0000000000,5,50.8681216667,-0.0983911667,69.4000000000,7.8125000000,3.5000000000,28.1250000000,image380.jpg,25366.5270220000
0.4392156899,-4.0000000000,5,50.8681218333,-0.0983918333,69.4000000000,5.4375000000,4.0000000000,25.6250000000,image382.jpg,25495.7212410000
0.4784313738,-2.0000000000,5,50.8681225000,-0.0983920000,69.4000000000,1.3125000000,2.1875000000,24.1250000000,image383.jpg,25560.1070740000
0.4784313738,2.0000000000,5,50.8681233333,-0.0983926667,69.4000000000,3.4375000000,0.8125000000,24.2500000000,image385.jpg,25696.0468650000
0.4784313738,4.0000000000,5,50.8681235000,-0.0983936667,69.4000000000,2.3750000000,-0.6875000000,22.8750000000,image386.jpg,25760.9695740000
0.4784313738,13.0000000000,5,50.8681236667,-0.0983943333,69.4000000000,5.1875000000,-2.5000000000,23.9375000000,image388.jpg,25895.9250950000
0.3921568692,13.0000000000,5,50.8681240000,-0.0983953333,69.4000000000,6.6250000000,-2.1250000000,24.3125000000,image389.jpg,25964.1005110000
0.4784313738,4.0000000000,5,50.8681241667,-0.0983960000,69.4000000000,7.4375000000,2.7500000000,24.1875000000,image391.jpg,26095.5556670000
0.4627451003,1.0000000000,5,50.8681245000,-0.0983963333,69.4000000000,5.1875000000,4.0000000000,25.6250000000,image392.jpg,26164.3051470000
0.4705882370,0.0000000000,5,50.8681251667,-0.0983970000,69.4000000000,4.4375000000,2.4375000000,25.2500000000,image394.jpg,26295.7279070000
0.4705882370,0.0000000000,5,50.8681253333,-0.0983980000,69.4000000000,5.3125000000,1.9375000000,25.2500000000,image395.jpg,26364.9701990000
0.4705882370,-1.0000000000,5,50.8681260000,-0.0983988333,69.5000000000,8.6875000000,2.5625000000,25.3750000000,image397.jpg,26496.1616050000
0.4784313738,-3.0000000000,5,50.8681260000,-0.0983995000,69.5000000000,8.1250000000,-0.1875000000,24.9375000000,image398.jpg,26565.0892090000
0.3764705956,-4.0000000000,5,50.8681265000,-0.0984005000,69.5000000000,5.1250000000,-3.3750000000,23.3125000000,image400.jpg,26695.7803030000
0.4705882370,0.0000000000,5,50.8681273333,-0.0984011667,69.5000000000,3.2500000000,-1.9375000000,23.3125000000,image401.jpg,26764.9037400000
0.4705882370,6.0000000000,5,50.8681276667,-0.0984018333,69.5000000000,7.0000000000,0.0625000000,22.8125000000,image403.jpg,26896.0303030000
0.4705882370,9.0000000000,5,50.8681276667,-0.0984028333,69.5000000000,7.5625000000,0.1250000000,22.0625000000,image404.jpg,26963.4796250000
0.4705882370,7.0000000000,5,50.8681280000,-0.0984035000,69.5000000000,3.5625000000,0.8125000000,22.5625000000,image406.jpg,27095.1631670000
0.4470588267,1.0000000000,5,50.8681288333,-0.0984041667,69.5000000000,3.5625000000,2.9375000000,23.3125000000,image407.jpg,27163.0087400000
0.4784313738,0.0000000000,5,50.8681290000,-0.0984048333,69.5000000000,3.9375000000,0.8125000000,23.8125000000,image409.jpg,27295.6469690000
0.4784313738,6.0000000000,5,50.8681293333,-0.0984056667,69.5000000000,4.3750000000,-0.4375000000,23.8125000000,image410.jpg,27364.0987920000
0.4784313738,11.0000000000,5,50.8681298333,-0.0984068333,69.5000000000,4.5625000000,0.6875000000,22.8125000000,image412.jpg,27499.6356670000
0.4784313738,7.0000000000,5,50.8681300000,-0.0984075000,69.5000000000,3.1250000000,0.8125000000,22.7500000000,image413.jpg,27564.3276460000
0.4784313738,9.0000000000,5,50.8681305000,-0.0984081667,69.5000000000,1.1875000000,0.1875000000,23.6875000000,image415.jpg,27699.8804580000
0.4549019635,12.0000000000,5,50.8681310000,-0.0984090000,69.4000000000,0.4375000000,1.6250000000,24.1250000000,image416.jpg,27764.5365520000
0.4392156899,19.0000000000,5,50.8681315000,-0.0984098333,69.4000000000,1.8125000000,1.8750000000,24.6875000000,image418.jpg,27896.3237400000
0.4392156899,18.0000000000,5,50.8681316667,-0.0984105000,69.5000000000,1.7500000000,1.3125000000,25.3750000000,image419.jpg,27964.3701460000
0.4784313738,18.0000000000,5,50.8681321667,-0.0984110000,69.5000000000,3.3750000000,0.2500000000,27.1250000000,image421.jpg,28097.3036350000
0.4705882370,22.0000000000,5,50.8681325000,-0.0984120000,69.5000000000,2.5000000000,2.1250000000,28.1250000000,image422.jpg,28164.1197290000
0.4862745106,28.0000000000,5,50.8681330000,-0.0984123333,69.5000000000,0.3125000000,1.8750000000,30.2500000000,image424.jpg,28296.8518120000
0.4862745106,25.0000000000,5,50.8681335000,-0.0984130000,69.5000000000,2.4375000000,3.5000000000,32.6250000000,image425.jpg,28364.1738960000
0.4705882370,15.0000000000,5,50.8681338333,-0.0984136667,69.5000000000,3.0000000000,-0.4375000000,34.3125000000,image427.jpg,28500.4868640000
0.4705882370,8.0000000000,5,50.8681345000,-0.0984145000,69.5000000000,5.4375000000,-2.5000000000,38.1875000000,image428.jpg,28564.0086350000
0.4392156899,6.0000000000,5,50.8681350000,-0.0984155000,69.5000000000,5.5625000000,-0.8750000000,37.5000000000,image430.jpg,28700.9310310000
0.4705882370,4.0000000000,5,50.8681355000,-0.0984160000,69.5000000000,4.3750000000,-2.3125000000,37.5000000000,image431.jpg,28764.3500930000
0.4862745106,0.0000000000,5,50.8681360000,-0.0984165000,69.5000000000,1.1250000000,-1.6250000000,38.6875000000,image433.jpg,28900.8013960000
0.4549019635,0.0000000000,5,50.8681366667,-0.0984168333,69.5000000000,1.5625000000,0.0000000000,39.5625000000,image434.jpg,28964.1047290000
0.4705882370,-1.0000000000,5,50.8681371667,-0.0984173333,69.4000000000,6.5000000000,2.5625000000,39.3750000000,image436.jpg,29100.4350930000
0.4392156899,-4.0000000000,5,50.8681373333,-0.0984183333,69.4000000000,5.2500000000,1.8750000000,37.9375000000,image437.jpg,29168.1408220000
0.4705882370,-16.0000000000,5,50.8681378333,-0.0984186667,69.4000000000,0.1875000000,3.4375000000,38.0625000000,image439.jpg,29299.2519680000
0.4705882370,-15.0000000000,5,50.8681383333,-0.0984190000,69.4000000000,0.8750000000,2.1875000000,36.3750000000,image440.jpg,29368.1434270000
0.4705882370,-16.0000000000,5,50.8681388333,-0.0984198333,69.4000000000,3.0000000000,0.9375000000,34.7500000000,image442.jpg,29499.7743120000
0.4784313738,-16.0000000000,5,50.8681391667,-0.0984206667,69.4000000000,3.3750000000,1.4375000000,33.4375000000,image443.jpg,29568.4181660000
0.4784313738,-17.0000000000,5,50.8681395000,-0.0984213333,69.4000000000,2.5000000000,3.5625000000,29.5000000000,image445.jpg,29699.7368640000
0.4784313738,-11.0000000000,5,50.8681398333,-0.0984220000,69.4000000000,1.3750000000,2.1875000000,28.5625000000,image446.jpg,29767.9715510000
0.4392156899,-1.0000000000,5,50.8681405000,-0.0984228333,69.4000000000,2.8125000000,-1.0625000000,26.1875000000,image448.jpg,29900.4085310000
0.4784313738,3.0000000000,5,50.8681406667,-0.0984236667,69.4000000000,3.9375000000,0.1875000000,25.3750000000,image449.jpg,29968.1626970000
0.4784313738,18.0000000000,5,50.8681408333,-0.0984245000,69.4000000000,5.3125000000,2.1250000000,25.4375000000,image451.jpg,30100.4055100000
0.3843137324,21.0000000000,5,50.8681411667,-0.0984250000,69.4000000000,8.0625000000,0.4375000000,25.8125000000,image452.jpg,30168.0995720000
0.4627451003,22.0000000000,5,50.8681415000,-0.0984263333,69.4000000000,7.5625000000,2.2500000000,26.8750000000,image454.jpg,30304.3354570000
0.4078431427,16.0000000000,5,50.8681418333,-0.0984266667,69.4000000000,4.8750000000,4.0000000000,27.9375000000,image455.jpg,30368.4418120000
0.4627451003,3.0000000000,5,50.8681423333,-0.0984266667,69.4000000000,2.0000000000,4.3125000000,31.0000000000,image457.jpg,30500.7259780000
0.4784313738,3.0000000000,5,50.8681430000,-0.0984278333,69.4000000000,3.0625000000,2.5625000000,31.3125000000,image458.jpg,30568.1767070000
0.4705882370,1.0000000000,5,50.8681431667,-0.0984285000,69.4000000000,6.1875000000,3.5000000000,31.3125000000,image460.jpg,30699.9479050000
0.4627451003,2.0000000000,5,50.8681433333,-0.0984291667,69.4000000000,6.9375000000,5.2500000000,31.3750000000,image461.jpg,30769.4002490000
0.4627451003,2.0000000000,5,50.8681436667,-0.0984296667,69.4000000000,9.0625000000,5.6250000000,29.9375000000,image463.jpg,30899.7323320000
0.4627451003,3.0000000000,5,50.8681438333,-0.0984303333,69.4000000000,6.5625000000,3.9375000000,28.5625000000,image464.jpg,30968.5522280000
0.4078431427,13.0000000000,5,50.8681445000,-0.0984311667,69.4000000000,4.7500000000,5.0625000000,29.8750000000,image466.jpg,31099.7463430000
0.4784313738,15.0000000000,5,50.8681448333,-0.0984316667,69.4000000000,7.0000000000,4.3750000000,29.4375000000,image467.jpg,31170.0144680000
0.4627451003,15.0000000000,5,50.8681450000,-0.0984325000,69.5000000000,6.3750000000,1.8125000000,29.2500000000,image469.jpg,31300.6528010000
0.4627451003,15.0000000000,5,50.8681455000,-0.0984333333,69.5000000000,4.1875000000,3.3750000000,29.8125000000,image470.jpg,31370.2640510000
0.4705882370,18.0000000000,5,50.8681460000,-0.0984335000,69.5000000000,5.3125000000,5.6250000000,31.3750000000,image472.jpg,31504.6967590000
0.3843137324,18.0000000000,5,50.8681461667,-0.0984343333,69.5000000000,4.6250000000,5.6875000000,31.3750000000,image473.jpg,31569.2010820000
0.4784313738,20.0000000000,5,50.8681466667,-0.0984348333,69.5000000000,4.6875000000,5.7500000000,32.9375000000,image475.jpg,31703.9624360000
0.4784313738,19.0000000000,5,50.8681471667,-0.0984355000,69.5000000000,4.1875000000,6.4375000000,34.0000000000,image476.jpg,31769.4320190000
0.4705882370,19.0000000000,5,50.8681476667,-0.0984360000,69.5000000000,4.1250000000,5.0625000000,35.3125000000,image478.jpg,31904.5854570000
0.4627451003,15.0000000000,5,50.8681485000,-0.0984368333,69.5000000000,4.5625000000,4.2500000000,36.2500000000,image479.jpg,31968.3506650000
0.4705882370,10.0000000000,5,50.8681486667,-0.0984371667,69.5000000000,5.0625000000,8.0000000000,38.3750000000,image481.jpg,32099.8368630000
0.4627451003,11.0000000000,5,50.8681488333,-0.0984376667,69.5000000000,1.6875000000,6.6250000000,39.6250000000,image482.jpg,32168.2487900000
0.3843137324,15.0000000000,5,50.8681495000,-0.0984378333,69.5000000000,0.2500000000,5.0000000000,41.3750000000,image484.jpg,32299.5944670000
0.4627451003,18.0000000000,5,50.8681503333,-0.0984386667,69.5000000000,2.9375000000,3.6250000000,41.5000000000,image485.jpg,32368.7272800000
0.4549019635,17.0000000000,5,50.8681508333,-0.0984396667,69.5000000000,0.8125000000,2.3750000000,44.3750000000,image487.jpg,32505.0469150000
0.3843137324,17.0000000000,5,50.8681513333,-0.0984400000,69.5000000000,1.7500000000,1.0000000000,46.0625000000,image488.jpg,32569.2208210000
0.4549019635,3.0000000000,5,50.8681516667,-0.0984406667,69.5000000000,1.8750000000,-1.6250000000,46.3750000000,image490.jpg,32708.9880090000
0.4235294163,0.0000000000,5,50.8681520000,-0.0984408333,69.6000000000,-0.5000000000,1.1250000000,46.1875000000,image491.jpg,32774.0898840000
0.4705882370,-4.0000000000,5,50.8681525000,-0.0984406667,69.5000000000,-0.1250000000,2.6875000000,47.3750000000,image493.jpg,32907.1073310000
0.4549019635,-5.0000000000,5,50.8681531667,-0.0984413333,69.5000000000,0.9375000000,2.8750000000,46.0625000000,image494.jpg,32972.0701440000
0.4549019635,0.0000000000,5,50.8681535000,-0.0984421667,69.6000000000,-2.2500000000,3.9375000000,45.9375000000,image496.jpg,33104.3229040000
0.4549019635,0.0000000000,5,50.8681540000,-0.0984423333,69.5000000000,-0.6875000000,5.0000000000,45.8750000000,image497.jpg,33173.3797790000
0.4549019635,0.0000000000,5,50.8681543333,-0.0984428333,69.6000000000,1.4375000000,4.6250000000,46.0000000000,image499.jpg,33304.6735290000
0.4235294163,0.0000000000,5,50.8681545000,-0.0984435000,69.6000000000,2.0000000000,2.6875000000,45.5625000000,image500.jpg,33373.4858730000
0.4235294163,-10.0000000000,5,50.8681551667,-0.0984440000,69.6000000000,3.6875000000,2.0625000000,45.3750000000,image502.jpg,33504.3452480000
0.4627451003,-14.0000000000,5,50.8681556667,-0.0984445000,69.6000000000,4.0000000000,2.1250000000,44.9375000000,image503.jpg,33573.1961330000
0.4627451003,-15.0000000000,5,50.8681563333,-0.0984451667,69.5000000000,2.0625000000,1.1875000000,43.4375000000,image505.jpg,33705.3218620000
0.4627451003,-11.0000000000,5,50.8681565000,-0.0984455000,69.5000000000,4.9375000000,0.7500000000,42.9375000000,image506.jpg,33772.5344140000
0.4705882370,-6.0000000000,5,50.8681566667,-0.0984463333,69.6000000000,8.5625000000,2.5625000000,40.5000000000,image508.jpg,33904.1898310000
0.4392156899,-6.0000000000,5,50.8681571667,-0.0984468333,69.5000000000,6.6250000000,2.5000000000,40.1250000000,image509.jpg,33972.0625390000
0.4313725531,-7.0000000000,5,50.8681576667,-0.0984473333,69.5000000000,3.0625000000,3.2500000000,39.9375000000,image511.jpg,34103.5245710000
0.4627451003,-6.0000000000,5,50.8681580000,-0.0984475000,69.5000000000,4.5000000000,3.1875000000,39.6875000000,image512.jpg,34171.2795180000
0.4235294163,-17.0000000000,5,50.8681585000,-0.0984483333,69.5000000000,4.3125000000,1.5625000000,237.3125000000,image514.jpg,34305.3624870000
0.4627451003,-29.0000000000,5,50.8681586667,-0.0984490000,69.6000000000,6.0625000000,0.6875000000,237.2500000000,image515.jpg,34373.0028520000
0.4784313738,-33.0000000000,5,50.8681590000,-0.0984496667,69.6000000000,5.5625000000,0.7500000000,235.2500000000,image517.jpg,34504.0335810000
0.4392156899,-35.0000000000,5,50.8681595000,-0.0984503333,69.6000000000,5.2500000000,0.6250000000,232.6250000000,image518.jpg,34574.2480600000
0.4235294163,-35.0000000000,5,50.8681600000,-0.0984508333,69.6000000000,2.3750000000,0.0625000000,229.8125000000,image520.jpg,34705.3520700000
0.4627451003,-35.0000000000,5,50.8681606667,-0.0984515000,69.6000000000,1.3750000000,1.5625000000,227.6250000000,image521.jpg,34773.2426950000
0.4627451003,-35.0000000000,5,50.8681608333,-0.0984518333,69.6000000000,0.5000000000,3.0625000000,224.1875000000,image523.jpg,34904.5275910000
0.4235294163,-35.0000000000,5,50.8681608333,-0.0984525000,69.6000000000,1.1250000000,2.0000000000,222.6875000000,image524.jpg,34972.1585810000
0.4784313738,-35.0000000000,5,50.8681611667,-0.0984533333,69.6000000000,2.3750000000,1.6875000000,218.1250000000,image526.jpg,35104.1461850000
0.4392156899,-35.0000000000,5,50.8681613333,-0.0984541667,69.6000000000,1.5625000000,2.1250000000,217.0000000000,image527.jpg,35173.0519660000
0.4392156899,-35.0000000000,5,50.8681613333,-0.0984545000,69.5000000000,2.4375000000,2.8125000000,213.1250000000,image529.jpg,35305.7797780000
0.4862745106,-35.0000000000,5,50.8681613333,-0.0984551667,69.6000000000,3.2500000000,2.5000000000,211.3125000000,image530.jpg,35375.3857680000
0.4549019635,-31.0000000000,5,50.8681613333,-0.0984561667,69.5000000000,1.0000000000,1.5000000000,207.8125000000,image532.jpg,35507.6094140000
0.4862745106,-21.0000000000,5,50.8681615000,-0.0984566667,69.5000000000,0.0000000000,2.2500000000,205.8125000000,image533.jpg,35572.3819660000
0.5176470876,-13.0000000000,5,50.8681616667,-0.0984575000,69.5000000000,1.0000000000,4.3125000000,203.1250000000,image535.jpg,35708.0308720000
0.4156862795,-9.0000000000,5,50.8681618333,-0.0984583333,69.5000000000,1.2500000000,5.0625000000,202.1250000000,image536.jpg,35772.6157680000
0.4941176474,-2.0000000000,5,50.8681620000,-0.0984591667,69.5000000000,2.4375000000,2.9375000000,201.0625000000,image538.jpg,35907.6211840000
0.4941176474,-1.0000000000,5,50.8681620000,-0.0984603333,69.5000000000,2.8125000000,2.7500000000,200.2500000000,image539.jpg,35972.7907680000
0.4941176474,5.0000000000,5,50.8681620000,-0.0984613333,69.5000000000,2.3750000000,4.9375000000,198.8750000000,image541.jpg,36105.2341530000
0.4941176474,7.0000000000,5,50.8681623333,-0.0984620000,69.5000000000,2.5000000000,3.9375000000,198.1875000000,image542.jpg,36172.3617570000
0.5019608140,9.0000000000,5,50.8681623333,-0.0984630000,69.5000000000,6.2500000000,-0.5625000000,198.3750000000,image544.jpg,36307.8229030000
0.4784313738,14.0000000000,5,50.8681625000,-0.0984641667,69.5000000000,4.8750000000,0.1250000000,198.5625000000,image545.jpg,36372.0822780000
0.4313725531,23.0000000000,5,50.8681626667,-0.0984650000,69.5000000000,4.1875000000,1.0000000000,199.6875000000,image547.jpg,36508.5061840000
0.4784313738,26.0000000000,5,50.8681626667,-0.0984658333,69.5000000000,2.5625000000,0.0000000000,200.6875000000,image548.jpg,36572.4396740000
0.4235294163,33.0000000000,5,50.8681628333,-0.0984666667,69.6000000000,3.5625000000,3.2500000000,203.6875000000,image550.jpg,36708.9509760000
0.4784313738,33.0000000000,5,50.8681630000,-0.0984675000,69.5000000000,5.0625000000,2.8125000000,205.4375000000,image551.jpg,36776.3820700000
0.4784313738,35.0000000000,5,50.8681630000,-0.0984685000,69.5000000000,7.0000000000,3.1250000000,209.0625000000,image553.jpg,36909.6289970000
0.4000000060,34.0000000000,5,50.8681633333,-0.0984688333,69.6000000000,6.3125000000,2.4375000000,210.6250000000,image554.jpg,36976.1480590000
0.4784313738,24.0000000000,5,50.8681635000,-0.0984695000,69.6000000000,4.0000000000,3.0625000000,215.7500000000,image556.jpg,37108.5403510000
0.4784313738,10.0000000000,5,50.8681638333,-0.0984700000,69.6000000000,3.4375000000,2.6250000000,217.1250000000,image557.jpg,37172.1166530000
0.4862745106,-5.0000000000,5,50.8681643333,-0.0984708333,69.5000000000,4.0000000000,-1.2500000000,221.6250000000,image559.jpg,37309.0822780000
0.5019608140,-10.0000000000,5,50.8681646667,-0.0984716667,69.5000000000,3.8125000000,-2.3750000000,222.3125000000,image560.jpg,37376.1846210000
0.4862745106,-11.0000000000,5,50.8681651667,-0.0984723333,69.6000000000,4.5625000000,1.8125000000,222.8750000000,image562.jpg,37509.3823300000
0.4862745106,-7.0000000000,5,50.8681651667,-0.0984728333,69.5000000000,4.7500000000,2.5625000000,221.3750000000,image563.jpg,37575.8549340000
0.4000000060,9.0000000000,5,50.8681656667,-0.0984736667,69.5000000000,-0.3750000000,2.7500000000,220.2500000000,image565.jpg,37708.0541000000
0.4941176474,19.0000000000,5,50.8681660000,-0.0984743333,69.5000000000,1.7500000000,3.3750000000,220.5000000000,image566.jpg,37778.5246730000
0.4156862795,29.0000000000,5,50.8681658333,-0.0984751667,69.5000000000,1.6875000000,2.3750000000,220.0625000000,image568.jpg,37908.9185800000
0.5098039508,34.0000000000,5,50.8681666667,-0.0984760000,69.5000000000,1.4375000000,1.5625000000,221.5000000000,image569.jpg,37976.6660270000
0.4941176474,34.0000000000,5,50.8681675000,-0.0984770000,69.5000000000,5.9375000000,1.2500000000,225.3125000000,image571.jpg,38108.6915480000
0.4000000060,35.0000000000,5,50.8681676667,-0.0984778333,69.6000000000,3.0000000000,-0.3125000000,225.6875000000,image572.jpg,38178.6724860000
0.4862745106,33.0000000000,5,50.8681683333,-0.0984781667,69.6000000000,1.4375000000,1.9375000000,228.4375000000,image573.jpg,38244.8994130000
0.4862745106,31.0000000000,5,50.8681686667,-0.0984785000,69.6000000000,5.0625000000,2.0000000000,232.8750000000,image575.jpg,38377.2573290000
0.5176470876,25.0000000000,5,50.8681688333,-0.0984790000,69.6000000000,6.8125000000,2.6250000000,234.6875000000,image576.jpg,38445.6654020000
0.5176470876,6.0000000000,5,50.8681691667,-0.0984798333,69.6000000000,5.1250000000,1.3750000000,236.8750000000,image578.jpg,38579.1020690000
0.5098039508,12.0000000000,5,50.8681700000,-0.0984801667,69.6000000000,-1.4375000000,1.4375000000,238.7500000000,image580.jpg,38711.0150900000
0.5098039508,20.0000000000,5,50.8681705000,-0.0984801667,69.6000000000,0.5625000000,0.6875000000,239.6875000000,image581.jpg,38779.5364440000
0.4627451003,17.0000000000,5,50.8681706667,-0.0984810000,69.6000000000,4.7500000000,-1.3125000000,240.3125000000,image583.jpg,38909.3139440000
0.4705882370,13.0000000000,5,50.8681710000,-0.0984818333,69.6000000000,6.1250000000,1.5625000000,243.0000000000,image584.jpg,38977.1574850000
0.4784313738,0.0000000000,5,50.8681718333,-0.0984821667,69.6000000000,2.8125000000,0.7500000000,243.5000000000,image586.jpg,39108.2403500000
0.5098039508,-5.0000000000,5,50.8681725000,-0.0984826667,69.6000000000,1.4375000000,0.2500000000,243.9375000000,image587.jpg,39177.0233710000
0.4705882370,-10.0000000000,5,50.8681731667,-0.0984830000,69.6000000000,1.6250000000,0.2500000000,244.6250000000,image588.jpg,39244.4096730000
0.4784313738,-16.0000000000,5,50.8681738333,-0.0984838333,69.6000000000,6.2500000000,3.4375000000,243.6875000000,image590.jpg,39377.1722770000
0.4784313738,-15.0000000000,5,50.8681741667,-0.0984843333,69.6000000000,2.8125000000,4.0000000000,241.9375000000,image591.jpg,39444.4585790000
0.5176470876,0.0000000000,5,50.8681750000,-0.0984846667,69.6000000000,0.0000000000,4.9375000000,239.3750000000,image593.jpg,39577.5472250000
0.4862745106,0.0000000000,5,50.8681753333,-0.0984853333,69.5000000000,2.6250000000,4.5000000000,238.4375000000,image595.jpg,39712.1185790000
0.5098039508,0.0000000000,5,50.8681756667,-0.0984861667,69.5000000000,4.3750000000,2.2500000000,239.3125000000,image596.jpg,39777.7369120000
0.5098039508,0.0000000000,2,50.8681761667,-0.0984868333,69.5000000000,4.0625000000,0.8750000000,237.5000000000,image598.jpg,39912.2221730000
0.5098039508,0.0000000000,2,50.8681765000,-0.0984876667,69.5000000000,-2.3750000000,1.4375000000,236.8125000000,image599.jpg,39977.8098810000
0.5098039508,0.0000000000,2,50.8681770000,-0.0984875000,69.5000000000,-2.1875000000,-0.0625000000,237.5625000000,image600.jpg,40043.3634750000
0.4705882370,-6.0000000000,5,50.8681786667,-0.0984898333,69.5000000000,1.2500000000,-0.5625000000,232.1250000000,image601.jpg,40915.9418080000
0.5019608140,-7.0000000000,5,50.8681803333,-0.0984921667,69.6000000000,2.1875000000,-0.7500000000,231.6250000000,image602.jpg,40982.1742550000
0.5019608140,-8.0000000000,5,50.8681808333,-0.0984926667,69.7000000000,3.3125000000,-0.4375000000,231.5625000000,image603.jpg,41044.5706100000
0.5019608140,-7.0000000000,5,50.8681811667,-0.0984936667,69.7000000000,2.8125000000,2.8125000000,229.5000000000,image604.jpg,41111.8058180000
0.5019608140,-3.0000000000,5,50.8681816667,-0.0984943333,69.8000000000,2.3125000000,2.0000000000,230.1875000000,image605.jpg,41181.5918070000
0.5019608140,0.0000000000,5,50.8681823333,-0.0984948333,69.7000000000,4.4375000000,2.1250000000,228.7500000000,image606.jpg,41244.3892030000
0.4392156899,0.0000000000,5,50.8681826667,-0.0984960000,69.7000000000,0.3750000000,3.3750000000,228.3750000000,image608.jpg,41380.6804010000
0.4862745106,0.0000000000,5,50.8681831667,-0.0984963333,69.7000000000,1.2500000000,2.5000000000,229.3125000000,image610.jpg,41513.4774840000
0.4862745106,-2.0000000000,5,50.8681840000,-0.0984971667,69.7000000000,2.8750000000,0.6250000000,228.8750000000,image611.jpg,41581.4357140000
0.4862745106,-10.0000000000,5,50.8681843333,-0.0984981667,69.8000000000,4.1250000000,-0.3750000000,229.0000000000,image613.jpg,41712.4929010000
0.4784313738,-8.0000000000,5,50.8681845000,-0.0984988333,69.8000000000,4.8750000000,-1.0000000000,227.7500000000,image614.jpg,41779.5213910000
0.4862745106,-3.0000000000,5,50.8681850000,-0.0984998333,69.8000000000,-1.2500000000,0.3125000000,225.5625000000,image616.jpg,41912.0769630000
0.4862745106,-2.0000000000,5,50.8681856667,-0.0985000000,69.8000000000,-0.5000000000,-0.0625000000,225.3125000000,image617.jpg,41980.7472760000
0.4156862795,-2.0000000000,5,50.8681860000,-0.0985006667,69.8000000000,-3.6875000000,2.1250000000,225.1250000000,image619.jpg,42111.5821200000
0.4705882370,-4.0000000000,5,50.8681863333,-0.0985013333,69.8000000000,-3.0625000000,2.5000000000,225.3750000000,image620.jpg,42181.2501930000
0.4627451003,-13.0000000000,5,50.8681870000,-0.0985021667,69.8000000000,-0.5625000000,4.2500000000,225.2500000000,image621.jpg,42248.8533170000
0.4705882370,-18.0000000000,5,50.8681871667,-0.0985028333,69.8000000000,0.5625000000,2.6250000000,223.1250000000,image623.jpg,42382.8226920000
0.4705882370,-23.0000000000,5,50.8681876667,-0.0985035000,69.8000000000,1.0000000000,2.0000000000,222.1250000000,image624.jpg,42449.4796720000
0.4156862795,-20.0000000000,5,50.8681880000,-0.0985043333,69.8000000000,1.8125000000,3.0000000000,217.5000000000,image626.jpg,42581.6557130000
0.4705882370,-12.0000000000,5,50.8681883333,-0.0985048333,69.8000000000,-0.2500000000,2.6875000000,215.8125000000,image628.jpg,42712.4995150000
0.4705882370,-7.0000000000,5,50.8681886667,-0.0985056667,69.8000000000,0.0625000000,2.1250000000,215.0000000000,image629.jpg,42781.5070670000
0.4156862795,-4.0000000000,5,50.8681888333,-0.0985065000,69.8000000000,-0.8750000000,1.6875000000,213.7500000000,image630.jpg,42848.9647760000
0.4705882370,2.0000000000,5,50.8681890000,-0.0985071667,69.8000000000,1.5625000000,2.7500000000,213.1250000000,image632.jpg,42983.6651920000
