speed,steering angle,gps quality,lat,lon,altitude,roll,pitch,yaw,image name,timestamp
0.0627451017,0.0000000000,5,50.8680221667,-0.0981778333,70.6000000000,-4.1250000000,-5.4375000000,359.9375000000,image0.jpg,44.6503650000
0.0627451017,1.0000000000,5,50.8680240000,-0.0981766667,70.7000000000,-4.1250000000,-5.4375000000,359.9375000000,image1.jpg,174.1671870000
0.0235294122,0.0000000000,nan,nan,nan,nan,-4.1250000000,-5.4375000000,359.9375000000,image2.jpg,240.3625000000
0.0470588244,-1.0000000000,5,50.8680240000,-0.0981765000,70.7000000000,-4.1250000000,-5.3750000000,359.9375000000,image3.jpg,308.3801040000
0.0549019612,-1.0000000000,5,50.8680241667,-0.0981766667,70.7000000000,-4.1250000000,-5.4375000000,359.9375000000,image4.jpg,440.3368750000
0.0156862754,-1.0000000000,5,50.8680241667,-0.0981766667,70.7000000000,-4.1250000000,-5.4375000000,359.9375000000,image5.jpg,507.6211460000
0.0627451017,1.0000000000,5,50.8680241667,-0.0981766667,70.7000000000,-4.1250000000,-5.4375000000,359.9375000000,image6.jpg,639.7923430000
0.0549019612,-1.0000000000,5,50.8680243333,-0.0981766667,70.7000000000,-4.1250000000,-5.4375000000,359.9375000000,image7.jpg,707.8633850000
0.1411764771,-2.0000000000,5,50.8680243333,-0.0981766667,70.7000000000,-4.1250000000,-5.4375000000,359.9375000000,image8.jpg,839.5666660000
0.1568627506,0.0000000000,5,50.8680241667,-0.0981766667,70.7000000000,-4.1250000000,-5.4375000000,359.9375000000,image9.jpg,910.2235410000
0.1490196139,-3.0000000000,5,50.8680243333,-0.0981766667,70.7000000000,-4.1250000000,-5.4375000000,359.9375000000,image10.jpg,1049.0734370000
0.1568627506,-2.0000000000,nan,nan,nan,nan,-4.1250000000,-5.4375000000,359.9375000000,image11.jpg,1108.6104160000
0.1568627506,-7.0000000000,5,50.8680243333,-0.0981766667,70.7000000000,-4.1250000000,-5.4375000000,359.9375000000,image12.jpg,1171.5545830000
0.1882352978,-10.0000000000,5,50.8680245000,-0.0981766667,70.7000000000,-4.1250000000,-5.4375000000,359.9375000000,image13.jpg,1310.1528640000
0.2039215714,-10.0000000000,5,50.8680245000,-0.0981765000,70.7000000000,-4.1875000000,-5.4375000000,359.8750000000,image14.jpg,1375.5598430000
0.2352941185,-12.0000000000,5,50.8680243333,-0.0981766667,70.7000000000,-4.1875000000,-5.4375000000,359.8750000000,image15.jpg,1509.3309890000
0.2588235438,-12.0000000000,5,50.8680245000,-0.0981766667,70.7000000000,-4.1875000000,-5.4375000000,359.8750000000,image16.jpg,1575.1778640000
0.2745098174,-12.0000000000,5,50.8680245000,-0.0981766667,70.7000000000,-3.7500000000,-5.5000000000,359.6250000000,image17.jpg,1708.0194260000
0.4078431427,-12.0000000000,5,50.8680245000,-0.0981766667,70.7000000000,-3.3125000000,-5.6875000000,359.5000000000,image18.jpg,1775.0248950000
0.3843137324,-12.0000000000,5,50.8680245000,-0.0981768333,70.7000000000,-2.5625000000,-6.1875000000,359.0625000000,image19.jpg,1908.9945300000
0.4313725531,-12.0000000000,5,50.8680243333,-0.0981768333,70.7000000000,-2.6250000000,-6.8750000000,358.9375000000,image20.jpg,1972.6396350000
0.4392156899,-11.0000000000,5,50.8680243333,-0.0981771667,70.7000000000,-2.1875000000,-8.5000000000,358.6875000000,image21.jpg,2108.5608320000
0.3921568692,-10.0000000000,5,50.8680241667,-0.0981775000,70.7000000000,-1.5625000000,-8.5625000000,358.1875000000,image22.jpg,2175.8483320000
0.4235294163,-9.0000000000,5,50.8680240000,-0.0981776667,70.7000000000,-0.6250000000,-10.4375000000,357.3125000000,image23.jpg,2308.4923430000
0.4235294163,-9.0000000000,5,50.8680238333,-0.0981778333,70.7000000000,-0.2500000000,-11.5625000000,357.1875000000,image24.jpg,2376.2996340000
0.4000000060,-2.0000000000,5,50.8680235000,-0.0981781667,70.7000000000,-2.1875000000,-13.7500000000,356.1875000000,image25.jpg,2508.3450510000
0.4000000060,1.0000000000,5,50.8680231667,-0.0981790000,70.7000000000,-2.8125000000,-14.8750000000,356.0000000000,image26.jpg,2575.9333320000
0.3921568692,0.0000000000,5,50.8680230000,-0.0981795000,70.7000000000,-3.9375000000,-14.2500000000,355.6250000000,image27.jpg,2708.1984360000
0.4000000060,0.0000000000,5,50.8680228333,-0.0981795000,70.7000000000,-4.9375000000,-13.7500000000,355.5000000000,image28.jpg,2776.2327590000
0.3450980484,1.0000000000,5,50.8680228333,-0.0981800000,70.7000000000,-5.5625000000,-12.1875000000,354.6875000000,image29.jpg,2908.0921860000
0.4000000060,0.0000000000,5,50.8680226667,-0.0981805000,70.7000000000,-5.9375000000,-12.7500000000,354.8750000000,image30.jpg,2975.6426030000
0.3372549117,0.0000000000,5,50.8680223333,-0.0981813333,70.7000000000,-3.8125000000,-12.9375000000,355.3125000000,image31.jpg,3107.9717700000
0.3921568692,0.0000000000,5,50.8680218333,-0.0981820000,70.7000000000,-4.0000000000,-13.1250000000,354.5000000000,image32.jpg,3175.0688530000
0.3921568692,0.0000000000,5,50.8680215000,-0.0981826667,70.7000000000,-8.6250000000,-14.3750000000,355.2500000000,image33.jpg,3308.8410920000
0.3058823645,1.0000000000,5,50.8680213333,-0.0981836667,70.7000000000,-6.4375000000,-14.6875000000,356.2500000000,image34.jpg,3375.0240090000
0.4000000060,0.0000000000,5,50.8680208333,-0.0981843333,70.7000000000,-3.6250000000,-13.5625000000,355.2500000000,image35.jpg,3508.2286970000
0.4078431427,0.0000000000,5,50.8680205000,-0.0981846667,70.7000000000,-5.5000000000,-14.6250000000,356.6875000000,image36.jpg,3575.6288530000
0.4000000060,0.0000000000,5,50.8680201667,-0.0981855000,70.6000000000,-6.1875000000,-12.8125000000,356.6875000000,image37.jpg,3708.3282800000
0.4000000060,0.0000000000,5,50.8680200000,-0.0981863333,70.6000000000,-6.5625000000,-12.4375000000,355.9375000000,image38.jpg,3776.0247380000
0.4000000060,0.0000000000,5,50.8680196667,-0.0981868333,70.6000000000,-3.8125000000,-11.5625000000,357.0000000000,image39.jpg,3908.1821860000
0.3921568692,0.0000000000,5,50.8680195000,-0.0981875000,70.6000000000,-2.6250000000,-12.3750000000,356.3750000000,image40.jpg,3976.2588530000
0.3686274588,1.0000000000,5,50.8680190000,-0.0981878333,70.6000000000,-4.3125000000,-10.1250000000,355.6875000000,image41.jpg,4112.0192170000
0.3921568692,0.0000000000,5,50.8680186667,-0.0981885000,70.6000000000,-6.8125000000,-9.1250000000,355.6250000000,image42.jpg,4176.2838530000
0.3607843220,-1.0000000000,5,50.8680188333,-0.0981893333,70.6000000000,-7.2500000000,-8.9375000000,356.5625000000,image43.jpg,4312.4394770000
0.3921568692,-2.0000000000,5,50.8680185000,-0.0981896667,70.6000000000,-7.1875000000,-8.8750000000,356.6875000000,image44.jpg,4376.7793730000
0.4156862795,-5.0000000000,5,50.8680183333,-0.0981898333,70.6000000000,-8.7500000000,-7.1875000000,356.3750000000,image45.jpg,4512.0243210000
0.3843137324,-4.0000000000,5,50.8680181667,-0.0981903333,70.5000000000,-7.7500000000,-7.3125000000,357.2500000000,image46.jpg,4575.5377070000
0.4392156899,-5.0000000000,5,50.8680180000,-0.0981908333,70.5000000000,-3.0000000000,-7.8750000000,356.4375000000,image47.jpg,4712.3166650000
0.4235294163,-5.0000000000,5,50.8680176667,-0.0981908333,70.5000000000,-3.2500000000,-6.9375000000,355.9375000000,image48.jpg,4775.1214560000
0.4392156899,-5.0000000000,5,50.8680175000,-0.0981911667,70.5000000000,-5.4375000000,-5.6250000000,355.6250000000,image49.jpg,4912.2411960000
0.4784313738,-5.0000000000,5,50.8680175000,-0.0981916667,70.5000000000,-6.0625000000,-6.5625000000,356.1250000000,image50.jpg,4975.2500500000
0.4784313738,-4.0000000000,5,50.8680171667,-0.0981921667,70.5000000000,-5.5625000000,-7.3125000000,354.7500000000,image51.jpg,5112.5638520000
0.4941176474,-4.0000000000,5,50.8680170000,-0.0981925000,70.5000000000,-5.6875000000,-7.7500000000,354.0625000000,image52.jpg,5175.7529150000
0.4627451003,0.0000000000,5,50.8680168333,-0.0981928333,70.5000000000,-7.7500000000,-7.3125000000,353.2500000000,image53.jpg,5312.2580190000
0.4784313738,0.0000000000,5,50.8680166667,-0.0981933333,70.5000000000,-7.8750000000,-6.8750000000,352.8125000000,image54.jpg,5379.1368730000
0.4941176474,0.0000000000,5,50.8680165000,-0.0981938333,70.5000000000,-7.6250000000,-6.5000000000,352.5000000000,image55.jpg,5512.3605190000
0.5333333611,0.0000000000,5,50.8680163333,-0.0981940000,70.5000000000,-7.8750000000,-5.8125000000,352.6250000000,image56.jpg,5575.1851540000
0.5333333611,0.0000000000,5,50.8680161667,-0.0981943333,70.5000000000,-7.0000000000,-4.5625000000,352.8125000000,image57.jpg,5712.4882790000
0.5098039508,2.0000000000,5,50.8680158333,-0.0981948333,70.5000000000,-6.1875000000,-3.8125000000,352.5625000000,image58.jpg,5779.4550500000
0.5333333611,0.0000000000,5,50.8680156667,-0.0981953333,70.5000000000,-6.0625000000,-4.5000000000,352.1875000000,image59.jpg,5914.7102580000
0.5333333611,0.0000000000,5,50.8680155000,-0.0981960000,70.4000000000,-3.8750000000,-4.3750000000,352.6250000000,image60.jpg,5981.1707790000
0.5019608140,0.0000000000,5,50.8680150000,-0.0981961667,70.4000000000,-2.0625000000,-2.4375000000,352.3750000000,image61.jpg,6117.7433830000
0.5333333611,0.0000000000,5,50.8680146667,-0.0981963333,70.5000000000,-1.5625000000,-1.2500000000,352.6250000000,image62.jpg,6181.2289560000
0.5333333611,0.0000000000,5,50.8680146667,-0.0981965000,70.4000000000,-1.1875000000,0.4375000000,352.1875000000,image63.jpg,6313.6046330000
0.5490196347,0.0000000000,5,50.8680145000,-0.0981966667,70.4000000000,-1.1250000000,1.5625000000,352.7500000000,image64.jpg,6381.2118730000
0.5882353187,1.0000000000,5,50.8680145000,-0.0981968333,70.4000000000,-2.6250000000,1.8125000000,352.3750000000,image65.jpg,6514.2197370000
0.5803921819,0.0000000000,5,50.8680143333,-0.0981973333,70.4000000000,-2.0625000000,1.6875000000,352.6875000000,image66.jpg,6579.9936950000
0.6117647290,0.0000000000,5,50.8680140000,-0.0981978333,70.4000000000,-1.5625000000,2.0000000000,352.4375000000,image67.jpg,6713.6266120000
0.6117647290,0.0000000000,5,50.8680136667,-0.0981981667,70.4000000000,-1.3750000000,2.4375000000,352.5000000000,image68.jpg,6779.7123410000
0.6274510026,0.0000000000,5,50.8680135000,-0.0981985000,70.4000000000,-0.7500000000,5.1250000000,352.0625000000,image69.jpg,6914.3520810000
0.6274510026,3.0000000000,5,50.8680133333,-0.0981990000,70.4000000000,2.5625000000,6.0000000000,352.8125000000,image70.jpg,6979.8087990000
0.6117647290,0.0000000000,5,50.8680128333,-0.0981991667,70.4000000000,4.1875000000,5.8125000000,352.3125000000,image71.jpg,7113.1274450000
0.6117647290,0.0000000000,5,50.8680125000,-0.0981993333,70.4000000000,2.1250000000,4.0625000000,352.3750000000,image72.jpg,7179.2071850000
0.5411764979,0.0000000000,5,50.8680123333,-0.0981998333,70.4000000000,-2.3750000000,2.5625000000,352.1875000000,image73.jpg,7313.3412470000
0.6823529601,0.0000000000,5,50.8680121667,-0.0982006667,70.4000000000,-3.3750000000,3.9375000000,352.7500000000,image74.jpg,7379.3386950000
0.7607843280,0.0000000000,5,50.8680118333,-0.0982011667,70.4000000000,-1.5000000000,4.4375000000,352.4375000000,image75.jpg,7512.8886950000
0.7294117808,0.0000000000,5,50.8680115000,-0.0982015000,70.4000000000,-1.5625000000,3.8125000000,352.4375000000,image76.jpg,7581.3046850000
0.7215686440,1.0000000000,5,50.8680110000,-0.0982023333,70.4000000000,0.1250000000,2.0625000000,352.8125000000,image77.jpg,7712.8657260000
0.6745098233,0.0000000000,5,50.8680106667,-0.0982030000,70.4000000000,2.4375000000,1.1250000000,352.8125000000,image78.jpg,7781.8526010000
0.7215686440,0.0000000000,5,50.8680101667,-0.0982033333,70.4000000000,-1.0000000000,3.6250000000,350.1250000000,image79.jpg,7916.7808300000
0.7215686440,0.0000000000,5,50.8680098333,-0.0982043333,70.3000000000,-3.8125000000,2.2500000000,351.1250000000,image80.jpg,7980.3123930000
0.7215686440,0.0000000000,5,50.8680098333,-0.0982051667,70.4000000000,-3.3125000000,1.1875000000,350.9375000000,image81.jpg,8121.0348930000
0.7215686440,1.0000000000,5,50.8680093333,-0.0982055000,70.4000000000,-4.1250000000,1.8750000000,351.3750000000,image82.jpg,8179.5789030000
0.7215686440,0.0000000000,5,50.8680090000,-0.0982061667,70.4000000000,-1.1250000000,1.4375000000,351.5000000000,image83.jpg,8320.3117680000
0.7215686440,1.0000000000,5,50.8680085000,-0.0982066667,70.4000000000,-0.6250000000,0.9375000000,351.5625000000,image84.jpg,8379.8551530000
0.6666666865,4.0000000000,5,50.8680080000,-0.0982071667,70.4000000000,0.6875000000,1.1250000000,351.1875000000,image85.jpg,8516.3198930000
0.7215686440,3.0000000000,5,50.8680078333,-0.0982078333,70.4000000000,1.9375000000,3.1250000000,351.3750000000,image86.jpg,8579.5252050000
0.7215686440,1.0000000000,5,50.8680075000,-0.0982083333,70.3000000000,1.2500000000,2.4375000000,350.9375000000,image87.jpg,8716.9602570000
0.7215686440,2.0000000000,5,50.8680070000,-0.0982088333,70.3000000000,-0.3125000000,1.0625000000,351.4375000000,image88.jpg,8780.2597360000
0.7137255073,1.0000000000,5,50.8680066667,-0.0982098333,70.3000000000,-1.1875000000,0.0625000000,351.6875000000,image89.jpg,8918.7205170000
0.6666666865,0.0000000000,5,50.8680063333,-0.0982105000,70.3000000000,-3.3750000000,-0.3125000000,351.3750000000,image90.jpg,8980.0757780000
0.7137255073,0.0000000000,5,50.8680060000,-0.0982113333,70.3000000000,-1.6250000000,-1.2500000000,352.6250000000,image91.jpg,9119.4105690000
0.7294117808,0.0000000000,5,50.8680058333,-0.0982115000,70.3000000000,0.5625000000,-1.3750000000,352.7500000000,image92.jpg,9182.6102050000
0.7137255073,0.0000000000,5,50.8680051667,-0.0982118333,70.3000000000,0.4375000000,0.1250000000,352.3750000000,image93.jpg,9319.1229130000
0.7137255073,0.0000000000,5,50.8680045000,-0.0982126667,70.3000000000,-2.0000000000,1.6250000000,352.6250000000,image94.jpg,9383.6134860000
0.7137255073,0.0000000000,5,50.8680045000,-0.0982135000,70.3000000000,-2.4375000000,1.0625000000,351.3750000000,image95.jpg,9518.2194750000
0.7137255073,0.0000000000,5,50.8680041667,-0.0982140000,70.3000000000,-2.0000000000,-0.6250000000,350.5000000000,image96.jpg,9583.8909860000
0.6274510026,1.0000000000,5,50.8680036667,-0.0982145000,70.3000000000,-3.5000000000,4.1875000000,351.1250000000,image97.jpg,9719.6202570000
0.7294117808,0.0000000000,5,50.8680036667,-0.0982148333,70.2000000000,-2.1875000000,3.5625000000,351.3125000000,image98.jpg,9785.3333820000
0.7137255073,0.0000000000,5,50.8680033333,-0.0982153333,70.3000000000,3.9375000000,3.8125000000,350.1875000000,image99.jpg,9917.9079650000
0.7137255073,1.0000000000,5,50.8680030000,-0.0982155000,70.3000000000,2.8125000000,4.9375000000,350.0625000000,image100.jpg,9990.1936420000
0.7137255073,0.0000000000,5,50.8680028333,-0.0982161667,70.2000000000,-3.0000000000,3.6875000000,350.7500000000,image101.jpg,10116.5161940000
0.6901960969,0.0000000000,5,50.8680026667,-0.0982171667,70.3000000000,-1.8125000000,5.6250000000,351.1875000000,image102.jpg,10184.6008810000
0.7372549176,0.0000000000,5,50.8680023333,-0.0982175000,70.3000000000,2.1250000000,3.6250000000,350.2500000000,image103.jpg,10317.3222360000
0.7294117808,4.0000000000,5,50.8680016667,-0.0982178333,70.2000000000,0.4375000000,4.3125000000,350.5625000000,image104.jpg,10384.3072360000
0.6980392337,14.0000000000,5,50.8680015000,-0.0982185000,70.2000000000,0.5625000000,2.6250000000,350.0625000000,image105.jpg,10516.3786940000
0.7294117808,18.0000000000,5,50.8680013333,-0.0982190000,70.2000000000,1.3125000000,3.2500000000,350.3125000000,image106.jpg,10584.6590060000
0.7294117808,17.0000000000,5,50.8680010000,-0.0982195000,70.2000000000,-1.5625000000,4.0000000000,350.5625000000,image107.jpg,10719.7236940000
0.6980392337,16.0000000000,5,50.8680006667,-0.0982203333,70.2000000000,-0.5000000000,3.5000000000,352.0625000000,image108.jpg,10785.7298400000
0.6980392337,11.0000000000,5,50.8680003333,-0.0982208333,70.2000000000,1.5625000000,1.1875000000,352.6875000000,image109.jpg,10923.9076520000
0.6980392337,12.0000000000,5,50.8679998333,-0.0982213333,70.2000000000,0.8750000000,0.9375000000,353.1250000000,image110.jpg,10991.9120270000
0.7294117808,13.0000000000,5,50.8679995000,-0.0982220000,70.2000000000,-2.2500000000,3.1250000000,353.9375000000,image111.jpg,11123.1770790000
0.7294117808,13.0000000000,5,50.8679995000,-0.0982223333,70.2000000000,-3.5625000000,3.1250000000,354.6875000000,image112.jpg,11190.9345270000
0.7294117808,8.0000000000,5,50.8679991667,-0.0982231667,70.2000000000,-0.2500000000,-0.5625000000,357.1250000000,image113.jpg,11316.3680690000
0.6980392337,8.0000000000,5,50.8679986667,-0.0982240000,70.2000000000,2.7500000000,-0.9375000000,357.0625000000,image114.jpg,11391.6816620000
0.7294117808,8.0000000000,5,50.8679983333,-0.0982243333,70.2000000000,0.3750000000,2.8750000000,357.4375000000,image115.jpg,11520.6859850000
0.7294117808,11.0000000000,5,50.8679983333,-0.0982248333,70.2000000000,-0.8750000000,1.1875000000,356.8750000000,image116.jpg,11585.5848910000
0.6980392337,13.0000000000,5,50.8679980000,-0.0982256667,70.2000000000,-2.6250000000,1.7500000000,357.2500000000,image117.jpg,11726.3065580000
0.7294117808,14.0000000000,2,50.8679976667,-0.0982261667,70.2000000000,-2.1250000000,2.0000000000,358.2500000000,image118.jpg,11784.9603600000
0.7294117808,14.0000000000,2,50.8679973333,-0.0982270000,70.2000000000,1.1250000000,3.0625000000,359.6875000000,image119.jpg,11917.7173390000
0.6980392337,8.0000000000,2,50.8679970000,-0.0982275000,70.2000000000,1.3750000000,2.0000000000,0.3125000000,image120.jpg,11986.1406200000
0.7294117808,12.0000000000,2,50.8679965000,-0.0982285000,70.2000000000,0.0000000000,2.0625000000,1.6875000000,image121.jpg,12119.3497870000
0.7294117808,14.0000000000,5,50.8679965000,-0.0982291667,70.2000000000,0.2500000000,1.3125000000,1.6250000000,image122.jpg,12184.7270270000
0.7294117808,18.0000000000,5,50.8679961667,-0.0982300000,70.2000000000,1.9375000000,0.9375000000,2.6250000000,image123.jpg,12320.2234850000
0.7294117808,20.0000000000,5,50.8679958333,-0.0982305000,70.3000000000,3.2500000000,0.7500000000,3.1250000000,image124.jpg,12385.3398390000
0.7294117808,16.0000000000,5,50.8679955000,-0.0982313333,70.3000000000,1.5000000000,0.0000000000,4.6250000000,image125.jpg,12519.4039010000
0.7294117808,15.0000000000,5,50.8679951667,-0.0982321667,70.2000000000,1.9375000000,-0.0625000000,6.0000000000,image126.jpg,12584.2018700000
0.7294117808,12.0000000000,5,50.8679950000,-0.0982325000,70.2000000000,4.6250000000,-1.0000000000,7.0625000000,image127.jpg,12720.0414010000
0.7294117808,13.0000000000,5,50.8679946667,-0.0982331667,70.3000000000,5.1875000000,0.1875000000,8.6250000000,image128.jpg,12784.0335890000
0.6901960969,19.0000000000,5,50.8679945000,-0.0982336667,70.3000000000,4.1250000000,0.4375000000,10.1250000000,image129.jpg,12920.1734850000
0.7215686440,24.0000000000,5,50.8679941667,-0.0982348333,70.3000000000,4.3750000000,0.2500000000,11.0625000000,image130.jpg,12984.6630680000
0.7372549176,28.0000000000,5,50.8679941667,-0.0982360000,70.3000000000,6.0000000000,1.2500000000,13.1250000000,image131.jpg,13120.1656720000
0.6352941394,27.0000000000,5,50.8679940000,-0.0982366667,70.3000000000,8.4375000000,0.5625000000,14.4375000000,image132.jpg,13185.0773390000
nan,0.0000000000,5,50.8679935000,-0.0982376667,70.3000000000,9.6875000000,1.5625000000,16.0000000000,image133.jpg,13326.0905160000
nan,0.0000000000,5,50.8679933333,-0.0982385000,70.2000000000,6.1875000000,1.9375000000,17.4375000000,image134.jpg,13394.2405160000
nan,0.0000000000,5,50.8679935000,-0.0982390000,70.3000000000,0.8750000000,1.0000000000,20.1250000000,image135.jpg,13526.0293700000
nan,0.0000000000,5,50.8679935000,-0.0982395000,70.3000000000,0.0000000000,0.8125000000,22.1250000000,image136.jpg,13594.3911410000
nan,0.0000000000,5,50.8679935000,-0.0982400000,70.3000000000,2.3750000000,0.3750000000,23.0000000000,image137.jpg,13725.5608280000
nan,0.0000000000,5,50.8679933333,-0.0982403333,70.2000000000,3.2500000000,0.3750000000,22.8750000000,image138.jpg,13795.2112450000
0.9098039269,15.0000000000,5,50.8679931667,-0.0982406667,70.2000000000,3.1250000000,0.3750000000,23.0000000000,image139.jpg,13922.9354110000
0.8784313798,15.0000000000,5,50.8679931667,-0.0982405000,70.2000000000,5.1875000000,1.2500000000,22.0000000000,image140.jpg,13988.6396300000
0.9803921580,17.0000000000,5,50.8679931667,-0.0982408333,70.2000000000,6.0000000000,0.8125000000,23.1875000000,image141.jpg,14117.7139530000
1.0039216280,18.0000000000,5,50.8679930000,-0.0982415000,70.2000000000,6.5000000000,-0.5000000000,25.4375000000,image142.jpg,14189.0694220000
0.9176470637,21.0000000000,5,50.8679930000,-0.0982428333,70.2000000000,6.3750000000,-2.0625000000,26.5000000000,image143.jpg,14319.6956190000
0.8941176534,23.0000000000,5,50.8679928333,-0.0982443333,70.2000000000,4.5625000000,-1.5000000000,28.0625000000,image144.jpg,14388.9469740000
0.8078431487,23.0000000000,5,50.8679930000,-0.0982455000,70.2000000000,6.0000000000,1.0000000000,31.5625000000,image145.jpg,14519.9341610000
0.8862745166,23.0000000000,5,50.8679928333,-0.0982468333,70.2000000000,7.6250000000,1.0625000000,32.7500000000,image146.jpg,14588.3560880000
0.8784313798,21.0000000000,5,50.8679928333,-0.0982480000,70.2000000000,7.4375000000,1.5625000000,35.9375000000,image147.jpg,14719.4513480000
0.7921568751,18.0000000000,5,50.8679928333,-0.0982493333,70.2000000000,7.2500000000,2.5625000000,37.5000000000,image148.jpg,14790.4121300000
0.8784313798,14.0000000000,5,50.8679930000,-0.0982500000,70.2000000000,5.8750000000,0.9375000000,40.5000000000,image149.jpg,14920.8433800000
0.8705882430,16.0000000000,5,50.8679930000,-0.0982515000,70.2000000000,5.1875000000,2.4375000000,41.2500000000,image150.jpg,14988.8810360000
0.8313725591,17.0000000000,5,50.8679933333,-0.0982523333,70.2000000000,3.6875000000,1.6875000000,42.8125000000,image151.jpg,15121.9120780000
0.8627451062,17.0000000000,5,50.8679933333,-0.0982535000,70.2000000000,3.3125000000,0.0000000000,44.3750000000,image152.jpg,15188.7416090000
0.8627451062,12.0000000000,5,50.8679936667,-0.0982545000,70.2000000000,5.5625000000,0.4375000000,46.3125000000,image153.jpg,15321.8684840000
0.8627451062,9.0000000000,5,50.8679935000,-0.0982561667,70.2000000000,4.6250000000,1.8125000000,46.1250000000,image154.jpg,15388.1290570000
0.8705882430,0.0000000000,5,50.8679938333,-0.0982568333,70.2000000000,3.0625000000,2.2500000000,47.1875000000,image155.jpg,15521.0883270000
0.8313725591,-3.0000000000,5,50.8679940000,-0.0982580000,70.2000000000,1.0000000000,2.1250000000,47.4375000000,image156.jpg,15588.0217130000
0.8313725591,-5.0000000000,5,50.8679941667,-0.0982591667,70.2000000000,2.1250000000,5.8750000000,47.8750000000,image157.jpg,15720.6282230000
0.8627451062,-5.0000000000,5,50.8679943333,-0.0982595000,70.2000000000,4.3750000000,6.2500000000,47.1875000000,image158.jpg,15787.8789520000
0.8705882430,-2.0000000000,5,50.8679943333,-0.0982610000,70.2000000000,1.5625000000,2.0000000000,45.6875000000,image159.jpg,15922.6643170000
0.8313725591,0.0000000000,5,50.8679943333,-0.0982621667,70.2000000000,-1.0000000000,4.1250000000,44.8125000000,image160.jpg,15990.8922330000
0.8627451062,0.0000000000,5,50.8679948333,-0.0982628333,70.2000000000,-2.0000000000,0.8750000000,43.4375000000,image161.jpg,16124.6155150000
0.8627451062,-1.0000000000,5,50.8679950000,-0.0982641667,70.2000000000,-1.5625000000,0.3125000000,43.8125000000,image162.jpg,16188.3618690000
0.8313725591,3.0000000000,5,50.8679948333,-0.0982651667,70.2000000000,1.0000000000,3.3750000000,42.8750000000,image163.jpg,16324.9531710000
0.8705882430,7.0000000000,5,50.8679948333,-0.0982661667,70.2000000000,1.9375000000,1.8750000000,41.7500000000,image164.jpg,16388.0123900000
0.8627451062,19.0000000000,5,50.8679950000,-0.0982676667,70.2000000000,0.5000000000,2.7500000000,40.9375000000,image165.jpg,16524.5917640000
0.8627451062,21.0000000000,5,50.8679951667,-0.0982683333,70.2000000000,0.6875000000,2.6875000000,41.1250000000,image166.jpg,16587.9614000000
0.8627451062,29.0000000000,5,50.8679951667,-0.0982695000,70.2000000000,2.0625000000,0.8750000000,43.0625000000,image167.jpg,16724.3834830000
0.8313725591,30.0000000000,5,50.8679953333,-0.0982710000,70.2000000000,2.3750000000,0.9375000000,45.0625000000,image168.jpg,16788.1486910000
0.8627451062,32.0000000000,5,50.8679953333,-0.0982721667,70.2000000000,3.6250000000,2.0000000000,48.5000000000,image169.jpg,16924.9318160000
0.8627451062,32.0000000000,5,50.8679955000,-0.0982728333,70.2000000000,5.0000000000,2.0000000000,50.4375000000,image170.jpg,16988.4093680000
0.8627451062,32.0000000000,5,50.8679958333,-0.0982743333,70.2000000000,4.8125000000,2.9375000000,55.5625000000,image171.jpg,17124.0571290000
0.8705882430,34.0000000000,5,50.8679960000,-0.0982758333,70.2000000000,6.3125000000,2.1250000000,58.6875000000,image172.jpg,17188.6718160000
0.8627451062,29.0000000000,5,50.8679965000,-0.0982766667,70.2000000000,2.3125000000,4.8125000000,61.1250000000,image173.jpg,17324.0296290000
0.8627451062,25.0000000000,5,50.8679970000,-0.0982775000,70.2000000000,2.4375000000,3.0625000000,64.0625000000,image174.jpg,17392.3970250000
0.8313725591,12.0000000000,5,50.8679973333,-0.0982783333,70.2000000000,3.1250000000,4.0000000000,67.3750000000,image175.jpg,17524.0827020000
0.8627451062,9.0000000000,5,50.8679978333,-0.0982793333,70.2000000000,2.5000000000,4.7500000000,68.5000000000,image176.jpg,17592.0324410000
0.8627451062,10.0000000000,5,50.8679983333,-0.0982800000,70.2000000000,2.7500000000,3.7500000000,69.0625000000,image177.jpg,17723.7896290000
0.8627451062,11.0000000000,5,50.8679985000,-0.0982808333,70.2000000000,2.5625000000,2.8750000000,68.9375000000,image178.jpg,17791.5934310000
0.8627451062,20.0000000000,5,50.8679990000,-0.0982816667,70.2000000000,2.8125000000,1.5000000000,69.9375000000,image179.jpg,17925.0554100000
0.7764706016,22.0000000000,2,50.8679993333,-0.0982821667,70.2000000000,4.2500000000,1.3750000000,70.8125000000,image180.jpg,17991.6323890000
0.8627451062,19.0000000000,2,50.8679996667,-0.0982835000,70.2000000000,3.2500000000,2.8750000000,73.6875000000,image181.jpg,18126.0608260000
0.8627451062,11.0000000000,5,50.8680001667,-0.0982838333,70.2000000000,1.8125000000,2.6875000000,73.8750000000,image182.jpg,18191.7273890000
0.8627451062,10.0000000000,5,50.8680008333,-0.0982841667,70.2000000000,3.6250000000,2.1250000000,77.1250000000,image183.jpg,18325.1848890000
0.8627451062,10.0000000000,5,50.8680013333,-0.0982855000,70.2000000000,3.1875000000,3.0000000000,78.1250000000,image184.jpg,18393.8736390000
0.8627451062,4.0000000000,5,50.8680018333,-0.0982858333,70.2000000000,4.9375000000,2.3125000000,79.5000000000,image185.jpg,18525.9309300000
0.8627451062,4.0000000000,5,50.8680023333,-0.0982868333,70.2000000000,2.3750000000,2.0625000000,79.6250000000,image186.jpg,18592.4667120000
0.8156862855,4.0000000000,5,50.8680030000,-0.0982875000,70.3000000000,0.6875000000,1.8750000000,80.5000000000,image187.jpg,18723.3770240000
0.8627451062,2.0000000000,2,50.8680038333,-0.0982881667,70.2000000000,5.4375000000,-0.1875000000,80.5625000000,image188.jpg,18791.9136390000
0.8627451062,0.0000000000,2,50.8680040000,-0.0982888333,70.2000000000,2.1875000000,-0.2500000000,80.8125000000,image189.jpg,18924.5352010000
0.8627451062,1.0000000000,2,50.8680048333,-0.0982900000,70.2000000000,2.7500000000,-1.9375000000,79.5625000000,image190.jpg,18992.4732740000
0.8627451062,0.0000000000,2,50.8680051667,-0.0982901667,70.2000000000,1.6875000000,0.4375000000,78.5000000000,image191.jpg,19123.6101490000
0.8156862855,-1.0000000000,5,50.8680055000,-0.0982910000,70.2000000000,0.9375000000,0.2500000000,78.8750000000,image192.jpg,19192.7041070000
0.8627451062,-1.0000000000,5,50.8680063333,-0.0982923333,70.3000000000,5.9375000000,1.1250000000,77.6875000000,image193.jpg,19324.1261900000
0.8627451062,2.0000000000,5,50.8680065000,-0.0982931667,70.3000000000,1.5625000000,-0.3125000000,77.8750000000,image194.jpg,19392.8289510000
0.8627451062,4.0000000000,5,50.8680070000,-0.0982936667,70.2000000000,2.0625000000,1.2500000000,78.6250000000,image195.jpg,19524.3575970000
0.8627451062,7.0000000000,2,50.8680075000,-0.0982943333,70.2000000000,4.1250000000,0.1250000000,77.5000000000,image196.jpg,19593.3517110000
0.8627451062,6.0000000000,2,50.8680080000,-0.0982953333,70.3000000000,1.6875000000,-0.5625000000,78.6250000000,image197.jpg,19724.2496800000
0.8627451062,6.0000000000,2,50.8680086667,-0.0982961667,70.3000000000,1.1875000000,1.1250000000,78.7500000000,image198.jpg,19793.1326490000
0.7764706016,8.0000000000,2,50.8680091667,-0.0982968333,70.2000000000,1.1875000000,0.0000000000,79.7500000000,image199.jpg,19926.6366070000
0.8627451062,8.0000000000,2,50.8680095000,-0.0982973333,70.2000000000,0.6250000000,0.4375000000,80.8125000000,image200.jpg,19996.2900440000
0.8627451062,7.0000000000,2,50.8680100000,-0.0982978333,70.2000000000,0.5625000000,3.3750000000,81.0625000000,image201.jpg,20128.8806170000
0.8627451062,8.0000000000,5,50.8680105000,-0.0982986667,70.3000000000,-0.3125000000,1.5000000000,82.1250000000,image202.jpg,20192.3979610000
0.8627451062,7.0000000000,5,50.8680111667,-0.0982991667,70.2000000000,1.7500000000,1.7500000000,82.5625000000,image203.jpg,20328.0245760000
0.7764706016,9.0000000000,5,50.8680116667,-0.0983001667,70.2000000000,1.4375000000,3.6875000000,81.9375000000,image204.jpg,20392.2616590000
0.8784313798,9.0000000000,5,50.8680121667,-0.0983010000,70.3000000000,-0.4375000000,-0.8750000000,84.3125000000,image205.jpg,20529.0906690000
0.8627451062,9.0000000000,5,50.8680128333,-0.0983020000,70.3000000000,0.4375000000,0.6250000000,85.1875000000,image206.jpg,20592.6003570000
0.8705882430,12.0000000000,5,50.8680135000,-0.0983028333,70.3000000000,0.6875000000,-0.8125000000,86.6875000000,image207.jpg,20731.0430130000
0.8627451062,13.0000000000,5,50.8680141667,-0.0983036667,70.2000000000,2.8125000000,-0.5625000000,86.5625000000,image208.jpg,20793.9445230000
0.8627451062,13.0000000000,5,50.8680145000,-0.0983043333,70.3000000000,4.3750000000,0.9375000000,87.2500000000,image209.jpg,20931.1707210000
0.8627451062,14.0000000000,5,50.8680150000,-0.0983051667,70.3000000000,3.1250000000,0.8125000000,88.3125000000,image210.jpg,21007.2049920000
0.8313725591,14.0000000000,5,50.8680158333,-0.0983056667,70.3000000000,5.0625000000,3.4375000000,90.1250000000,image211.jpg,21135.5797310000
0.8313725591,14.0000000000,5,50.8680165000,-0.0983061667,70.3000000000,6.3750000000,4.7500000000,90.8750000000,image212.jpg,21194.3129610000
0.8627451062,14.0000000000,5,50.8680168333,-0.0983068333,70.3000000000,5.1250000000,5.0625000000,92.9375000000,image213.jpg,21329.3520230000
0.8627451062,14.0000000000,5,50.8680173333,-0.0983071667,70.3000000000,4.9375000000,5.0625000000,93.5625000000,image214.jpg,21396.9638460000
0.8627451062,14.0000000000,5,50.8680180000,-0.0983076667,70.3000000000,3.6250000000,2.8125000000,96.0000000000,image215.jpg,21528.7574400000
0.8313725591,13.0000000000,5,50.8680188333,-0.0983083333,70.3000000000,3.8750000000,2.2500000000,97.0000000000,image216.jpg,21596.7322310000
0.8627451062,11.0000000000,5,50.8680195000,-0.0983090000,70.3000000000,5.3125000000,1.4375000000,98.0000000000,image217.jpg,21728.3088460000
0.8627451062,7.0000000000,5,50.8680201667,-0.0983098333,70.3000000000,5.6250000000,3.1250000000,98.5625000000,image218.jpg,21798.8057210000
0.8313725591,3.0000000000,5,50.8680206667,-0.0983101667,70.3000000000,2.3750000000,1.6250000000,100.7500000000,image219.jpg,21927.9190020000
0.8627451062,4.0000000000,5,50.8680215000,-0.0983108333,70.3000000000,0.1250000000,2.3750000000,100.4375000000,image220.jpg,21998.2296270000
0.8627451062,5.0000000000,2,50.8680221667,-0.0983113333,70.3000000000,2.7500000000,1.1875000000,102.8125000000,image221.jpg,22128.9214500000
0.8313725591,6.0000000000,5,50.8680230000,-0.0983116667,70.3000000000,2.8125000000,-2.1875000000,102.8125000000,image222.jpg,22195.9641060000
0.8313725591,8.0000000000,5,50.8680235000,-0.0983118333,70.3000000000,-0.5625000000,1.1250000000,102.3750000000,image223.jpg,22328.4177520000
0.8313725591,7.0000000000,5,50.8680241667,-0.0983123333,70.3000000000,-0.1250000000,-0.6875000000,103.6875000000,image224.jpg,22396.4302000000
0.8627451062,8.0000000000,5,50.8680248333,-0.0983126667,70.3000000000,5.6250000000,0.3125000000,103.2500000000,image225.jpg,22528.3723870000
0.8627451062,10.0000000000,5,50.8680256667,-0.0983133333,70.3000000000,5.5625000000,1.6250000000,103.1875000000,image226.jpg,22596.7273870000
nan,0.0000000000,5,50.8680260000,-0.0983126667,70.3000000000,1.8125000000,-0.1875000000,104.4375000000,image227.jpg,22736.4940540000
nan,0.0000000000,2,50.8680265000,-0.0983120000,70.3000000000,3.0625000000,0.8125000000,105.5000000000,image228.jpg,22802.9157200000
nan,0.0000000000,2,50.8680271667,-0.0983110000,70.3000000000,5.5000000000,1.6250000000,107.1875000000,image229.jpg,22936.5827000000
nan,0.0000000000,2,50.8680273333,-0.0983108333,70.3000000000,4.7500000000,0.6250000000,109.4375000000,image230.jpg,23005.0307720000
nan,0.0000000000,2,50.8680281667,-0.0983113333,70.3000000000,0.8750000000,0.0000000000,108.8125000000,image231.jpg,23136.5414490000
0.8156862855,-7.0000000000,5,50.8680286667,-0.0983108333,70.2000000000,0.5625000000,1.4375000000,109.0625000000,image232.jpg,23198.6563970000
0.8627451062,-11.0000000000,5,50.8680288333,-0.0983106667,70.2000000000,5.2500000000,2.9375000000,109.4375000000,image233.jpg,23327.3237930000
0.9019607902,-11.0000000000,5,50.8680288333,-0.0983108333,70.2000000000,5.1250000000,1.4375000000,109.1875000000,image234.jpg,23396.7190540000
0.9254902005,-14.0000000000,5,50.8680295000,-0.0983111667,70.2000000000,1.5000000000,-1.5000000000,108.2500000000,image235.jpg,23526.9159810000
0.9098039269,-12.0000000000,5,50.8680303333,-0.0983115000,70.2000000000,-0.8750000000,-0.1875000000,107.3750000000,image236.jpg,23596.9267100000
0.9019607902,-11.0000000000,5,50.8680310000,-0.0983116667,70.2000000000,-3.6250000000,0.1875000000,105.5000000000,image237.jpg,23727.4449390000
0.8941176534,-10.0000000000,5,50.8680318333,-0.0983118333,70.2000000000,-0.2500000000,0.7500000000,103.7500000000,image238.jpg,23795.6283240000
0.8549019694,-10.0000000000,5,50.8680321667,-0.0983116667,70.2000000000,-2.1875000000,3.8750000000,101.5625000000,image239.jpg,23927.6013970000
0.9019607902,-10.0000000000,5,50.8680325000,-0.0983120000,70.2000000000,-3.1250000000,2.3750000000,101.0000000000,image240.jpg,23996.3362930000
0.9019607902,-10.0000000000,5,50.8680333333,-0.0983121667,70.2000000000,-2.8750000000,2.6250000000,98.5625000000,image241.jpg,24133.8755120000
0.8549019694,-9.0000000000,5,50.8680340000,-0.0983128333,70.2000000000,1.1875000000,3.1250000000,98.1250000000,image242.jpg,24195.9768140000
0.9019607902,-9.0000000000,5,50.8680345000,-0.0983136667,70.2000000000,3.0625000000,-0.8125000000,93.8125000000,image243.jpg,24336.7519180000
0.8470588326,-10.0000000000,5,50.8680348333,-0.0983140000,70.2000000000,0.1875000000,-1.0625000000,92.8750000000,image244.jpg,24396.8400950000
0.9019607902,-12.0000000000,5,50.8680355000,-0.0983150000,70.2000000000,-0.5625000000,-1.7500000000,91.2500000000,image245.jpg,24531.6708240000
0.9019607902,-12.0000000000,5,50.8680361667,-0.0983153333,70.2000000000,-3.3750000000,-2.5625000000,90.6875000000,image246.jpg,24597.0053030000
0.9019607902,-13.0000000000,5,50.8680370000,-0.0983153333,70.2000000000,-3.1875000000,0.1875000000,89.1250000000,image247.jpg,24732.1582200000
0.9019607902,-13.0000000000,2,50.8680376667,-0.0983168333,70.2000000000,-3.8125000000,0.4375000000,87.8125000000,image248.jpg,24796.3505110000
0.9019607902,-11.0000000000,2,50.8680378333,-0.0983173333,70.2000000000,-5.1875000000,0.9375000000,83.8125000000,image249.jpg,24932.0455630000
0.9019607902,-11.0000000000,2,50.8680386667,-0.0983180000,70.2000000000,-3.7500000000,2.1250000000,83.3750000000,image250.jpg,24996.1695220000
0.8156862855,-9.0000000000,2,50.8680393333,-0.0983186667,70.2000000000,-4.2500000000,1.5000000000,80.6250000000,image251.jpg,25132.9433760000
0.9019607902,-10.0000000000,5,50.8680396667,-0.0983195000,70.2000000000,-5.1875000000,2.6875000000,79.3750000000,image252.jpg,25196.1686360000
0.8941176534,-9.0000000000,5,50.8680401667,-0.0983195000,70.2000000000,-4.5625000000,0.7500000000,77.5625000000,image253.jpg,25334.3024900000
0.8627451062,-8.0000000000,5,50.8680406667,-0.0983198333,70.2000000000,-4.3750000000,0.1875000000,77.5625000000,image254.jpg,25399.8908240000
0.9019607902,-5.0000000000,5,50.8680410000,-0.0983203333,70.2000000000,-2.8750000000,0.2500000000,74.0000000000,image255.jpg,25532.4869690000
0.8627451062,-3.0000000000,5,50.8680413333,-0.0983211667,70.3000000000,-3.3750000000,-0.6875000000,74.1250000000,image256.jpg,25603.9465530000
0.8627451062,3.0000000000,5,50.8680418333,-0.0983218333,70.2000000000,-1.5625000000,1.0625000000,72.6875000000,image257.jpg,25732.1668650000
0.8941176534,5.0000000000,5,50.8680423333,-0.0983228333,70.2000000000,-1.0625000000,0.3125000000,73.1250000000,image258.jpg,25799.6249900000
0.8627451062,11.0000000000,5,50.8680428333,-0.0983238333,70.2000000000,-3.0000000000,0.0625000000,72.4375000000,image259.jpg,25934.2906670000
0.8941176534,12.0000000000,2,50.8680433333,-0.0983246667,70.2000000000,-2.3125000000,2.8750000000,72.7500000000,image260.jpg,26004.1747820000
0.8941176534,13.0000000000,2,50.8680438333,-0.0983256667,70.2000000000,2.3750000000,2.9375000000,73.9375000000,image261.jpg,26138.3989480000
0.8627451062,14.0000000000,5,50.8680441667,-0.0983265000,70.2000000000,1.5625000000,3.6250000000,73.8750000000,image262.jpg,26199.9655630000
0.8549019694,17.0000000000,5,50.8680445000,-0.0983273333,70.3000000000,-1.6875000000,0.8125000000,75.6875000000,image263.jpg,26333.7485320000
0.8941176534,16.0000000000,2,50.8680455000,-0.0983285000,70.3000000000,-1.6250000000,-1.6875000000,76.8125000000,image264.jpg,26400.7518650000
0.8941176534,18.0000000000,2,50.8680460000,-0.0983291667,70.3000000000,1.5625000000,0.5625000000,79.0000000000,image265.jpg,26532.7348860000
0.8549019694,20.0000000000,2,50.8680465000,-0.0983305000,70.3000000000,3.6875000000,1.1875000000,78.1875000000,image266.jpg,26603.0408750000
0.8941176534,19.0000000000,2,50.8680466667,-0.0983305000,70.2000000000,3.3125000000,1.0625000000,80.2500000000,image267.jpg,26732.0246250000
0.8627451062,20.0000000000,2,50.8680471667,-0.0983311667,70.2000000000,3.2500000000,2.3125000000,82.7500000000,image268.jpg,26801.9044690000
0.8627451062,22.0000000000,2,50.8680476667,-0.0983318333,70.2000000000,3.6250000000,2.2500000000,84.8125000000,image269.jpg,26932.3969170000
0.8941176534,22.0000000000,2,50.8680483333,-0.0983326667,70.2000000000,3.5000000000,0.0000000000,87.5000000000,image270.jpg,27000.1881150000
0.8627451062,22.0000000000,2,50.8680488333,-0.0983333333,70.2000000000,7.0625000000,-0.2500000000,90.6250000000,image271.jpg,27133.4606150000
nan,0.0000000000,5,50.8680491667,-0.0983343333,70.2000000000,4.1875000000,0.1875000000,92.5000000000,image272.jpg,27206.2781670000
nan,0.0000000000,5,50.8680498333,-0.0983350000,70.2000000000,0.1875000000,-0.3750000000,97.1250000000,image273.jpg,27337.3876460000
nan,0.0000000000,5,50.8680506667,-0.0983348333,70.2000000000,0.1875000000,0.8750000000,99.4375000000,image274.jpg,27404.9989480000
nan,0.0000000000,5,50.8680513333,-0.0983358333,70.2000000000,1.7500000000,-1.1250000000,102.7500000000,image275.jpg,27537.4134270000
nan,0.0000000000,5,50.8680521667,-0.0983365000,70.2000000000,-0.1250000000,0.8750000000,102.4375000000,image276.jpg,27604.0892080000
0.8941176534,35.0000000000,5,50.8680525000,-0.0983363333,70.2000000000,-1.1875000000,1.5625000000,104.2500000000,image277.jpg,27732.4384270000
0.8941176534,10.0000000000,5,50.8680530000,-0.0983361667,70.2000000000,-0.2500000000,1.4375000000,104.6250000000,image278.jpg,27798.8306140000
0.8941176534,11.0000000000,5,50.8680530000,-0.0983365000,70.2000000000,1.3125000000,3.2500000000,104.5000000000,image279.jpg,27930.1592600000
0.8392156959,11.0000000000,5,50.8680531667,-0.0983365000,70.2000000000,0.3125000000,1.2500000000,105.3750000000,image280.jpg,27999.6537390000
0.8941176534,12.0000000000,5,50.8680540000,-0.0983366667,70.2000000000,-3.5625000000,3.3750000000,106.6875000000,image281.jpg,28140.0203540000
0.8941176534,10.0000000000,5,50.8680546667,-0.0983370000,70.2000000000,-2.8125000000,2.5625000000,107.6875000000,image282.jpg,28202.5737910000
0.8941176534,8.0000000000,5,50.8680553333,-0.0983370000,70.2000000000,-0.5625000000,1.1250000000,109.3125000000,image283.jpg,28340.2372810000
0.8941176534,6.0000000000,5,50.8680561667,-0.0983378333,70.2000000000,-0.6875000000,0.2500000000,109.4375000000,image284.jpg,28402.6571250000
0.8941176534,-1.0000000000,5,50.8680565000,-0.0983383333,70.2000000000,-4.9375000000,-2.1875000000,109.7500000000,image285.jpg,28539.8754580000
0.8941176534,-2.0000000000,5,50.8680575000,-0.0983383333,70.2000000000,-5.1250000000,-2.9375000000,110.1250000000,image286.jpg,28603.5888430000
0.8941176534,-2.0000000000,5,50.8680585000,-0.0983385000,70.2000000000,-1.8750000000,-2.5000000000,109.0625000000,image287.jpg,28738.7747810000
0.8941176534,-5.0000000000,5,50.8680591667,-0.0983391667,70.2000000000,-2.1250000000,-2.1250000000,108.8125000000,image288.jpg,28800.8529060000
0.8078431487,-4.0000000000,5,50.8680610000,-0.0983396667,70.2000000000,-4.4375000000,-0.4375000000,107.3750000000,image289.jpg,28950.4659780000
0.8941176534,-6.0000000000,nan,nan,nan,nan,-4.3125000000,0.5625000000,107.1875000000,image290.jpg,29000.1623850000
0.8941176534,-7.0000000000,5,50.8680616667,-0.0983405000,70.2000000000,-2.7500000000,2.9375000000,106.5625000000,image291.jpg,29069.0333220000
0.8078431487,-6.0000000000,5,50.8680621667,-0.0983410000,70.2000000000,-4.3750000000,3.6250000000,105.6250000000,image292.jpg,29200.5691550000
0.8941176534,-7.0000000000,5,50.8680630000,-0.0983411667,70.2000000000,-0.8125000000,4.3125000000,106.0625000000,image293.jpg,29267.0388950000
0.8078431487,-3.0000000000,5,50.8680636667,-0.0983418333,70.2000000000,-3.3750000000,3.8750000000,104.1250000000,image294.jpg,29408.3139990000
0.8941176534,-2.0000000000,5,50.8680643333,-0.0983420000,70.2000000000,-3.8125000000,3.3125000000,104.0000000000,image295.jpg,29468.9592070000
0.8941176534,0.0000000000,5,50.8680648333,-0.0983423333,70.2000000000,-4.8750000000,3.6875000000,102.6250000000,image296.jpg,29605.2596240000
0.8000000119,1.0000000000,5,50.8680655000,-0.0983425000,70.2000000000,-4.1250000000,2.8125000000,103.0000000000,image297.jpg,29667.7245200000
0.8862745166,0.0000000000,5,50.8680663333,-0.0983428333,70.2000000000,-0.4375000000,2.6250000000,101.9375000000,image298.jpg,29804.9141550000
0.8941176534,0.0000000000,5,50.8680668333,-0.0983436667,70.2000000000,-1.5625000000,0.6250000000,102.5000000000,image299.jpg,29867.8183220000
0.8549019694,0.0000000000,2,50.8680676667,-0.0983440000,70.2000000000,-1.6875000000,1.9375000000,101.8750000000,image300.jpg,30004.1481130000
0.8941176534,0.0000000000,2,50.8680683333,-0.0983441667,70.2000000000,-2.8125000000,1.2500000000,101.6250000000,image301.jpg,30067.7939990000
0.8862745166,3.0000000000,5,50.8680688333,-0.0983446667,70.2000000000,-1.7500000000,3.0625000000,102.4375000000,image302.jpg,30217.6569680000
0.8470588326,4.0000000000,5,50.8680695000,-0.0983450000,70.2000000000,0.5625000000,2.1250000000,102.2500000000,image303.jpg,30268.2110300000
0.8470588326,4.0000000000,5,50.8680701667,-0.0983455000,70.2000000000,0.1250000000,0.0625000000,101.8125000000,image304.jpg,30408.2720200000
0.8549019694,2.0000000000,5,50.8680711667,-0.0983461667,70.2000000000,-0.5625000000,1.0625000000,101.7500000000,image305.jpg,30470.6054570000
0.8862745166,-3.0000000000,5,50.8680718333,-0.0983460000,70.2000000000,-1.1250000000,0.0625000000,101.9375000000,image306.jpg,30603.7379050000
0.8862745166,-3.0000000000,5,50.8680725000,-0.0983461667,70.2000000000,0.7500000000,0.0000000000,102.5625000000,image307.jpg,30672.5512380000
0.8784313798,-7.0000000000,5,50.8680731667,-0.0983466667,70.2000000000,-1.4375000000,1.8750000000,101.7500000000,image308.jpg,30804.9741550000
0.8470588326,-4.0000000000,2,50.8680738333,-0.0983470000,70.2000000000,0.1250000000,0.6875000000,101.1875000000,image309.jpg,30871.7378530000
0.8784313798,-5.0000000000,2,50.8680746667,-0.0983473333,70.2000000000,0.6875000000,-1.5625000000,98.5000000000,image310.jpg,31008.2058740000
0.8784313798,-7.0000000000,2,50.8680755000,-0.0983480000,70.2000000000,-2.1250000000,0.6875000000,98.0625000000,image311.jpg,31072.0008210000
0.8392156959,-6.0000000000,5,50.8680761667,-0.0983481667,70.2000000000,-2.0625000000,-0.8125000000,96.8125000000,image312.jpg,31211.6620710000
0.8784313798,-6.0000000000,5,50.8680766667,-0.0983486667,70.2000000000,-0.5625000000,-0.6875000000,96.6250000000,image313.jpg,31279.1429570000
0.8705882430,-7.0000000000,5,50.8680773333,-0.0983493333,70.2000000000,-1.6875000000,0.8125000000,94.8750000000,image314.jpg,31404.6351440000
0.8392156959,-7.0000000000,5,50.8680780000,-0.0983496667,70.2000000000,-3.1250000000,-1.4375000000,93.8125000000,image315.jpg,31472.9521750000
0.8313725591,-8.0000000000,5,50.8680788333,-0.0983501667,70.3000000000,-0.3125000000,-1.9375000000,93.4375000000,image316.jpg,31605.2919150000
0.8313725591,-11.0000000000,5,50.8680793333,-0.0983510000,70.2000000000,2.4375000000,-0.8750000000,91.2500000000,image317.jpg,31673.3474360000
0.8627451062,-10.0000000000,5,50.8680800000,-0.0983520000,70.2000000000,-1.0000000000,0.5625000000,89.6250000000,image318.jpg,31804.0660820000
0.8627451062,-7.0000000000,5,50.8680806667,-0.0983525000,70.2000000000,-1.0625000000,1.1250000000,88.2500000000,image319.jpg,31872.6625400000
0.8549019694,-4.0000000000,5,50.8680810000,-0.0983533333,70.2000000000,0.7500000000,1.5625000000,87.1250000000,image320.jpg,32005.0951960000
0.8627451062,4.0000000000,5,50.8680816667,-0.0983538333,70.2000000000,1.9375000000,4.0000000000,86.6250000000,image321.jpg,32072.7469150000
0.8549019694,12.0000000000,5,50.8680821667,-0.0983543333,70.2000000000,-3.8750000000,4.3125000000,85.0000000000,image322.jpg,32212.6907170000
0.8549019694,14.0000000000,5,50.8680828333,-0.0983548333,70.2000000000,-4.5625000000,4.4375000000,86.7500000000,image323.jpg,32274.1956130000
0.8235294223,17.0000000000,5,50.8680833333,-0.0983548333,70.3000000000,3.0000000000,1.4375000000,87.0625000000,image324.jpg,32408.6736850000
0.8627451062,17.0000000000,5,50.8680838333,-0.0983560000,70.2000000000,3.7500000000,2.5625000000,87.5625000000,image325.jpg,32472.4695190000
0.8627451062,14.0000000000,5,50.8680843333,-0.0983563333,70.2000000000,0.7500000000,2.5625000000,89.8750000000,image326.jpg,32609.2616540000
0.8549019694,12.0000000000,5,50.8680850000,-0.0983566667,70.2000000000,-1.5000000000,1.8750000000,89.3125000000,image327.jpg,32676.8394670000
0.8627451062,9.0000000000,5,50.8680855000,-0.0983571667,70.2000000000,-4.1250000000,3.2500000000,93.1875000000,image328.jpg,32805.5783730000
0.7764706016,8.0000000000,5,50.8680861667,-0.0983570000,70.2000000000,0.6250000000,1.8750000000,93.1875000000,image329.jpg,32872.1343100000
0.8627451062,7.0000000000,5,50.8680866667,-0.0983583333,70.2000000000,6.3125000000,2.6875000000,93.5000000000,image330.jpg,33007.9029040000
0.8627451062,5.0000000000,5,50.8680871667,-0.0983591667,70.2000000000,4.4375000000,1.6875000000,93.6250000000,image331.jpg,33071.7572790000
0.8627451062,0.0000000000,5,50.8680876667,-0.0983593333,70.2000000000,-2.0000000000,1.3125000000,94.6250000000,image332.jpg,33204.9702480000
0.8549019694,1.0000000000,5,50.8680885000,-0.0983593333,70.2000000000,1.1250000000,4.0000000000,95.2500000000,image333.jpg,33276.3436850000
0.8627451062,0.0000000000,5,50.8680890000,-0.0983600000,70.2000000000,6.2500000000,2.3750000000,95.2500000000,image334.jpg,33409.3327480000
0.8627451062,0.0000000000,5,50.8680891667,-0.0983610000,70.2000000000,4.2500000000,1.1875000000,95.0000000000,image335.jpg,33473.2611330000
0.8078431487,0.0000000000,5,50.8680900000,-0.0983613333,70.2000000000,-1.5000000000,3.5625000000,93.9375000000,image336.jpg,33609.4975910000
0.8627451062,0.0000000000,5,50.8680908333,-0.0983613333,70.2000000000,-1.5625000000,2.8750000000,94.4375000000,image337.jpg,33675.7851430000
0.8627451062,0.0000000000,5,50.8680913333,-0.0983618333,70.2000000000,3.1250000000,0.7500000000,93.6875000000,image338.jpg,33808.5671750000
0.8078431487,2.0000000000,5,50.8680916667,-0.0983630000,70.2000000000,0.1875000000,5.1250000000,92.6875000000,image339.jpg,33872.6724870000
0.8627451062,1.0000000000,5,50.8680921667,-0.0983630000,70.2000000000,-0.0625000000,3.3125000000,93.8750000000,image340.jpg,34009.4319140000
0.8078431487,0.0000000000,5,50.8680931667,-0.0983631667,70.2000000000,0.1875000000,2.3750000000,93.8750000000,image341.jpg,34076.0857680000
0.8549019694,1.0000000000,5,50.8680936667,-0.0983641667,70.3000000000,-1.8750000000,1.9375000000,93.6250000000,image342.jpg,34208.8504560000
0.8549019694,2.0000000000,5,50.8680943333,-0.0983643333,70.2000000000,-1.1875000000,2.9375000000,93.0625000000,image343.jpg,34277.1425390000
0.8627451062,-7.0000000000,5,50.8680948333,-0.0983650000,70.3000000000,-1.9375000000,1.8125000000,91.7500000000,image344.jpg,34410.2048830000
0.8627451062,-16.0000000000,5,50.8680956667,-0.0983656667,70.3000000000,-1.5000000000,3.0000000000,91.4375000000,image345.jpg,34477.7634240000
0.8627451062,-21.0000000000,5,50.8680960000,-0.0983661667,70.2000000000,-1.0625000000,4.3125000000,90.3125000000,image346.jpg,34608.4539970000
0.8627451062,-23.0000000000,5,50.8680965000,-0.0983668333,70.2000000000,-3.2500000000,2.3125000000,88.1875000000,image347.jpg,34675.6842580000
0.8078431487,-19.0000000000,5,50.8680971667,-0.0983675000,70.2000000000,-1.7500000000,1.4375000000,85.0625000000,image348.jpg,34814.1825390000
0.8627451062,-19.0000000000,5,50.8680980000,-0.0983678333,70.2000000000,0.5625000000,1.3750000000,82.7500000000,image349.jpg,34875.9177990000
0.8627451062,-16.0000000000,5,50.8680981667,-0.0983686667,70.2000000000,0.1250000000,1.0625000000,230.3750000000,image350.jpg,35010.8495180000
0.7764706016,-14.0000000000,2,50.8680988333,-0.0983698333,70.3000000000,0.3125000000,1.4375000000,228.6875000000,image351.jpg,35075.5588410000
0.8627451062,-15.0000000000,5,50.8680991667,-0.0983701667,70.2000000000,0.5625000000,2.0625000000,225.8125000000,image352.jpg,35209.9326430000
0.7764706016,-15.0000000000,2,50.8680995000,-0.0983708333,70.2000000000,2.2500000000,0.0000000000,225.6875000000,image353.jpg,35276.6730070000
0.8627451062,-9.0000000000,2,50.8680998333,-0.0983718333,70.2000000000,2.6875000000,2.3125000000,222.8125000000,image354.jpg,35412.3168090000
0.8627451062,-7.0000000000,2,50.8681000000,-0.0983730000,70.2000000000,3.6250000000,3.5000000000,221.8750000000,image355.jpg,35477.0746740000
0.8627451062,-3.0000000000,2,50.8681003333,-0.0983735000,70.2000000000,2.4375000000,2.5000000000,220.5000000000,image356.jpg,35612.3968610000
0.8627451062,0.0000000000,2,50.8681006667,-0.0983741667,70.2000000000,3.0000000000,2.1250000000,221.1250000000,image357.jpg,35675.7750380000
0.8627451062,5.0000000000,2,50.8681010000,-0.0983748333,70.1000000000,3.0625000000,2.3750000000,220.6250000000,image358.jpg,35810.5796740000
0.8549019694,6.0000000000,2,50.8681013333,-0.0983756667,70.1000000000,1.8750000000,1.6250000000,220.1875000000,image359.jpg,35877.8069650000
0.8235294223,8.0000000000,2,50.8681021667,-0.0983768333,70.2000000000,5.3750000000,-0.1875000000,220.9375000000,image360.jpg,36011.5969130000
0.8627451062,8.0000000000,2,50.8681025000,-0.0983773333,70.2000000000,4.0625000000,1.1250000000,220.6250000000,image361.jpg,36077.3457150000
0.8627451062,7.0000000000,5,50.8681026667,-0.0983780000,70.2000000000,3.3125000000,1.2500000000,221.9375000000,image362.jpg,36208.5872260000
0.8235294223,7.0000000000,5,50.8681035000,-0.0983790000,70.3000000000,4.1250000000,1.5625000000,221.6875000000,image363.jpg,36277.1323820000
0.8627451062,7.0000000000,5,50.8681036667,-0.0983801667,70.3000000000,4.3750000000,2.0000000000,223.8125000000,image364.jpg,36413.7604030000
0.8313725591,8.0000000000,5,50.8681041667,-0.0983808333,70.3000000000,5.9375000000,2.3125000000,223.1875000000,image365.jpg,36475.7948300000
0.8235294223,12.0000000000,5,50.8681043333,-0.0983816667,70.3000000000,-0.8750000000,-0.4375000000,224.1875000000,image366.jpg,36612.4462360000
0.8627451062,14.0000000000,2,50.8681051667,-0.0983820000,70.3000000000,-1.3750000000,1.2500000000,226.3750000000,image367.jpg,36675.6350900000
0.8235294223,14.0000000000,2,50.8681055000,-0.0983828333,70.3000000000,4.7500000000,1.3750000000,226.5625000000,image368.jpg,36813.4655590000
0.8627451062,14.0000000000,2,50.8681056667,-0.0983838333,70.3000000000,5.5000000000,0.1875000000,227.5625000000,image369.jpg,36876.1292570000
0.8627451062,13.0000000000,2,50.8681063333,-0.0983845000,70.3000000000,-1.0000000000,1.5625000000,227.6250000000,image370.jpg,37012.7040480000
0.8313725591,8.0000000000,2,50.8681070000,-0.0983846667,70.3000000000,0.0625000000,2.8750000000,228.5625000000,image371.jpg,37075.9799340000
nan,0.0000000000,5,50.8681075000,-0.0983856667,70.2000000000,5.2500000000,2.1875000000,230.3125000000,image372.jpg,37218.7769650000
nan,0.0000000000,5,50.8681078333,-0.0983868333,70.2000000000,7.1875000000,2.3125000000,230.8125000000,image373.jpg,37281.8635790000
nan,0.0000000000,5,50.8681081667,-0.0983873333,70.2000000000,3.1875000000,1.0625000000,230.6250000000,image374.jpg,37417.9882150000
nan,0.0000000000,5,50.8681088333,-0.0983880000,70.2000000000,0.6250000000,-0.6250000000,230.8125000000,image375.jpg,37481.9517040000
nan,0.0000000000,2,50.8681096667,-0.0983888333,70.2000000000,0.9375000000,0.6250000000,233.8750000000,image376.jpg,37619.0039440000
nan,0.0000000000,2,50.8681096667,-0.0983895000,70.2000000000,0.9375000000,0.5000000000,233.8750000000,image377.jpg,37687.8589440000
0.8862745166,16.0000000000,2,50.8681096667,-0.0983895000,70.2000000000,0.4375000000,0.5000000000,234.1250000000,image378.jpg,37812.4280580000
0.8941176534,15.0000000000,2,50.8681098333,-0.0983895000,70.2000000000,1.0000000000,0.6250000000,232.6250000000,image379.jpg,37879.6210270000
0.9176470637,15.0000000000,2,50.8681098333,-0.0983896667,70.2000000000,4.0625000000,-2.1250000000,234.3125000000,image380.jpg,38013.2349850000
0.9098039269,15.0000000000,2,50.8681105000,-0.0983908333,70.2000000000,2.3750000000,-1.1250000000,235.0000000000,image381.jpg,38079.6623810000
0.9098039269,15.0000000000,2,50.8681111667,-0.0983916667,70.2000000000,2.0625000000,-0.1875000000,236.5625000000,image382.jpg,38213.2033710000
0.9098039269,14.0000000000,2,50.8681116667,-0.0983920000,70.2000000000,0.7500000000,-1.0000000000,237.6250000000,image383.jpg,38279.3032150000
0.8784313798,7.0000000000,2,50.8681125000,-0.0983928333,70.2000000000,1.4375000000,-1.3750000000,241.2500000000,image384.jpg,38413.6882670000
0.8784313798,3.0000000000,2,50.8681130000,-0.0983933333,70.2000000000,1.6250000000,-0.6250000000,241.5625000000,image385.jpg,38479.9009750000
0.9098039269,-1.0000000000,2,50.8681138333,-0.0983938333,70.2000000000,-1.3750000000,2.1250000000,242.9375000000,image386.jpg,38613.9806620000
0.9098039269,-1.0000000000,2,50.8681141667,-0.0983938333,70.2000000000,0.1875000000,1.1875000000,243.1875000000,image387.jpg,38681.4016520000
0.9019607902,-1.0000000000,2,50.8681148333,-0.0983941667,70.2000000000,2.6250000000,2.0000000000,243.0000000000,image388.jpg,38814.3027460000
0.8627451062,0.0000000000,2,50.8681153333,-0.0983950000,70.2000000000,1.5625000000,2.6875000000,242.6250000000,image389.jpg,38879.6318080000
0.8941176534,0.0000000000,2,50.8681160000,-0.0983953333,70.2000000000,-0.3750000000,1.8750000000,241.3750000000,image390.jpg,39012.7412870000
0.8941176534,-1.0000000000,2,50.8681165000,-0.0983958333,70.2000000000,2.0000000000,2.1250000000,241.2500000000,image391.jpg,39080.0289430000
0.8627451062,-3.0000000000,5,50.8681171667,-0.0983971667,70.2000000000,4.0000000000,2.2500000000,240.5000000000,image392.jpg,39216.1394120000
0.8941176534,-2.0000000000,5,50.8681175000,-0.0983976667,70.2000000000,1.8750000000,2.3750000000,240.1250000000,image393.jpg,39281.6941520000
0.8941176534,-1.0000000000,2,50.8681181667,-0.0983981667,70.2000000000,1.6250000000,1.6250000000,239.0000000000,image394.jpg,39413.2509740000
0.8549019694,-1.0000000000,2,50.8681188333,-0.0983986667,70.2000000000,4.1875000000,2.0000000000,238.6250000000,image395.jpg,39481.6552450000
0.8549019694,1.0000000000,2,50.8681195000,-0.0983991667,70.2000000000,3.8125000000,3.5000000000,237.7500000000,image396.jpg,39615.4988390000
0.8549019694,0.0000000000,2,50.8681201667,-0.0983995000,70.2000000000,3.8125000000,4.0000000000,237.2500000000,image397.jpg,39681.2612350000
0.8941176534,2.0000000000,2,50.8681206667,-0.0984001667,70.3000000000,2.3750000000,1.6250000000,236.7500000000,image398.jpg,39814.7823810000
0.8784313798,4.0000000000,2,50.8681215000,-0.0984011667,70.3000000000,0.0000000000,1.1250000000,236.5000000000,image399.jpg,39880.8574330000
0.8705882430,10.0000000000,2,50.8681220000,-0.0984020000,70.3000000000,1.6875000000,0.0000000000,237.7500000000,image400.jpg,40015.9513390000
0.8627451062,15.0000000000,2,50.8681225000,-0.0984025000,70.3000000000,4.0000000000,-0.5625000000,237.8750000000,image401.jpg,40081.3255050000
0.8705882430,15.0000000000,2,50.8681230000,-0.0984028333,70.2000000000,0.8125000000,2.4375000000,237.9375000000,image402.jpg,40213.4304010000
0.8705882430,15.0000000000,2,50.8681235000,-0.0984035000,70.2000000000,1.8750000000,2.6875000000,238.1875000000,image403.jpg,40280.5765470000
0.8392156959,15.0000000000,2,50.8681241667,-0.0984036667,70.3000000000,0.8750000000,3.7500000000,239.0000000000,image404.jpg,40418.2411820000
0.8705882430,16.0000000000,2,50.8681245000,-0.0984046667,70.2000000000,1.6250000000,3.5625000000,239.7500000000,image405.jpg,40479.8597240000
0.8705882430,7.0000000000,2,50.8681248333,-0.0984050000,70.3000000000,1.8125000000,1.8125000000,240.1875000000,image406.jpg,40617.4039430000
0.8470588326,5.0000000000,2,50.8681256667,-0.0984053333,70.2000000000,0.3750000000,1.0625000000,242.0625000000,image407.jpg,40680.9608700000
0.8705882430,1.0000000000,2,50.8681263333,-0.0984056667,70.2000000000,0.8750000000,2.5625000000,243.0000000000,image408.jpg,40817.0155050000
0.8392156959,-2.0000000000,2,50.8681266667,-0.0984058333,70.3000000000,2.8750000000,3.9375000000,243.9375000000,image409.jpg,40881.0147760000
0.8705882430,-9.0000000000,2,50.8681270000,-0.0984060000,70.2000000000,-2.2500000000,7.9375000000,242.0625000000,image410.jpg,41019.2222240000
0.8705882430,-8.0000000000,2,50.8681275000,-0.0984066667,70.2000000000,-3.1250000000,6.5625000000,241.9375000000,image411.jpg,41080.8622760000
0.8705882430,-14.0000000000,2,50.8681281667,-0.0984061667,70.2000000000,-2.4375000000,1.1875000000,241.5000000000,image412.jpg,41224.0864430000
0.8705882430,-16.0000000000,2,50.8681285000,-0.0984065000,70.1000000000,-1.7500000000,4.2500000000,241.0000000000,image413.jpg,41280.0914950000
0.8705882430,-18.0000000000,2,50.8681281667,-0.0984070000,70.2000000000,-0.3750000000,4.0000000000,241.6875000000,image414.jpg,41417.2527450000
0.8784313798,-19.0000000000,2,50.8681283333,-0.0984070000,70.2000000000,-0.1250000000,3.9375000000,241.1875000000,image415.jpg,41484.1904530000
1.0039216280,-17.0000000000,2,50.8681285000,-0.0984075000,70.2000000000,0.0000000000,4.1250000000,242.0625000000,image416.jpg,41617.2617550000
1.0039216280,-17.0000000000,2,50.8681283333,-0.0984078333,70.2000000000,0.3125000000,3.8125000000,241.5000000000,image417.jpg,41685.4613380000
1.0039216280,-15.0000000000,2,50.8681283333,-0.0984075000,70.2000000000,-0.2500000000,4.2500000000,242.3125000000,image418.jpg,41816.8499320000
1.0039216280,-12.0000000000,2,50.8681283333,-0.0984075000,70.2000000000,1.0625000000,3.8125000000,241.0000000000,image419.jpg,41885.2124840000
0.4235294163,8.0000000000,2,50.8681283333,-0.0984073333,70.2000000000,1.0625000000,4.0625000000,241.1875000000,image420.jpg,42017.8437860000
-0.0235294122,10.0000000000,2,50.8681283333,-0.0984071667,70.3000000000,0.6250000000,4.0625000000,241.3750000000,image421.jpg,42085.9460260000
-0.4705882370,16.0000000000,5,50.8681283333,-0.0984071667,70.2000000000,-0.3750000000,3.7500000000,241.2500000000,image422.jpg,42217.5972230000
-0.9960784316,19.0000000000,5,50.8681285000,-0.0984070000,70.2000000000,-1.0625000000,3.4375000000,241.3750000000,image423.jpg,42284.5327440000
-0.9960784316,19.0000000000,5,50.8681285000,-0.0984068333,70.2000000000,-5.9375000000,0.8750000000,241.5625000000,image424.jpg,42418.5283690000
