speed,steering angle,gps quality,lat,lon,altitude,roll,pitch,yaw,image name,timestamp
0.0549019612,0.0000000000,5,50.8680531667,-0.0981986667,71.1000000000,13.3750000000,0.7500000000,0.0000000000,image0.jpg,105.3283850000
0.0549019612,1.0000000000,nan,nan,nan,nan,13.3750000000,0.7500000000,0.0000000000,image1.jpg,167.8593740000
-0.0156862754,0.0000000000,5,50.8680531667,-0.0981983333,71.3000000000,13.3750000000,0.7500000000,0.0000000000,image2.jpg,232.2801560000
0.0392156877,0.0000000000,5,50.8680531667,-0.0981983333,71.3000000000,13.3750000000,0.7500000000,0.0000000000,image3.jpg,370.8793740000
0.0392156877,0.0000000000,5,50.8680531667,-0.0981981667,71.3000000000,13.3750000000,0.7500000000,0.0000000000,image4.jpg,432.2613540000
0.0549019612,0.0000000000,5,50.8680533333,-0.0981983333,71.3000000000,13.3750000000,0.7500000000,0.0000000000,image5.jpg,570.8893740000
0.0549019612,1.0000000000,5,50.8680533333,-0.0981981667,71.3000000000,13.3750000000,0.7500000000,0.0000000000,image6.jpg,632.8063010000
0.0549019612,0.0000000000,5,50.8680533333,-0.0981983333,71.3000000000,13.3750000000,0.7500000000,0.0000000000,image7.jpg,771.0439580000
0.0392156877,0.0000000000,5,50.8680533333,-0.0981983333,71.3000000000,13.3750000000,0.7500000000,0.0000000000,image8.jpg,833.4198950000
0.0000000000,1.0000000000,5,50.8680533333,-0.0981983333,71.3000000000,13.3750000000,0.7500000000,0.0000000000,image9.jpg,971.8939050000
0.1882352978,0.0000000000,5,50.8680535000,-0.0981983333,71.3000000000,13.3750000000,0.7500000000,0.0000000000,image10.jpg,1036.2398430000
0.2745098174,0.0000000000,5,50.8680533333,-0.0981985000,71.3000000000,13.3750000000,0.7500000000,0.0000000000,image11.jpg,1171.0411970000
0.2980392277,2.0000000000,5,50.8680535000,-0.0981983333,71.3000000000,13.3125000000,0.8125000000,0.1250000000,image12.jpg,1234.5128120000
0.3058823645,0.0000000000,5,50.8680535000,-0.0981983333,71.3000000000,13.3125000000,0.9375000000,0.0625000000,image13.jpg,1369.7139570000
0.2274509817,1.0000000000,5,50.8680535000,-0.0981985000,71.3000000000,13.2500000000,1.0000000000,0.0625000000,image14.jpg,1437.7441140000
0.3686274588,0.0000000000,5,50.8680535000,-0.0981985000,71.3000000000,13.2500000000,1.1875000000,0.0625000000,image15.jpg,1569.8063530000
0.3686274588,0.0000000000,5,50.8680535000,-0.0981985000,71.4000000000,13.2500000000,1.2500000000,0.0625000000,image16.jpg,1638.4017180000
0.3921568692,0.0000000000,5,50.8680535000,-0.0981985000,71.4000000000,13.5000000000,1.1875000000,0.0625000000,image17.jpg,1770.0932800000
0.3921568692,0.0000000000,5,50.8680533333,-0.0981983333,71.4000000000,13.6875000000,1.1875000000,0.0000000000,image18.jpg,1832.5216660000
0.3843137324,0.0000000000,5,50.8680533333,-0.0981985000,71.4000000000,14.1250000000,0.5625000000,359.8750000000,image19.jpg,1970.4149990000
0.4078431427,0.0000000000,5,50.8680533333,-0.0981986667,71.4000000000,14.1250000000,0.1250000000,359.8125000000,image20.jpg,2035.5728630000
0.3843137324,1.0000000000,5,50.8680531667,-0.0981986667,71.4000000000,14.3125000000,-0.4375000000,359.5000000000,image21.jpg,2170.9413530000
0.4235294163,0.0000000000,5,50.8680531667,-0.0981988333,71.4000000000,14.2500000000,-0.6875000000,359.3750000000,image22.jpg,2238.6330720000
0.4549019635,0.0000000000,5,50.8680528333,-0.0981991667,71.4000000000,12.7500000000,-1.0625000000,359.2500000000,image23.jpg,2370.6353110000
0.4627451003,1.0000000000,5,50.8680528333,-0.0981993333,71.4000000000,12.5625000000,-1.4375000000,359.3125000000,image24.jpg,2439.4292170000
0.4392156899,0.0000000000,5,50.8680526667,-0.0981995000,71.4000000000,14.2500000000,-1.6250000000,358.9375000000,image25.jpg,2571.1438010000
0.4078431427,1.0000000000,5,50.8680523333,-0.0981996667,71.4000000000,14.9375000000,-1.1875000000,358.7500000000,image26.jpg,2636.2398940000
0.4392156899,0.0000000000,5,50.8680521667,-0.0981998333,71.4000000000,15.8750000000,-1.1875000000,358.0625000000,image27.jpg,2771.1855190000
0.4392156899,0.0000000000,5,50.8680520000,-0.0982000000,71.4000000000,16.8125000000,-0.8125000000,358.3125000000,image28.jpg,2836.3420300000
0.4235294163,0.0000000000,5,50.8680518333,-0.0982001667,71.5000000000,19.9375000000,-0.8125000000,357.8750000000,image29.jpg,2972.3023940000
0.4392156899,0.0000000000,5,50.8680515000,-0.0982001667,71.4000000000,20.8125000000,-0.8125000000,358.0625000000,image30.jpg,3038.6630710000
0.4470588267,0.0000000000,5,50.8680513333,-0.0982001667,71.4000000000,22.7500000000,-0.9375000000,357.3750000000,image31.jpg,3169.1027590000
0.4156862795,-2.0000000000,5,50.8680511667,-0.0982003333,71.4000000000,22.8125000000,-1.5000000000,356.8125000000,image32.jpg,3238.4054670000
0.4313725531,-4.0000000000,5,50.8680508333,-0.0982005000,71.5000000000,22.3750000000,-2.1875000000,356.6250000000,image33.jpg,3370.1819250000
0.4313725531,-6.0000000000,5,50.8680506667,-0.0982008333,71.4000000000,22.4375000000,-1.6875000000,357.0625000000,image34.jpg,3438.4701540000
0.5098039508,-5.0000000000,5,50.8680505000,-0.0982010000,71.4000000000,20.1250000000,-1.5000000000,356.1250000000,image35.jpg,3568.6518730000
0.5176470876,-4.0000000000,5,50.8680503333,-0.0982013333,71.4000000000,18.0000000000,-1.8125000000,356.3750000000,image36.jpg,3638.4181750000
0.5176470876,-5.0000000000,5,50.8680498333,-0.0982016667,71.5000000000,16.8750000000,-3.5625000000,356.6875000000,image37.jpg,3768.8451540000
0.4862745106,-2.0000000000,5,50.8680493333,-0.0982016667,71.5000000000,18.7500000000,-3.2500000000,355.6250000000,image38.jpg,3838.0696860000
0.5176470876,-3.0000000000,5,50.8680491667,-0.0982015000,71.5000000000,18.8750000000,-3.2500000000,355.6875000000,image39.jpg,3970.2895810000
0.5176470876,-1.0000000000,5,50.8680490000,-0.0982016667,71.5000000000,18.6250000000,-2.6875000000,355.3125000000,image40.jpg,4038.0426020000
0.4862745106,0.0000000000,5,50.8680488333,-0.0982016667,71.5000000000,18.3750000000,-1.9375000000,354.5000000000,image41.jpg,4174.5041130000
0.5176470876,0.0000000000,5,50.8680486667,-0.0982016667,71.5000000000,17.8125000000,-1.8750000000,354.5000000000,image42.jpg,4236.1929150000
0.5254902244,0.0000000000,5,50.8680483333,-0.0982018333,71.4000000000,17.2500000000,-1.6875000000,354.3125000000,image43.jpg,4373.4434870000
0.4862745106,0.0000000000,5,50.8680481667,-0.0982018333,71.5000000000,16.3750000000,-2.2500000000,354.0625000000,image44.jpg,4436.4619770000
0.5254902244,2.0000000000,5,50.8680480000,-0.0982025000,71.5000000000,11.9375000000,-2.5625000000,353.1250000000,image45.jpg,4569.1576020000
0.5098039508,0.0000000000,5,50.8680475000,-0.0982030000,71.5000000000,10.8750000000,-2.3750000000,353.1875000000,image46.jpg,4636.9743210000
0.5333333611,0.0000000000,5,50.8680473333,-0.0982035000,71.5000000000,12.6250000000,-2.3750000000,354.0000000000,image47.jpg,4774.5050500000
0.5333333611,2.0000000000,5,50.8680470000,-0.0982035000,71.5000000000,13.5000000000,-3.0000000000,353.5625000000,image48.jpg,4837.2098410000
0.5333333611,0.0000000000,5,50.8680466667,-0.0982043333,71.5000000000,15.0625000000,-7.8125000000,352.3125000000,image49.jpg,4973.4593210000
0.5333333611,4.0000000000,5,50.8680461667,-0.0982046667,71.5000000000,14.8750000000,-7.5625000000,351.4375000000,image50.jpg,5042.3197890000
0.5411764979,4.0000000000,5,50.8680458333,-0.0982051667,71.5000000000,14.4375000000,-9.1250000000,351.1875000000,image51.jpg,5173.5371330000
0.5411764979,8.0000000000,5,50.8680453333,-0.0982055000,71.5000000000,13.4375000000,-10.0000000000,349.4375000000,image52.jpg,5241.4467160000
0.4470588267,8.0000000000,5,50.8680450000,-0.0982061667,71.5000000000,9.0000000000,-8.8750000000,349.9375000000,image53.jpg,5373.8591120000
0.5333333611,8.0000000000,5,50.8680450000,-0.0982065000,71.5000000000,8.1875000000,-8.2500000000,350.7500000000,image54.jpg,5442.0464560000
0.5333333611,9.0000000000,5,50.8680448333,-0.0982071667,71.5000000000,10.0625000000,-7.4375000000,350.8750000000,image55.jpg,5574.1445290000
0.4862745106,9.0000000000,5,50.8680445000,-0.0982071667,71.5000000000,11.1875000000,-6.0000000000,350.8125000000,image56.jpg,5642.1527060000
0.5647059083,11.0000000000,5,50.8680441667,-0.0982075000,71.5000000000,12.7500000000,-5.1250000000,353.0000000000,image57.jpg,5774.7547370000
0.5254902244,10.0000000000,5,50.8680436667,-0.0982081667,71.4000000000,12.8750000000,-3.6875000000,352.6875000000,image58.jpg,5843.3296850000
0.5803921819,10.0000000000,5,50.8680433333,-0.0982085000,71.4000000000,9.1250000000,-2.3125000000,351.9375000000,image59.jpg,5977.3791120000
0.5882353187,11.0000000000,5,50.8680431667,-0.0982091667,71.4000000000,9.5000000000,-1.5625000000,352.3750000000,image60.jpg,6041.0074450000
0.6274510026,10.0000000000,5,50.8680430000,-0.0982095000,71.4000000000,12.0625000000,-1.8125000000,351.8750000000,image61.jpg,6174.0566120000
0.6588235497,11.0000000000,5,50.8680428333,-0.0982093333,71.4000000000,11.7500000000,-2.0625000000,351.6875000000,image62.jpg,6241.9232260000
0.7450980544,11.0000000000,5,50.8680425000,-0.0982098333,71.4000000000,14.2500000000,-3.0000000000,352.3750000000,image63.jpg,6377.1501530000
0.7450980544,11.0000000000,5,50.8680420000,-0.0982101667,71.4000000000,12.8125000000,-2.1250000000,352.3750000000,image64.jpg,6443.5993200000
0.6980392337,11.0000000000,5,50.8680415000,-0.0982108333,71.4000000000,5.8750000000,-3.4375000000,353.5625000000,image65.jpg,6572.7767160000
0.7450980544,11.0000000000,5,50.8680413333,-0.0982118333,71.4000000000,3.5000000000,-3.6875000000,354.3750000000,image66.jpg,6640.2987990000
0.7450980544,13.0000000000,5,50.8680406667,-0.0982130000,71.4000000000,10.5625000000,-6.1250000000,357.0625000000,image67.jpg,6774.1076530000
0.6980392337,16.0000000000,5,50.8680400000,-0.0982130000,71.4000000000,13.3125000000,-4.3750000000,357.9375000000,image68.jpg,6842.8247890000
0.7450980544,28.0000000000,5,50.8680395000,-0.0982131667,71.4000000000,10.6875000000,-6.1875000000,357.4375000000,image69.jpg,6975.3963510000
0.6588235497,32.0000000000,5,50.8680391667,-0.0982141667,71.4000000000,8.4375000000,-3.4375000000,358.6875000000,image70.jpg,7042.1845280000
0.7450980544,34.0000000000,2,50.8680390000,-0.0982148333,71.4000000000,8.0000000000,-2.2500000000,4.3125000000,image71.jpg,7173.8439030000
0.7450980544,34.0000000000,2,50.8680383333,-0.0982156667,71.4000000000,8.7500000000,-0.0625000000,6.4375000000,image72.jpg,7241.3461430000
0.7450980544,34.0000000000,2,50.8680380000,-0.0982160000,71.3000000000,7.6250000000,0.0000000000,9.3750000000,image73.jpg,7375.2993200000
0.7450980544,33.0000000000,2,50.8680378333,-0.0982165000,71.4000000000,8.1875000000,2.6250000000,10.7500000000,image74.jpg,7440.2249450000
0.7450980544,35.0000000000,5,50.8680378333,-0.0982170000,71.3000000000,8.4375000000,4.6875000000,10.5000000000,image75.jpg,7577.3060900000
0.7450980544,33.0000000000,5,50.8680376667,-0.0982173333,71.3000000000,5.8125000000,4.1250000000,11.0625000000,image76.jpg,7640.3256740000
0.6509804130,35.0000000000,5,50.8680375000,-0.0982181667,71.3000000000,6.3750000000,6.8125000000,15.1250000000,image77.jpg,7778.4127050000
0.7372549176,34.0000000000,5,50.8680373333,-0.0982186667,71.3000000000,7.3750000000,5.3125000000,16.4375000000,image78.jpg,7840.0663510000
0.7372549176,34.0000000000,5,50.8680370000,-0.0982195000,71.3000000000,7.8125000000,3.0625000000,19.7500000000,image79.jpg,7978.3797880000
0.7372549176,35.0000000000,5,50.8680366667,-0.0982203333,71.3000000000,7.0000000000,3.3750000000,21.1875000000,image80.jpg,8050.4580170000
0.7450980544,33.0000000000,5,50.8680365000,-0.0982210000,71.3000000000,8.3125000000,1.5000000000,23.6250000000,image81.jpg,8178.0767670000
0.7137255073,34.0000000000,5,50.8680365000,-0.0982218333,71.3000000000,8.6875000000,0.1875000000,25.3125000000,image82.jpg,8240.1703090000
0.7450980544,34.0000000000,5,50.8680363333,-0.0982225000,71.3000000000,6.9375000000,-1.1875000000,28.6250000000,image83.jpg,8378.3147880000
0.7450980544,34.0000000000,5,50.8680363333,-0.0982236667,71.3000000000,5.2500000000,-1.3125000000,31.3750000000,image84.jpg,8440.4582780000
0.7215686440,34.0000000000,5,50.8680361667,-0.0982243333,71.3000000000,3.0625000000,-0.1875000000,35.2500000000,image85.jpg,8578.3957250000
0.7450980544,33.0000000000,5,50.8680360000,-0.0982248333,71.3000000000,2.2500000000,-0.3125000000,36.8750000000,image86.jpg,8640.3033820000
0.7450980544,34.0000000000,5,50.8680360000,-0.0982258333,71.3000000000,4.5000000000,-0.3125000000,41.8750000000,image87.jpg,8778.6078090000
0.7137255073,33.0000000000,5,50.8680360000,-0.0982266667,71.3000000000,5.8750000000,-1.8750000000,43.6875000000,image88.jpg,8840.4677570000
0.7137255073,34.0000000000,5,50.8680356667,-0.0982276667,71.3000000000,2.7500000000,0.2500000000,46.5000000000,image89.jpg,8979.6355690000
0.7450980544,33.0000000000,5,50.8680361667,-0.0982285000,71.3000000000,2.1250000000,0.1250000000,47.4375000000,image90.jpg,9044.7816630000
0.7686274648,34.0000000000,5,50.8680361667,-0.0982291667,71.3000000000,4.6875000000,1.8125000000,51.8750000000,image91.jpg,9177.5183290000
0.7137255073,33.0000000000,5,50.8680360000,-0.0982298333,71.2000000000,5.7500000000,2.3750000000,54.3125000000,image92.jpg,9246.4143710000
0.7529411912,33.0000000000,5,50.8680361667,-0.0982306667,71.2000000000,6.0625000000,2.6250000000,58.2500000000,image93.jpg,9378.5135380000
0.7215686440,34.0000000000,2,50.8680365000,-0.0982313333,71.3000000000,4.8125000000,2.2500000000,58.9375000000,image94.jpg,9445.7856730000
0.7215686440,34.0000000000,5,50.8680365000,-0.0982323333,71.2000000000,2.7500000000,-1.0000000000,63.8125000000,image95.jpg,9578.4337460000
0.7529411912,29.0000000000,5,50.8680365000,-0.0982330000,71.2000000000,2.0000000000,-1.9375000000,64.6875000000,image96.jpg,9645.2969750000
0.7215686440,20.0000000000,5,50.8680370000,-0.0982341667,71.3000000000,3.1875000000,0.3125000000,68.5625000000,image97.jpg,9778.7504650000
0.7529411912,28.0000000000,5,50.8680371667,-0.0982348333,71.3000000000,2.5000000000,1.6250000000,71.0000000000,image98.jpg,9844.1760900000
0.7529411912,35.0000000000,5,50.8680373333,-0.0982358333,71.3000000000,5.6250000000,3.8750000000,73.8750000000,image99.jpg,9978.9194230000
0.7215686440,34.0000000000,5,50.8680373333,-0.0982366667,71.3000000000,8.5000000000,3.9375000000,74.4375000000,image100.jpg,10046.0226520000
0.7529411912,35.0000000000,5,50.8680373333,-0.0982373333,71.3000000000,4.5625000000,4.1875000000,76.6875000000,image101.jpg,10180.2892140000
0.7529411912,34.0000000000,5,50.8680378333,-0.0982378333,71.3000000000,3.1875000000,3.8750000000,80.1250000000,image102.jpg,10244.5191100000
0.7607843280,24.0000000000,5,50.8680381667,-0.0982388333,71.3000000000,1.4375000000,2.1250000000,84.8125000000,image103.jpg,10379.0701520000
0.7529411912,21.0000000000,2,50.8680386667,-0.0982398333,71.4000000000,1.5625000000,2.4375000000,86.5625000000,image104.jpg,10444.1265580000
0.7607843280,18.0000000000,2,50.8680390000,-0.0982405000,71.4000000000,0.0000000000,1.1250000000,89.4375000000,image105.jpg,10579.5420270000
0.7607843280,19.0000000000,2,50.8680395000,-0.0982411667,71.4000000000,0.1250000000,1.1875000000,90.9375000000,image106.jpg,10646.9144750000
0.7294117808,18.0000000000,2,50.8680401667,-0.0982418333,71.4000000000,0.6250000000,2.8750000000,92.7500000000,image107.jpg,10777.6318700000
0.7843137383,17.0000000000,2,50.8680405000,-0.0982428333,71.4000000000,0.7500000000,1.5625000000,94.4375000000,image108.jpg,10848.1136410000
0.7294117808,21.0000000000,2,50.8680408333,-0.0982433333,71.5000000000,-3.6875000000,3.6875000000,95.8125000000,image109.jpg,10986.4350470000
0.7686274648,23.0000000000,2,50.8680415000,-0.0982438333,71.4000000000,-4.9375000000,2.9375000000,96.9375000000,image110.jpg,11046.2661410000
0.7686274648,22.0000000000,2,50.8680418333,-0.0982440000,71.5000000000,-4.5000000000,1.7500000000,98.3125000000,image111.jpg,11179.6618180000
0.6745098233,12.0000000000,2,50.8680420000,-0.0982450000,71.4000000000,-5.1250000000,1.0000000000,99.7500000000,image112.jpg,11245.5481720000
0.7686274648,4.0000000000,2,50.8680425000,-0.0982453333,71.5000000000,-5.3125000000,1.7500000000,102.3125000000,image113.jpg,11379.2591620000
0.7686274648,1.0000000000,2,50.8680430000,-0.0982460000,71.5000000000,-6.0625000000,1.9375000000,101.8125000000,image114.jpg,11445.3548910000
0.7686274648,-8.0000000000,5,50.8680436667,-0.0982461667,71.5000000000,-7.3125000000,0.6875000000,102.0000000000,image115.jpg,11578.7023910000
0.7686274648,-7.0000000000,5,50.8680443333,-0.0982471667,71.5000000000,-8.3125000000,0.6250000000,101.7500000000,image116.jpg,11647.6349430000
0.7686274648,-7.0000000000,5,50.8680448333,-0.0982475000,71.5000000000,-6.5000000000,1.8750000000,102.3125000000,image117.jpg,11782.0334330000
0.7686274648,-4.0000000000,2,50.8680450000,-0.0982481667,71.5000000000,-5.8125000000,3.1250000000,100.9375000000,image118.jpg,11844.2790580000
0.7294117808,4.0000000000,2,50.8680456667,-0.0982490000,71.4000000000,-4.1875000000,5.4375000000,101.1250000000,image119.jpg,11981.9193180000
0.7686274648,6.0000000000,2,50.8680456667,-0.0982493333,71.5000000000,-4.3750000000,5.9375000000,100.9375000000,image120.jpg,12050.8978070000
0.7215686440,8.0000000000,2,50.8680461667,-0.0982495000,71.5000000000,-5.8125000000,6.1250000000,101.4375000000,image121.jpg,12182.3106200000
0.7764706016,8.0000000000,2,50.8680466667,-0.0982500000,71.5000000000,-6.5000000000,6.9375000000,101.9375000000,image122.jpg,12244.5903070000
0.7686274648,10.0000000000,2,50.8680471667,-0.0982505000,71.5000000000,-3.3750000000,6.8125000000,102.8125000000,image123.jpg,12381.7110360000
0.7215686440,10.0000000000,2,50.8680476667,-0.0982510000,71.5000000000,-0.9375000000,5.0625000000,102.7500000000,image124.jpg,12445.3646820000
0.7686274648,5.0000000000,5,50.8680480000,-0.0982520000,71.4000000000,0.6875000000,3.5000000000,102.0000000000,image125.jpg,12583.3710880000
0.7764706016,3.0000000000,5,50.8680486667,-0.0982528333,71.4000000000,0.7500000000,4.2500000000,102.5000000000,image126.jpg,12645.2766090000
0.7764706016,1.0000000000,5,50.8680493333,-0.0982533333,71.4000000000,-1.3125000000,3.2500000000,102.5625000000,image127.jpg,12781.3898380000
0.7764706016,2.0000000000,5,50.8680498333,-0.0982535000,71.4000000000,0.5000000000,4.3750000000,103.5000000000,image128.jpg,12846.6405150000
0.7764706016,2.0000000000,5,50.8680501667,-0.0982548333,71.4000000000,3.0000000000,3.7500000000,103.7500000000,image129.jpg,12982.1950470000
0.7764706016,3.0000000000,5,50.8680505000,-0.0982555000,71.4000000000,2.7500000000,2.5000000000,104.4375000000,image130.jpg,13052.5812970000
0.6901960969,8.0000000000,2,50.8680510000,-0.0982560000,71.4000000000,-0.5000000000,2.5625000000,103.3750000000,image131.jpg,13180.3216090000
0.7764706016,9.0000000000,2,50.8680518333,-0.0982565000,71.4000000000,-2.4375000000,3.2500000000,104.2500000000,image132.jpg,13250.4043170000
0.6901960969,16.0000000000,2,50.8680523333,-0.0982566667,71.4000000000,0.2500000000,3.4375000000,104.6875000000,image133.jpg,13382.5939010000
0.7764706016,15.0000000000,2,50.8680525000,-0.0982578333,71.5000000000,0.0000000000,3.8125000000,105.2500000000,image134.jpg,13450.8192130000
0.7843137383,8.0000000000,5,50.8680530000,-0.0982581667,71.4000000000,-0.3125000000,4.6875000000,107.1250000000,image135.jpg,13581.0115570000
0.6980392337,4.0000000000,5,50.8680536667,-0.0982585000,71.4000000000,-2.2500000000,6.6250000000,107.8125000000,image136.jpg,13651.2333800000
0.7843137383,0.0000000000,5,50.8680543333,-0.0982590000,71.5000000000,-6.4375000000,8.2500000000,108.8750000000,image137.jpg,13782.9347340000
0.7843137383,0.0000000000,5,50.8680548333,-0.0982595000,71.5000000000,-5.6250000000,8.6875000000,108.5625000000,image138.jpg,13849.6595780000
0.7843137383,4.0000000000,5,50.8680551667,-0.0982596667,71.5000000000,-3.8125000000,9.8750000000,109.3125000000,image139.jpg,13981.3022860000
0.7843137383,8.0000000000,5,50.8680558333,-0.0982601667,71.5000000000,-3.0625000000,12.1875000000,108.5000000000,image140.jpg,14051.6249420000
0.7843137383,17.0000000000,2,50.8680561667,-0.0982608333,71.5000000000,-2.1875000000,7.3125000000,107.8750000000,image141.jpg,14180.4302550000
0.7764706016,19.0000000000,2,50.8680565000,-0.0982615000,71.5000000000,-2.6875000000,5.0000000000,108.1250000000,image142.jpg,14249.7088480000
0.7450980544,23.0000000000,2,50.8680573333,-0.0982621667,71.5000000000,-2.1250000000,3.6250000000,109.5625000000,image143.jpg,14381.2464000000
0.7450980544,21.0000000000,2,50.8680578333,-0.0982625000,71.5000000000,-2.3750000000,4.5625000000,111.0000000000,image144.jpg,14451.0762960000
0.7450980544,8.0000000000,5,50.8680581667,-0.0982623333,71.5000000000,-3.4375000000,-0.8125000000,113.3750000000,image145.jpg,14582.1733270000
0.7843137383,9.0000000000,5,50.8680585000,-0.0982630000,71.6000000000,-2.0625000000,-1.0000000000,115.7500000000,image146.jpg,14650.6892650000
0.7921568751,13.0000000000,5,50.8680591667,-0.0982635000,71.6000000000,1.6250000000,3.6875000000,116.9375000000,image147.jpg,14780.4183270000
0.7450980544,18.0000000000,5,50.8680596667,-0.0982643333,71.5000000000,0.0000000000,3.1875000000,115.2500000000,image148.jpg,14850.4912440000
0.7843137383,22.0000000000,5,50.8680603333,-0.0982641667,71.6000000000,-0.3125000000,4.8125000000,116.4375000000,image149.jpg,14981.2175460000
0.7843137383,26.0000000000,5,50.8680606667,-0.0982643333,71.6000000000,-1.4375000000,6.2500000000,116.1250000000,image150.jpg,15048.9928580000
0.7529411912,31.0000000000,5,50.8680611667,-0.0982645000,71.6000000000,-2.0000000000,5.8750000000,119.7500000000,image151.jpg,15180.7470250000
0.7843137383,32.0000000000,5,50.8680618333,-0.0982648333,71.6000000000,0.9375000000,6.0625000000,122.0000000000,image152.jpg,15251.0099940000
0.7921568751,31.0000000000,5,50.8680623333,-0.0982655000,71.6000000000,3.0000000000,4.1250000000,123.8125000000,image153.jpg,15381.3607230000
0.7921568751,28.0000000000,5,50.8680628333,-0.0982658333,71.6000000000,-1.0625000000,3.4375000000,123.5000000000,image154.jpg,15449.5972850000
0.7529411912,24.0000000000,5,50.8680635000,-0.0982653333,71.6000000000,-1.6250000000,1.0625000000,127.3125000000,image155.jpg,15585.4705140000
0.7529411912,21.0000000000,5,50.8680638333,-0.0982653333,71.6000000000,1.0625000000,2.9375000000,128.8750000000,image156.jpg,15648.5665040000
0.7529411912,16.0000000000,5,50.8680643333,-0.0982658333,71.5000000000,-1.0000000000,1.6875000000,132.1250000000,image157.jpg,15785.1535350000
0.7921568751,14.0000000000,5,50.8680650000,-0.0982660000,71.6000000000,0.5625000000,0.4375000000,134.5625000000,image158.jpg,15848.9052540000
0.7921568751,12.0000000000,5,50.8680655000,-0.0982658333,71.6000000000,-3.5000000000,0.3750000000,135.0625000000,image159.jpg,15985.0447330000
0.7921568751,8.0000000000,5,50.8680658333,-0.0982656667,71.6000000000,-4.5000000000,0.5625000000,136.6250000000,image160.jpg,16048.8532230000
0.7921568751,0.0000000000,5,50.8680665000,-0.0982651667,71.6000000000,-3.6250000000,0.1250000000,137.7500000000,image161.jpg,16185.2873890000
0.7921568751,0.0000000000,5,50.8680670000,-0.0982655000,71.5000000000,-4.4375000000,1.1250000000,137.8750000000,image162.jpg,16249.1655660000
0.7529411912,-1.0000000000,5,50.8680676667,-0.0982655000,71.5000000000,-4.8750000000,-0.9375000000,137.2500000000,image163.jpg,16385.5812950000
0.7921568751,-2.0000000000,5,50.8680685000,-0.0982655000,71.5000000000,-4.2500000000,0.3750000000,137.5625000000,image164.jpg,16448.4811910000
0.7921568751,-6.0000000000,nan,nan,nan,nan,-0.4375000000,2.1875000000,135.9375000000,image165.jpg,16585.5223890000
0.7921568751,-6.0000000000,5,50.8680696667,-0.0982660000,71.5000000000,-4.6250000000,0.5000000000,134.1875000000,image166.jpg,16648.8561390000
0.7921568751,-6.0000000000,5,50.8680705000,-0.0982658333,71.5000000000,-4.1875000000,1.2500000000,134.6875000000,image167.jpg,16784.9618160000
0.7607843280,-6.0000000000,5,50.8680708333,-0.0982656667,71.5000000000,-3.2500000000,1.5625000000,133.5625000000,image168.jpg,16848.8124930000
0.7921568751,-2.0000000000,5,50.8680718333,-0.0982663333,71.5000000000,-2.6875000000,1.7500000000,133.1250000000,image169.jpg,16985.9245240000
0.7921568751,0.0000000000,5,50.8680723333,-0.0982663333,71.6000000000,-3.2500000000,3.3750000000,132.3750000000,image170.jpg,17053.9685350000
0.7921568751,2.0000000000,5,50.8680730000,-0.0982661667,71.6000000000,-4.4375000000,3.5625000000,130.1875000000,image171.jpg,17185.4908780000
0.7921568751,3.0000000000,5,50.8680736667,-0.0982660000,71.6000000000,-4.0625000000,4.1250000000,130.6250000000,image172.jpg,17255.1788470000
0.7921568751,0.0000000000,5,50.8680743333,-0.0982661667,71.6000000000,-2.6250000000,3.3125000000,130.5000000000,image173.jpg,17386.2349410000
0.7921568751,0.0000000000,5,50.8680748333,-0.0982663333,71.6000000000,-2.8750000000,2.1875000000,130.0000000000,image174.jpg,17453.7775970000
0.7529411912,0.0000000000,5,50.8680755000,-0.0982665000,71.6000000000,-3.6875000000,4.0000000000,131.1250000000,image175.jpg,17586.3457220000
0.7921568751,0.0000000000,5,50.8680760000,-0.0982666667,71.6000000000,-0.5625000000,0.5000000000,130.8125000000,image176.jpg,17653.6367640000
0.7921568751,0.0000000000,5,50.8680770000,-0.0982675000,71.6000000000,-3.1875000000,0.0000000000,129.5000000000,image177.jpg,17786.2616590000
0.7921568751,-1.0000000000,5,50.8680775000,-0.0982676667,71.6000000000,-5.5625000000,0.1250000000,129.8750000000,image178.jpg,17852.5258260000
0.8000000119,1.0000000000,5,50.8680781667,-0.0982673333,71.6000000000,-3.1875000000,4.8125000000,129.7500000000,image179.jpg,17986.2913470000
0.7450980544,0.0000000000,5,50.8680785000,-0.0982676667,71.6000000000,-1.7500000000,3.3750000000,131.0625000000,image180.jpg,18055.8009820000
0.7921568751,0.0000000000,5,50.8680790000,-0.0982678333,71.6000000000,0.1250000000,3.6875000000,130.1875000000,image181.jpg,18185.7667110000
0.8000000119,0.0000000000,5,50.8680796667,-0.0982685000,71.6000000000,-0.9375000000,3.3750000000,129.9375000000,image182.jpg,18253.8042630000
0.7921568751,0.0000000000,5,50.8680805000,-0.0982686667,71.6000000000,-4.5000000000,3.4375000000,129.4375000000,image183.jpg,18385.3105650000
0.7921568751,1.0000000000,5,50.8680811667,-0.0982683333,71.6000000000,-2.1875000000,0.3750000000,129.4375000000,image184.jpg,18453.6992630000
0.8000000119,1.0000000000,5,50.8680820000,-0.0982691667,71.6000000000,-3.8750000000,1.5625000000,129.3125000000,image185.jpg,18585.8957740000
0.8000000119,0.0000000000,5,50.8680826667,-0.0982691667,71.6000000000,-2.3125000000,1.0000000000,128.8750000000,image186.jpg,18654.9002530000
0.7450980544,1.0000000000,5,50.8680831667,-0.0982691667,71.6000000000,0.6875000000,0.2500000000,127.8125000000,image187.jpg,18784.8570240000
0.8000000119,1.0000000000,5,50.8680836667,-0.0982696667,71.6000000000,-0.4375000000,2.0625000000,128.5625000000,image188.jpg,18853.7701490000
0.8000000119,6.0000000000,5,50.8680843333,-0.0982698333,71.6000000000,-0.6875000000,3.8750000000,128.6875000000,image189.jpg,18985.5922840000
0.8000000119,9.0000000000,5,50.8680850000,-0.0982700000,71.6000000000,1.0000000000,2.7500000000,128.3750000000,image190.jpg,19053.9108260000
0.8000000119,12.0000000000,5,50.8680856667,-0.0982705000,71.6000000000,0.4375000000,5.5625000000,128.6875000000,image191.jpg,19186.8499400000
0.7215686440,13.0000000000,2,50.8680863333,-0.0982706667,71.6000000000,2.4375000000,5.7500000000,129.6250000000,image192.jpg,19253.9224400000
0.7921568751,8.0000000000,2,50.8680868333,-0.0982711667,71.6000000000,2.3750000000,5.4375000000,129.9375000000,image193.jpg,19385.0149400000
0.8000000119,3.0000000000,2,50.8680875000,-0.0982710000,71.6000000000,3.1875000000,4.3750000000,131.1875000000,image194.jpg,19452.8739500000
0.7921568751,2.0000000000,5,50.8680880000,-0.0982713333,71.6000000000,1.6875000000,4.0000000000,131.7500000000,image195.jpg,19584.7699920000
0.8000000119,2.0000000000,5,50.8680888333,-0.0982715000,71.6000000000,-0.1250000000,3.0000000000,131.5000000000,image196.jpg,19653.7518670000
0.7921568751,3.0000000000,5,50.8680893333,-0.0982715000,71.6000000000,1.5000000000,3.5625000000,132.2500000000,image197.jpg,19790.3982730000
0.8156862855,3.0000000000,5,50.8680901667,-0.0982721667,71.6000000000,2.3125000000,1.6875000000,132.3125000000,image198.jpg,19852.6872320000
0.7137255073,4.0000000000,5,50.8680905000,-0.0982725000,71.6000000000,-0.3750000000,2.3125000000,132.1250000000,image199.jpg,19990.0262420000
0.8000000119,4.0000000000,5,50.8680911667,-0.0982726667,71.5000000000,-0.7500000000,3.4375000000,132.0000000000,image200.jpg,20053.2533250000
0.8000000119,9.0000000000,2,50.8680920000,-0.0982725000,71.5000000000,-1.0000000000,5.3750000000,132.3750000000,image201.jpg,20190.5770750000
0.8000000119,12.0000000000,2,50.8680926667,-0.0982726667,71.5000000000,-2.1875000000,1.3750000000,132.5625000000,image202.jpg,20253.8283770000
0.8000000119,15.0000000000,2,50.8680931667,-0.0982726667,71.5000000000,-2.4375000000,5.8125000000,132.9375000000,image203.jpg,20389.7081170000
0.7607843280,16.0000000000,2,50.8680940000,-0.0982725000,71.5000000000,-2.9375000000,6.1875000000,134.0625000000,image204.jpg,20453.9961900000
0.8000000119,14.0000000000,5,50.8680943333,-0.0982726667,71.5000000000,-0.4375000000,1.8125000000,136.1250000000,image205.jpg,20590.1820230000
0.8000000119,8.0000000000,5,50.8680951667,-0.0982728333,71.5000000000,-3.4375000000,1.1875000000,136.5000000000,image206.jpg,20653.6709290000
0.7686274648,8.0000000000,5,50.8680961667,-0.0982726667,71.5000000000,-6.3125000000,4.3750000000,138.4375000000,image207.jpg,20789.2081690000
0.8000000119,8.0000000000,5,50.8680965000,-0.0982725000,71.5000000000,-4.0000000000,3.7500000000,138.9375000000,image208.jpg,20853.5908770000
0.8000000119,7.0000000000,5,50.8680971667,-0.0982730000,71.5000000000,-2.9375000000,5.2500000000,139.7500000000,image209.jpg,20996.6885850000
0.7686274648,7.0000000000,5,50.8680978333,-0.0982731667,71.5000000000,-4.0625000000,5.9375000000,140.3750000000,image210.jpg,21057.5765020000
0.7607843280,8.0000000000,5,50.8680983333,-0.0982726667,71.5000000000,-7.2500000000,5.3750000000,140.3750000000,image211.jpg,21190.7062940000
0.8000000119,7.0000000000,5,50.8680988333,-0.0982725000,71.5000000000,-7.6250000000,5.4375000000,140.8750000000,image212.jpg,21257.6854080000
0.8000000119,7.0000000000,5,50.8680996667,-0.0982726667,71.5000000000,-2.1875000000,6.4375000000,143.3750000000,image213.jpg,21390.8420230000
0.7921568751,9.0000000000,5,50.8681001667,-0.0982728333,71.5000000000,-1.3750000000,4.5625000000,142.0625000000,image214.jpg,21457.4730120000
0.8078431487,1.0000000000,5,50.8681006667,-0.0982726667,71.5000000000,-8.0625000000,5.5000000000,141.6875000000,image215.jpg,21590.3629600000
0.7686274648,0.0000000000,5,50.8681013333,-0.0982720000,71.4000000000,-8.4375000000,4.9375000000,141.6250000000,image216.jpg,21658.8747830000
0.8078431487,0.0000000000,5,50.8681020000,-0.0982720000,71.5000000000,-7.5625000000,7.3750000000,142.5000000000,image217.jpg,21791.0507720000
0.8078431487,0.0000000000,5,50.8681023333,-0.0982718333,71.5000000000,-5.9375000000,6.7500000000,142.5000000000,image218.jpg,21856.6917100000
0.7686274648,0.0000000000,5,50.8681030000,-0.0982716667,71.5000000000,1.4375000000,7.0000000000,142.5625000000,image219.jpg,21990.1716060000
0.8078431487,1.0000000000,5,50.8681035000,-0.0982718333,71.5000000000,-2.5625000000,5.7500000000,139.8125000000,image220.jpg,22057.6580640000
0.8000000119,3.0000000000,5,50.8681040000,-0.0982716667,71.5000000000,-10.6250000000,9.6250000000,141.6875000000,image221.jpg,22189.8287930000
0.7686274648,7.0000000000,5,50.8681045000,-0.0982705000,71.5000000000,-6.6875000000,9.8125000000,142.0625000000,image222.jpg,22257.5067620000
0.8078431487,17.0000000000,5,50.8681050000,-0.0982708333,71.5000000000,-2.0625000000,5.7500000000,141.6250000000,image223.jpg,22389.4600950000
0.8078431487,17.0000000000,5,50.8681056667,-0.0982715000,71.5000000000,-0.4375000000,7.2500000000,142.4375000000,image224.jpg,22457.8368140000
0.8078431487,20.0000000000,5,50.8681063333,-0.0982715000,71.5000000000,5.9375000000,11.3750000000,143.5625000000,image225.jpg,22588.6084280000
0.8000000119,23.0000000000,5,50.8681065000,-0.0982718333,71.5000000000,3.3125000000,10.9375000000,142.6250000000,image226.jpg,22657.6933760000
0.8000000119,26.0000000000,5,50.8681071667,-0.0982718333,71.4000000000,-1.6250000000,7.8750000000,143.9375000000,image227.jpg,22788.0131680000
0.8078431487,27.0000000000,5,50.8681078333,-0.0982715000,71.5000000000,-0.0625000000,6.6250000000,144.8125000000,image228.jpg,22857.7734800000
0.8000000119,20.0000000000,5,50.8681083333,-0.0982715000,71.5000000000,0.2500000000,8.6875000000,148.6875000000,image229.jpg,22990.3773350000
0.8000000119,14.0000000000,5,50.8681086667,-0.0982716667,71.5000000000,-0.7500000000,7.0000000000,151.2500000000,image230.jpg,23060.8678030000
0.7294117808,11.0000000000,5,50.8681091667,-0.0982710000,71.5000000000,-0.3750000000,6.6875000000,153.3125000000,image231.jpg,23188.0233240000
0.8000000119,9.0000000000,5,50.8681095000,-0.0982710000,71.5000000000,-1.6250000000,7.5625000000,153.5625000000,image232.jpg,23258.0268140000
0.8078431487,10.0000000000,5,50.8681101667,-0.0982708333,71.5000000000,-1.0625000000,10.1250000000,154.7500000000,image233.jpg,23388.9295740000
0.7529411912,8.0000000000,5,50.8681106667,-0.0982705000,71.5000000000,-1.1875000000,10.6875000000,154.3750000000,image234.jpg,23456.6548860000
0.8000000119,0.0000000000,5,50.8681110000,-0.0982706667,71.5000000000,-1.1250000000,11.5625000000,155.6250000000,image235.jpg,23595.6729590000
0.8078431487,-3.0000000000,5,50.8681116667,-0.0982706667,71.5000000000,-2.5000000000,12.0000000000,155.8750000000,image236.jpg,23656.7837930000
0.8078431487,-8.0000000000,5,50.8681121667,-0.0982705000,71.5000000000,-1.3125000000,11.6250000000,156.2500000000,image237.jpg,23793.4630110000
0.8078431487,-6.0000000000,5,50.8681128333,-0.0982700000,71.5000000000,1.3750000000,11.8750000000,156.2500000000,image238.jpg,23856.4736880000
0.8000000119,-8.0000000000,5,50.8681131667,-0.0982701667,71.5000000000,2.7500000000,10.2500000000,154.6875000000,image239.jpg,23995.5061880000
0.8000000119,-8.0000000000,5,50.8681136667,-0.0982701667,71.5000000000,0.0625000000,9.1875000000,153.8125000000,image240.jpg,24057.8575420000
0.8000000119,-7.0000000000,5,50.8681141667,-0.0982698333,71.5000000000,4.2500000000,7.5000000000,152.8125000000,image241.jpg,24193.4848860000
0.8078431487,-6.0000000000,5,50.8681146667,-0.0982698333,71.5000000000,5.8750000000,5.5625000000,151.7500000000,image242.jpg,24258.5173860000
0.7450980544,-4.0000000000,5,50.8681155000,-0.0982703333,71.6000000000,1.0625000000,6.5000000000,150.8750000000,image243.jpg,24394.2645210000
0.8000000119,-3.0000000000,5,50.8681156667,-0.0982695000,71.6000000000,1.1250000000,6.7500000000,150.3750000000,image244.jpg,24457.9064490000
0.8000000119,-2.0000000000,5,50.8681161667,-0.0982691667,71.6000000000,-0.7500000000,6.3125000000,149.0000000000,image245.jpg,24593.3827510000
0.7529411912,-1.0000000000,5,50.8681166667,-0.0982688333,71.6000000000,-1.1875000000,6.1875000000,149.1875000000,image246.jpg,24658.0559280000
0.8078431487,0.0000000000,5,50.8681173333,-0.0982683333,71.6000000000,5.5000000000,7.8750000000,149.6875000000,image247.jpg,24796.3230110000
0.8078431487,-2.0000000000,5,50.8681178333,-0.0982680000,71.6000000000,8.0000000000,9.7500000000,149.8750000000,image248.jpg,24857.6678550000
0.8078431487,-7.0000000000,5,50.8681178333,-0.0982681667,71.6000000000,3.7500000000,7.3125000000,148.8125000000,image249.jpg,24993.1104070000
0.8000000119,-7.0000000000,5,50.8681183333,-0.0982680000,71.6000000000,1.7500000000,8.1250000000,148.6250000000,image250.jpg,25057.4065000000
0.8078431487,-10.0000000000,5,50.8681188333,-0.0982680000,71.6000000000,1.1250000000,9.4375000000,147.9375000000,image251.jpg,25193.1785840000
0.8078431487,-11.0000000000,2,50.8681190000,-0.0982681667,71.6000000000,2.7500000000,12.2500000000,147.5000000000,image252.jpg,25262.6270730000
0.8078431487,-8.0000000000,2,50.8681195000,-0.0982683333,71.6000000000,5.8750000000,11.8125000000,146.6875000000,image253.jpg,25392.9662400000
0.8156862855,-8.0000000000,2,50.8681198333,-0.0982685000,71.6000000000,7.3750000000,10.0625000000,146.0625000000,image254.jpg,25462.9957710000
0.7372549176,-8.0000000000,5,50.8681206667,-0.0982688333,71.6000000000,9.1250000000,6.3750000000,144.5000000000,image255.jpg,25593.1860840000
0.8235294223,-7.0000000000,5,50.8681211667,-0.0982696667,71.7000000000,6.4375000000,6.0625000000,143.7500000000,image256.jpg,25662.9837400000
0.8235294223,-7.0000000000,2,50.8681218333,-0.0982701667,71.7000000000,5.7500000000,7.1875000000,142.5000000000,image257.jpg,25793.7925940000
0.7372549176,-5.0000000000,2,50.8681223333,-0.0982701667,71.7000000000,5.2500000000,7.3125000000,142.5000000000,image258.jpg,25860.8019690000
0.8235294223,-6.0000000000,2,50.8681225000,-0.0982701667,71.7000000000,7.3125000000,6.1250000000,143.3125000000,image259.jpg,25994.5799380000
0.8235294223,-6.0000000000,2,50.8681230000,-0.0982706667,71.7000000000,7.6250000000,6.3750000000,143.4375000000,image260.jpg,26060.8668130000
0.8235294223,-2.0000000000,2,50.8681233333,-0.0982705000,71.7000000000,7.4375000000,5.5000000000,142.7500000000,image261.jpg,26193.3251980000
0.8627451062,-1.0000000000,2,50.8681238333,-0.0982705000,71.7000000000,5.5625000000,5.5625000000,141.5000000000,image262.jpg,26261.9304580000
0.8627451062,3.0000000000,2,50.8681245000,-0.0982701667,71.7000000000,2.6250000000,6.8750000000,139.9375000000,image263.jpg,26393.2487920000
0.8627451062,4.0000000000,2,50.8681248333,-0.0982698333,71.7000000000,3.6250000000,6.9375000000,139.4375000000,image264.jpg,26462.1032190000
0.8627451062,14.0000000000,2,50.8681253333,-0.0982696667,71.7000000000,4.3125000000,6.1875000000,139.7500000000,image265.jpg,26593.6054580000
0.8235294223,17.0000000000,2,50.8681261667,-0.0982696667,71.7000000000,5.2500000000,7.0000000000,139.8750000000,image266.jpg,26662.5456140000
0.8313725591,17.0000000000,2,50.8681263333,-0.0982698333,71.7000000000,8.0625000000,10.5625000000,140.5625000000,image267.jpg,26794.4503540000
0.8627451062,16.0000000000,2,50.8681270000,-0.0982705000,71.7000000000,8.0000000000,10.1250000000,142.0625000000,image268.jpg,26861.8021770000
0.8627451062,17.0000000000,2,50.8681275000,-0.0982711667,71.7000000000,6.8125000000,6.8750000000,276.6875000000,image269.jpg,26995.3868120000
0.8235294223,19.0000000000,2,50.8681278333,-0.0982705000,71.6000000000,6.1875000000,8.9375000000,278.1250000000,image270.jpg,27061.0194160000
0.8627451062,12.0000000000,2,50.8681283333,-0.0982705000,71.6000000000,4.7500000000,7.5625000000,280.5625000000,image271.jpg,27194.7418640000
0.8627451062,9.0000000000,2,50.8681291667,-0.0982705000,71.6000000000,6.1875000000,7.5000000000,281.6250000000,image272.jpg,27262.0635310000
0.8235294223,0.0000000000,2,50.8681296667,-0.0982703333,71.6000000000,4.9375000000,8.0000000000,284.5625000000,image273.jpg,27395.3759790000
0.8627451062,-1.0000000000,2,50.8681300000,-0.0982701667,71.6000000000,4.5625000000,8.6875000000,285.0625000000,image274.jpg,27463.9523330000
0.8627451062,-10.0000000000,5,50.8681306667,-0.0982701667,71.6000000000,3.8125000000,7.2500000000,284.5625000000,image275.jpg,27594.9842080000
0.8549019694,-12.0000000000,5,50.8681311667,-0.0982705000,71.6000000000,3.3125000000,6.6250000000,284.7500000000,image276.jpg,27661.7899890000
0.8549019694,-17.0000000000,5,50.8681320000,-0.0982706667,71.6000000000,3.5625000000,3.9375000000,284.0000000000,image277.jpg,27798.8297290000
0.8235294223,-19.0000000000,5,50.8681326667,-0.0982706667,71.6000000000,-0.3750000000,4.4375000000,282.5000000000,image278.jpg,27860.8208220000
0.8235294223,-19.0000000000,5,50.8681331667,-0.0982698333,71.6000000000,-2.6875000000,2.8750000000,281.1250000000,image279.jpg,27997.5381660000
0.8549019694,-19.0000000000,5,50.8681336667,-0.0982693333,71.5000000000,0.7500000000,4.2500000000,279.6875000000,image280.jpg,28062.2594680000
0.8549019694,-22.0000000000,5,50.8681346667,-0.0982693333,71.5000000000,-0.6250000000,3.7500000000,276.5625000000,image281.jpg,28198.0351970000
0.8235294223,-22.0000000000,2,50.8681350000,-0.0982698333,71.5000000000,-0.0625000000,5.3750000000,274.8125000000,image282.jpg,28260.8813430000
0.8549019694,-14.0000000000,2,50.8681356667,-0.0982698333,71.5000000000,-3.7500000000,5.3750000000,270.3125000000,image283.jpg,28396.9122280000
0.8549019694,-8.0000000000,2,50.8681363333,-0.0982695000,71.5000000000,-7.0000000000,4.6875000000,268.2500000000,image284.jpg,28460.7124370000
0.8235294223,0.0000000000,nan,nan,nan,nan,-6.6250000000,5.7500000000,266.0625000000,image285.jpg,28598.0473320000
0.8549019694,0.0000000000,2,50.8681375000,-0.0982696667,71.5000000000,-5.9375000000,5.9375000000,265.2500000000,image286.jpg,28660.9918640000
0.8549019694,0.0000000000,2,50.8681378333,-0.0982698333,71.5000000000,-3.4375000000,6.1250000000,264.8125000000,image287.jpg,28797.5904050000
0.8549019694,-1.0000000000,2,50.8681383333,-0.0982700000,71.5000000000,-0.8125000000,4.8750000000,264.0625000000,image288.jpg,28860.7507180000
0.8549019694,-18.0000000000,2,50.8681391667,-0.0982705000,71.5000000000,-4.7500000000,4.5000000000,261.8750000000,image289.jpg,28997.3947280000
0.7686274648,-30.0000000000,2,50.8681398333,-0.0982705000,71.5000000000,-9.5000000000,1.3750000000,261.8125000000,image290.jpg,29065.8918630000
0.8549019694,-35.0000000000,2,50.8681405000,-0.0982705000,71.6000000000,-7.9375000000,1.4375000000,260.7500000000,image291.jpg,29198.0940510000
0.8549019694,-35.0000000000,2,50.8681410000,-0.0982708333,71.5000000000,-6.8125000000,3.8750000000,259.1250000000,image292.jpg,29266.7506650000
0.8549019694,-35.0000000000,2,50.8681413333,-0.0982713333,71.5000000000,0.3125000000,5.0625000000,256.0625000000,image293.jpg,29397.8202490000
0.8549019694,-35.0000000000,2,50.8681418333,-0.0982718333,71.5000000000,-0.4375000000,4.6875000000,252.5000000000,image294.jpg,29464.4709780000
0.8549019694,-35.0000000000,2,50.8681425000,-0.0982721667,71.5000000000,-10.3125000000,4.6250000000,247.4375000000,image295.jpg,29597.9391550000
0.8549019694,-32.0000000000,2,50.8681430000,-0.0982721667,71.6000000000,-6.1875000000,5.8125000000,246.2500000000,image296.jpg,29665.5286340000
0.8078431487,-21.0000000000,2,50.8681436667,-0.0982725000,71.6000000000,-3.0000000000,5.8750000000,243.2500000000,image297.jpg,29799.2335820000
0.8549019694,-29.0000000000,2,50.8681438333,-0.0982730000,71.6000000000,-2.5000000000,7.6875000000,239.7500000000,image298.jpg,29864.5225400000
0.8549019694,-35.0000000000,2,50.8681443333,-0.0982736667,71.6000000000,-6.2500000000,9.6250000000,235.2500000000,image299.jpg,29997.7206130000
0.8549019694,-35.0000000000,2,50.8681448333,-0.0982738333,71.6000000000,-7.7500000000,8.7500000000,232.5000000000,image300.jpg,30065.5795710000
0.8549019694,-35.0000000000,2,50.8681460000,-0.0982745000,71.6000000000,-5.9375000000,9.4375000000,228.7500000000,image301.jpg,30196.9170710000
0.8000000119,-30.0000000000,2,50.8681460000,-0.0982753333,71.7000000000,-4.8125000000,8.4375000000,226.8125000000,image302.jpg,30265.5493110000
0.8549019694,-26.0000000000,2,50.8681460000,-0.0982761667,71.6000000000,-2.6250000000,7.5625000000,223.3125000000,image303.jpg,30397.0861860000
0.8549019694,-19.0000000000,2,50.8681465000,-0.0982768333,71.7000000000,-2.1875000000,6.7500000000,221.4375000000,image304.jpg,30466.1413940000
0.8549019694,-15.0000000000,5,50.8681470000,-0.0982773333,71.6000000000,0.0000000000,6.5000000000,219.2500000000,image305.jpg,30597.4924360000
0.8549019694,-11.0000000000,5,50.8681471667,-0.0982785000,71.6000000000,0.5000000000,5.2500000000,217.8750000000,image306.jpg,30667.4102480000
0.8549019694,-6.0000000000,5,50.8681473333,-0.0982793333,71.6000000000,1.7500000000,8.3750000000,215.1250000000,image307.jpg,30798.2850400000
0.8549019694,-3.0000000000,5,50.8681476667,-0.0982805000,71.6000000000,4.0625000000,7.8125000000,215.3750000000,image308.jpg,30866.8379570000
0.7686274648,7.0000000000,2,50.8681476667,-0.0982815000,71.6000000000,8.3125000000,5.4375000000,212.5625000000,image309.jpg,31001.3090500000
0.8549019694,6.0000000000,2,50.8681481667,-0.0982825000,71.6000000000,8.2500000000,6.3750000000,213.3125000000,image310.jpg,31065.7086340000
0.8549019694,0.0000000000,2,50.8681485000,-0.0982826667,71.7000000000,7.2500000000,5.8750000000,211.7500000000,image311.jpg,31199.0104560000
0.8549019694,1.0000000000,2,50.8681486667,-0.0982838333,71.6000000000,7.8750000000,5.4375000000,212.1250000000,image312.jpg,31267.0595710000
0.8549019694,0.0000000000,2,50.8681491667,-0.0982846667,71.7000000000,11.3750000000,4.8125000000,212.8750000000,image313.jpg,31397.2919150000
0.7686274648,1.0000000000,2,50.8681493333,-0.0982855000,71.7000000000,11.3750000000,7.5000000000,212.7500000000,image314.jpg,31466.5238420000
0.8549019694,0.0000000000,5,50.8681496667,-0.0982861667,71.7000000000,9.0625000000,8.5000000000,212.0000000000,image315.jpg,31602.2910810000
0.8549019694,3.0000000000,5,50.8681500000,-0.0982865000,71.7000000000,8.0000000000,9.6875000000,211.3125000000,image316.jpg,31664.7717580000
0.8627451062,14.0000000000,5,50.8681500000,-0.0982868333,71.7000000000,10.4375000000,7.6250000000,211.1250000000,image317.jpg,31801.8735290000
0.8549019694,16.0000000000,5,50.8681505000,-0.0982875000,71.7000000000,10.8750000000,8.8125000000,210.9375000000,image318.jpg,31865.0583730000
0.8549019694,18.0000000000,5,50.8681508333,-0.0982886667,71.7000000000,5.3125000000,3.9375000000,211.6250000000,image319.jpg,32002.4417580000
0.8235294223,17.0000000000,5,50.8681513333,-0.0982891667,71.8000000000,4.2500000000,2.8750000000,212.5625000000,image320.jpg,32065.6047270000
0.8313725591,4.0000000000,5,50.8681518333,-0.0982896667,71.8000000000,2.4375000000,0.4375000000,214.8125000000,image321.jpg,32203.5803520000
0.8235294223,2.0000000000,5,50.8681523333,-0.0982906667,71.8000000000,5.1250000000,5.0000000000,216.1875000000,image322.jpg,32268.5361850000
0.8549019694,4.0000000000,5,50.8681525000,-0.0982910000,71.8000000000,2.2500000000,4.0000000000,216.2500000000,image323.jpg,32399.6267580000
0.8549019694,7.0000000000,5,50.8681526667,-0.0982923333,71.7000000000,-2.2500000000,2.1250000000,216.2500000000,image324.jpg,32464.4977480000
0.8549019694,16.0000000000,5,50.8681533333,-0.0982935000,71.7000000000,4.1875000000,3.3750000000,215.3750000000,image325.jpg,32601.8598830000
0.8235294223,15.0000000000,5,50.8681538333,-0.0982948333,71.7000000000,3.4375000000,5.4375000000,215.5625000000,image326.jpg,32665.7459250000
0.8549019694,15.0000000000,5,50.8681541667,-0.0982955000,71.7000000000,1.7500000000,3.5625000000,217.1250000000,image327.jpg,32802.2536330000
0.8549019694,17.0000000000,5,50.8681546667,-0.0982963333,71.7000000000,0.8750000000,7.0625000000,217.9375000000,image328.jpg,32865.5626430000
0.8235294223,10.0000000000,5,50.8681553333,-0.0982968333,71.7000000000,1.8750000000,8.8750000000,221.9375000000,image329.jpg,33001.9101950000
0.8549019694,9.0000000000,5,50.8681555000,-0.0982985000,71.7000000000,4.6250000000,5.8125000000,222.1250000000,image330.jpg,33067.7272270000
0.8549019694,4.0000000000,5,50.8681558333,-0.0982991667,71.7000000000,2.9375000000,6.0625000000,222.0625000000,image331.jpg,33200.8911850000
0.8235294223,2.0000000000,2,50.8681561667,-0.0983001667,71.7000000000,3.2500000000,6.3125000000,222.3125000000,image332.jpg,33271.0186330000
0.8235294223,1.0000000000,2,50.8681565000,-0.0983008333,71.7000000000,1.0625000000,7.3750000000,222.3125000000,image333.jpg,33401.3219140000
0.8235294223,0.0000000000,2,50.8681571667,-0.0983010000,71.7000000000,1.4375000000,7.3750000000,222.4375000000,image334.jpg,33469.7549350000
0.8549019694,0.0000000000,5,50.8681576667,-0.0983021667,71.7000000000,3.5000000000,7.2500000000,221.8750000000,image335.jpg,33600.9677990000
0.8549019694,1.0000000000,5,50.8681581667,-0.0983026667,71.7000000000,4.6250000000,5.0000000000,222.0625000000,image336.jpg,33668.5841010000
0.8549019694,0.0000000000,2,50.8681586667,-0.0983038333,71.7000000000,2.3750000000,3.4375000000,220.5625000000,image337.jpg,33801.0622260000
-0.9960784316,1.0000000000,2,50.8681588333,-0.0983045000,71.7000000000,1.5000000000,4.8750000000,220.5625000000,image338.jpg,33869.5828510000
0.8549019694,3.0000000000,2,50.8681595000,-0.0983065000,71.7000000000,5.2500000000,6.3125000000,220.0000000000,image339.jpg,34004.6701430000
0.8235294223,6.0000000000,nan,nan,nan,nan,6.3750000000,6.3750000000,220.4375000000,image340.jpg,34069.0937890000
0.8549019694,8.0000000000,2,50.8681596667,-0.0983073333,71.6000000000,7.8750000000,5.2500000000,220.3125000000,image341.jpg,34135.8612370000
0.8235294223,9.0000000000,2,50.8681601667,-0.0983085000,71.7000000000,5.1875000000,4.0625000000,220.3125000000,image342.jpg,34270.2629030000
0.8549019694,4.0000000000,2,50.8681606667,-0.0983095000,71.7000000000,3.2500000000,4.0000000000,220.6875000000,image343.jpg,34338.4291010000
0.8549019694,3.0000000000,2,50.8681608333,-0.0983105000,71.7000000000,6.6875000000,1.8125000000,222.3750000000,image344.jpg,34470.9158720000
0.8235294223,1.0000000000,5,50.8681611667,-0.0983113333,71.7000000000,6.6875000000,3.2500000000,223.2500000000,image345.jpg,34536.9464450000
0.8549019694,7.0000000000,5,50.8681615000,-0.0983123333,71.7000000000,5.0625000000,5.5625000000,221.9375000000,image346.jpg,34671.5381630000
0.8549019694,6.0000000000,5,50.8681621667,-0.0983130000,71.7000000000,4.6875000000,5.3125000000,221.8125000000,image347.jpg,34737.0352470000
0.8549019694,3.0000000000,5,50.8681626667,-0.0983138333,71.7000000000,6.5000000000,7.4375000000,221.8125000000,image348.jpg,34871.1766010000
0.8627451062,4.0000000000,5,50.8681630000,-0.0983146667,71.7000000000,7.5000000000,7.4375000000,221.6875000000,image349.jpg,34936.0591530000
0.8549019694,2.0000000000,5,50.8681635000,-0.0983156667,71.7000000000,5.0000000000,7.5625000000,221.6250000000,image350.jpg,35071.2033190000
0.8549019694,1.0000000000,5,50.8681641667,-0.0983160000,71.7000000000,4.1250000000,7.1875000000,221.4375000000,image351.jpg,35136.0636840000
0.8078431487,0.0000000000,5,50.8681646667,-0.0983166667,71.7000000000,4.6875000000,4.0625000000,221.5625000000,image352.jpg,35272.0008190000
0.8549019694,0.0000000000,5,50.8681650000,-0.0983176667,71.7000000000,4.5625000000,3.0625000000,221.6250000000,image353.jpg,35337.4322260000
0.8078431487,1.0000000000,5,50.8681653333,-0.0983188333,71.7000000000,4.2500000000,4.4375000000,221.4375000000,image354.jpg,35470.3184240000
0.8549019694,2.0000000000,5,50.8681656667,-0.0983195000,71.7000000000,3.6250000000,3.6250000000,221.1875000000,image355.jpg,35537.3137880000
0.8549019694,3.0000000000,5,50.8681661667,-0.0983203333,71.7000000000,4.4375000000,7.6875000000,220.0000000000,image356.jpg,35668.6381110000
0.8156862855,2.0000000000,5,50.8681665000,-0.0983213333,71.7000000000,4.6250000000,7.5625000000,220.0625000000,image357.jpg,35737.2530070000
0.8627451062,2.0000000000,5,50.8681670000,-0.0983221667,71.7000000000,4.5000000000,9.8125000000,219.5000000000,image358.jpg,35870.4486320000
0.8627451062,1.0000000000,5,50.8681673333,-0.0983230000,71.7000000000,2.4375000000,10.5625000000,219.8750000000,image359.jpg,35938.1562880000
0.8549019694,1.0000000000,5,50.8681678333,-0.0983233333,71.7000000000,4.6875000000,10.1875000000,220.0625000000,image360.jpg,36073.4199860000
0.8549019694,2.0000000000,5,50.8681683333,-0.0983243333,71.7000000000,5.1250000000,9.4375000000,220.1250000000,image361.jpg,36136.7718610000
0.8549019694,-2.0000000000,5,50.8681686667,-0.0983253333,71.7000000000,2.3750000000,8.5000000000,220.6250000000,image362.jpg,36274.6226420000
0.8549019694,-8.0000000000,2,50.8681690000,-0.0983260000,71.7000000000,-0.9375000000,5.1250000000,219.6875000000,image363.jpg,36337.0367570000
0.8078431487,-20.0000000000,2,50.8681696667,-0.0983270000,71.7000000000,1.3125000000,4.3125000000,220.5000000000,image364.jpg,36469.5705590000
0.8549019694,-22.0000000000,5,50.8681701667,-0.0983275000,71.7000000000,4.9375000000,5.6250000000,219.2500000000,image365.jpg,36541.5378500000
0.8078431487,-24.0000000000,5,50.8681701667,-0.0983286667,71.7000000000,2.9375000000,0.6250000000,214.7500000000,image366.jpg,36670.0546730000
0.8627451062,-18.0000000000,5,50.8681703333,-0.0983296667,71.7000000000,0.7500000000,5.1875000000,213.6250000000,image367.jpg,36737.6265480000
0.8627451062,-7.0000000000,5,50.8681708333,-0.0983306667,71.7000000000,-0.1875000000,7.8125000000,210.5625000000,image368.jpg,36870.5375900000
0.7686274648,-4.0000000000,2,50.8681711667,-0.0983315000,71.6000000000,6.1875000000,4.3750000000,210.1250000000,image369.jpg,36937.6182150000
0.8627451062,-8.0000000000,2,50.8681710000,-0.0983323333,71.7000000000,8.8750000000,5.6875000000,208.9375000000,image370.jpg,37076.6746730000
0.8627451062,-11.0000000000,2,50.8681713333,-0.0983330000,71.7000000000,7.5625000000,6.8125000000,207.5000000000,image371.jpg,37137.0093600000
0.8627451062,-4.0000000000,2,50.8681718333,-0.0983343333,71.7000000000,2.1875000000,2.6875000000,207.8750000000,image372.jpg,37275.1310790000
0.8627451062,-1.0000000000,2,50.8681721667,-0.0983350000,71.7000000000,4.7500000000,4.3125000000,206.5000000000,image373.jpg,37337.4238920000
0.8627451062,4.0000000000,2,50.8681721667,-0.0983363333,71.7000000000,3.5000000000,7.0000000000,204.5625000000,image374.jpg,37474.0054020000
0.8549019694,5.0000000000,5,50.8681726667,-0.0983368333,71.7000000000,1.4375000000,8.5000000000,203.8750000000,image375.jpg,37545.7833190000
0.7686274648,15.0000000000,5,50.8681731667,-0.0983376667,71.7000000000,5.8125000000,10.7500000000,203.9375000000,image376.jpg,37674.4433190000
0.8549019694,14.0000000000,5,50.8681731667,-0.0983388333,71.7000000000,5.3125000000,11.4375000000,204.8125000000,image377.jpg,37739.3512870000
0.8235294223,8.0000000000,5,50.8681733333,-0.0983398333,71.7000000000,5.5000000000,9.6250000000,206.8750000000,image378.jpg,37876.2536310000
0.8549019694,7.0000000000,5,50.8681735000,-0.0983406667,71.7000000000,2.8750000000,9.6250000000,206.9375000000,image379.jpg,37937.2996730000
0.8627451062,4.0000000000,5,50.8681740000,-0.0983415000,71.7000000000,-1.7500000000,11.3125000000,208.5625000000,image380.jpg,38073.4209750000
0.8235294223,3.0000000000,2,50.8681745000,-0.0983426667,71.7000000000,2.2500000000,9.8750000000,209.8750000000,image381.jpg,38142.1747770000
0.8627451062,0.0000000000,2,50.8681745000,-0.0983435000,71.7000000000,4.9375000000,6.6250000000,209.1250000000,image382.jpg,38273.4798290000
0.8627451062,0.0000000000,2,50.8681748333,-0.0983443333,71.7000000000,4.8125000000,7.3750000000,209.3125000000,image383.jpg,38336.6254540000
0.8235294223,0.0000000000,2,50.8681753333,-0.0983453333,71.7000000000,2.0000000000,9.5000000000,207.9375000000,image384.jpg,38473.7574330000
0.8627451062,0.0000000000,5,50.8681755000,-0.0983461667,71.8000000000,1.6250000000,8.1875000000,207.0625000000,image385.jpg,38541.0476410000
0.8627451062,-4.0000000000,5,50.8681758333,-0.0983471667,71.8000000000,4.5000000000,8.5000000000,206.8125000000,image386.jpg,38673.7075890000
0.8627451062,-6.0000000000,5,50.8681758333,-0.0983483333,71.7000000000,4.5625000000,11.1875000000,206.8125000000,image387.jpg,38741.9066510000
0.8235294223,-7.0000000000,5,50.8681761667,-0.0983488333,71.7000000000,4.0000000000,8.2500000000,205.7500000000,image388.jpg,38873.8482660000
0.8235294223,-8.0000000000,5,50.8681763333,-0.0983500000,71.8000000000,3.7500000000,5.5000000000,204.1875000000,image389.jpg,38940.4086310000
0.8235294223,-5.0000000000,5,50.8681765000,-0.0983511667,71.8000000000,4.8750000000,6.4375000000,202.3125000000,image390.jpg,39073.6363390000
0.8627451062,-2.0000000000,5,50.8681766667,-0.0983520000,71.8000000000,7.3125000000,6.0000000000,201.8125000000,image391.jpg,39140.2640470000
0.8549019694,-2.0000000000,5,50.8681768333,-0.0983528333,71.8000000000,6.1875000000,8.8125000000,200.0000000000,image392.jpg,39273.9754010000
0.8235294223,0.0000000000,2,50.8681768333,-0.0983535000,71.8000000000,4.2500000000,7.9375000000,198.9375000000,image393.jpg,39340.7540990000
0.8627451062,-3.0000000000,2,50.8681771667,-0.0983546667,71.8000000000,7.9375000000,6.3750000000,198.6875000000,image394.jpg,39473.1579010000
0.8627451062,-3.0000000000,5,50.8681775000,-0.0983558333,71.8000000000,7.9375000000,6.8125000000,197.1875000000,image395.jpg,39543.1750890000
0.8235294223,-4.0000000000,5,50.8681778333,-0.0983565000,71.8000000000,9.9375000000,5.1875000000,197.8125000000,image396.jpg,39673.2942030000
0.8627451062,-3.0000000000,2,50.8681781667,-0.0983575000,71.8000000000,10.6875000000,7.1250000000,196.0625000000,image397.jpg,39740.9128490000
0.8627451062,1.0000000000,2,50.8681781667,-0.0983585000,71.8000000000,6.8750000000,6.5000000000,195.8125000000,image398.jpg,39873.9639950000
0.8627451062,1.0000000000,2,50.8681783333,-0.0983595000,71.8000000000,8.7500000000,4.9375000000,196.0625000000,image399.jpg,39940.2027970000
0.8549019694,3.0000000000,2,50.8681785000,-0.0983605000,71.8000000000,7.5625000000,4.2500000000,194.5625000000,image400.jpg,40076.8084740000
0.8313725591,1.0000000000,2,50.8681783333,-0.0983616667,71.9000000000,7.5000000000,1.7500000000,195.5000000000,image401.jpg,40140.1874840000
0.8627451062,3.0000000000,2,50.8681783333,-0.0983635000,71.9000000000,6.5625000000,3.0625000000,194.6875000000,image402.jpg,40275.0281090000
0.8627451062,3.0000000000,2,50.8681785000,-0.0983646667,71.8000000000,6.0000000000,4.8750000000,195.0000000000,image403.jpg,40340.5412860000
0.8627451062,2.0000000000,2,50.8681785000,-0.0983651667,71.9000000000,9.0000000000,4.1250000000,194.8750000000,image404.jpg,40474.1737860000
0.8627451062,5.0000000000,5,50.8681786667,-0.0983663333,71.8000000000,4.4375000000,4.8750000000,194.3125000000,image405.jpg,40541.0692030000
0.8627451062,4.0000000000,5,50.8681788333,-0.0983678333,71.8000000000,0.0000000000,8.5000000000,193.9375000000,image406.jpg,40673.7706610000
0.8627451062,6.0000000000,5,50.8681791667,-0.0983691667,71.8000000000,-2.5000000000,3.9375000000,193.6875000000,image407.jpg,40740.9861300000
0.7764706016,7.0000000000,5,50.8681791667,-0.0983701667,71.9000000000,9.6875000000,5.3125000000,196.2500000000,image408.jpg,40874.3206610000
0.8627451062,7.0000000000,5,50.8681791667,-0.0983711667,71.8000000000,13.4375000000,5.5625000000,194.0625000000,image409.jpg,40946.4340460000
0.8627451062,7.0000000000,5,50.8681788333,-0.0983723333,71.8000000000,4.6250000000,5.1875000000,194.8125000000,image410.jpg,41081.2467550000
0.8627451062,7.0000000000,5,50.8681795000,-0.0983731667,71.9000000000,1.3750000000,5.6250000000,194.3125000000,image411.jpg,41143.3911300000
0.8627451062,8.0000000000,5,50.8681798333,-0.0983740000,71.9000000000,2.3750000000,5.4375000000,197.6875000000,image412.jpg,41278.0418070000
0.8156862855,7.0000000000,5,50.8681795000,-0.0983756667,71.9000000000,7.3750000000,4.1875000000,199.4375000000,image413.jpg,41341.7055050000
0.8627451062,5.0000000000,5,50.8681793333,-0.0983765000,71.9000000000,9.6875000000,5.4375000000,197.8125000000,image414.jpg,41479.5534210000
0.8627451062,3.0000000000,5,50.8681796667,-0.0983775000,71.9000000000,10.5625000000,6.3125000000,198.7500000000,image415.jpg,41545.7825880000
0.8627451062,2.0000000000,5,50.8681798333,-0.0983781667,71.9000000000,9.2500000000,8.0625000000,197.3125000000,image416.jpg,41678.1610770000
0.8627451062,4.0000000000,5,50.8681796667,-0.0983790000,71.9000000000,7.0625000000,10.8125000000,197.9375000000,image417.jpg,41744.4523790000
0.8627451062,2.0000000000,5,50.8681800000,-0.0983803333,71.9000000000,11.3125000000,7.5625000000,197.6250000000,image418.jpg,41878.3384730000
0.8627451062,2.0000000000,5,50.8681800000,-0.0983811667,72.0000000000,9.6875000000,4.1250000000,197.2500000000,image419.jpg,41940.2408690000
0.8156862855,6.0000000000,5,50.8681801667,-0.0983828333,72.0000000000,11.8750000000,7.1875000000,197.5625000000,image420.jpg,42077.2808170000
0.8627451062,7.0000000000,5,50.8681800000,-0.0983836667,72.0000000000,9.7500000000,7.0625000000,197.3125000000,image421.jpg,42145.6639940000
0.8705882430,12.0000000000,5,50.8681805000,-0.0983845000,72.0000000000,10.1875000000,7.5000000000,199.1875000000,image422.jpg,42277.8506080000
