gps quality,lat,lon,altitude,roll,pitch,yaw,image name,timestamp
4,50.8634168333,-0.0939386667,56.6000000000,5.8750000000,-1.9375000000,359.9375000000,image0.jpg,2.6052590000
4,50.8634168333,-0.0939386667,56.6000000000,5.8750000000,-1.9375000000,359.9375000000,image1.jpg,201.6485600000
4,50.8634168333,-0.0939386667,56.6000000000,5.8750000000,-1.9375000000,359.9375000000,image2.jpg,402.3931720000
4,50.8634166667,-0.0939388333,56.6000000000,5.8750000000,-1.9375000000,359.9375000000,image3.jpg,602.8873640000
4,50.8634168333,-0.0939385000,56.6000000000,5.8750000000,-1.9375000000,359.9375000000,image4.jpg,802.8627970000
4,50.8634168333,-0.0939385000,56.6000000000,5.8750000000,-1.9375000000,359.9375000000,image5.jpg,1002.0108080000
4,50.8634168333,-0.0939385000,56.6000000000,5.8750000000,-1.9375000000,359.9375000000,image6.jpg,1202.0679260000
4,50.8634166667,-0.0939386667,56.6000000000,5.8750000000,-1.9375000000,359.9375000000,image7.jpg,1402.4131270000
4,50.8634166667,-0.0939386667,56.6000000000,5.8750000000,-1.9375000000,359.9375000000,image8.jpg,1603.1535190000
4,50.8634168333,-0.0939386667,56.6000000000,5.8750000000,-1.9375000000,359.9375000000,image9.jpg,1802.1926000000
4,50.8634166667,-0.0939386667,56.6000000000,5.8750000000,-1.9375000000,359.9375000000,image10.jpg,2002.2559160000
4,50.8634168333,-0.0939386667,56.6000000000,5.8750000000,-1.9375000000,359.9375000000,image11.jpg,2202.3304330000
4,50.8634168333,-0.0939386667,56.6000000000,5.8750000000,-1.9375000000,359.9375000000,image12.jpg,2402.6226540000
4,50.8634168333,-0.0939386667,56.6000000000,5.8750000000,-1.9375000000,359.9375000000,image13.jpg,2603.7530270000
4,50.8634168333,-0.0939386667,56.6000000000,5.8750000000,-1.9375000000,359.9375000000,image14.jpg,2803.4611610000
4,50.8634168333,-0.0939386667,56.6000000000,5.8750000000,-1.9375000000,359.9375000000,image15.jpg,3003.5649550000
4,50.8634168333,-0.0939386667,56.6000000000,5.8750000000,-1.9375000000,359.9375000000,image16.jpg,3202.6733740000
4,50.8634168333,-0.0939386667,56.6000000000,5.8750000000,-1.9375000000,359.9375000000,image17.jpg,3402.8010800000
4,50.8634168333,-0.0939386667,56.6000000000,5.8750000000,-1.9375000000,359.9375000000,image18.jpg,3603.5288130000
4,50.8634168333,-0.0939388333,56.6000000000,5.8750000000,-1.9375000000,359.9375000000,image19.jpg,3803.8701070000
4,50.8634168333,-0.0939388333,56.6000000000,5.8750000000,-1.9375000000,359.9375000000,image20.jpg,4003.9686910000
4,50.8634168333,-0.0939388333,56.6000000000,5.8750000000,-1.9375000000,359.9375000000,image21.jpg,4203.0856010000
4,50.8634168333,-0.0939388333,56.6000000000,5.8750000000,-1.9375000000,359.9375000000,image22.jpg,4403.1413640000
4,50.8634168333,-0.0939388333,56.6000000000,5.8750000000,-1.9375000000,0.0625000000,image23.jpg,4603.5004740000
4,50.8634168333,-0.0939388333,56.6000000000,5.9375000000,-1.4375000000,0.0625000000,image24.jpg,4804.2291970000
4,50.8634171667,-0.0939391667,56.6000000000,6.7500000000,-1.0000000000,359.6875000000,image25.jpg,5004.4102990000
4,50.8634176667,-0.0939395000,56.6000000000,6.3750000000,-1.9375000000,359.6875000000,image26.jpg,5204.4557470000
4,50.8634183333,-0.0939401667,56.6000000000,8.0000000000,-1.0000000000,359.8750000000,image27.jpg,5403.5047260000
4,50.8634190000,-0.0939410000,56.6000000000,7.6875000000,-0.7500000000,359.8125000000,image28.jpg,5603.5805440000
4,50.8634198333,-0.0939418333,56.6000000000,8.8750000000,-2.0625000000,359.0625000000,image29.jpg,5803.6403180000
4,50.8634205000,-0.0939425000,56.6000000000,8.3750000000,-2.0625000000,359.6250000000,image30.jpg,6003.6934750000
4,50.8634213333,-0.0939435000,56.6000000000,7.5625000000,-2.1250000000,359.4375000000,image31.jpg,6203.7327240000
4,50.8634221667,-0.0939441667,56.6000000000,9.1250000000,-2.2500000000,359.5625000000,image32.jpg,6403.8322460000
4,50.8634230000,-0.0939450000,56.6000000000,7.0625000000,-1.3125000000,359.6875000000,image33.jpg,6603.9119190000
4,50.8634236667,-0.0939458333,56.6000000000,8.6250000000,-1.0000000000,359.9375000000,image34.jpg,6804.2474310000
4,50.8634245000,-0.0939463333,56.6000000000,8.8750000000,0.1250000000,0.2500000000,image35.jpg,7003.9393110000
4,50.8634251667,-0.0939473333,56.6000000000,6.2500000000,-0.3125000000,359.8125000000,image36.jpg,7204.1038470000
4,50.8634261667,-0.0939480000,56.6000000000,7.5625000000,-1.5000000000,359.0000000000,image37.jpg,7404.1735710000
4,50.8634270000,-0.0939488333,56.6000000000,9.1250000000,-1.1875000000,358.7500000000,image38.jpg,7604.2450660000
4,50.8634275000,-0.0939498333,56.6000000000,8.8750000000,-1.5625000000,358.5000000000,image39.jpg,7804.7998440000
4,50.8634285000,-0.0939505000,56.6000000000,8.9375000000,-0.8750000000,358.6875000000,image40.jpg,8005.3281050000
4,50.8634291667,-0.0939513333,56.6000000000,9.4375000000,-2.3125000000,359.4375000000,image41.jpg,8205.4233030000
4,50.8634300000,-0.0939523333,56.7000000000,9.4375000000,-1.7500000000,359.8750000000,image42.jpg,8405.3765430000
4,50.8634310000,-0.0939531667,56.7000000000,9.6875000000,-1.6250000000,0.2500000000,image43.jpg,8604.6683870000
4,50.8634316667,-0.0939538333,56.7000000000,10.3125000000,-1.8750000000,0.8125000000,image44.jpg,8804.6338170000
4,50.8634325000,-0.0939545000,56.7000000000,9.5625000000,-1.8125000000,1.2500000000,image45.jpg,9005.7245450000
4,50.8634333333,-0.0939553333,56.7000000000,9.7500000000,-2.1875000000,2.0000000000,image46.jpg,9205.7411840000
4,50.8634341667,-0.0939560000,56.7000000000,9.6250000000,-1.3750000000,2.3750000000,image47.jpg,9405.7553230000
4,50.8634350000,-0.0939568333,56.7000000000,9.1875000000,-1.5625000000,2.8750000000,image48.jpg,9604.9228170000
4,50.8634358333,-0.0939575000,56.7000000000,9.3125000000,-1.5625000000,3.6875000000,image49.jpg,9805.0006150000
4,50.8634366667,-0.0939581667,56.7000000000,8.8750000000,-2.0000000000,4.0625000000,image50.jpg,10005.5809710000
4,50.8634375000,-0.0939590000,56.7000000000,9.3750000000,-1.8125000000,3.3750000000,image51.jpg,10206.1115250000
4,50.8634383333,-0.0939596667,56.7000000000,9.1875000000,-2.1250000000,2.9375000000,image52.jpg,10406.1542110000
4,50.8634393333,-0.0939605000,56.7000000000,8.4375000000,-1.8125000000,2.7500000000,image53.jpg,10605.8852670000
4,50.8634401667,-0.0939610000,56.7000000000,8.8750000000,-1.8125000000,3.5625000000,image54.jpg,10805.3416780000
4,50.8634408333,-0.0939616667,56.7000000000,8.7500000000,-1.5625000000,3.3125000000,image55.jpg,11005.7026630000
4,50.8634418333,-0.0939625000,56.7000000000,8.9375000000,-1.3750000000,3.1250000000,image56.jpg,11205.7811390000
4,50.8634426667,-0.0939633333,56.7000000000,6.8125000000,-1.8125000000,3.7500000000,image57.jpg,11405.5309480000
4,50.8634436667,-0.0939640000,56.7000000000,6.5000000000,-1.3750000000,4.1875000000,image58.jpg,11605.6074430000
4,50.8634445000,-0.0939646667,56.7000000000,6.4375000000,-1.3125000000,4.2500000000,image59.jpg,11805.6721650000
4,50.8634453333,-0.0939653333,56.7000000000,6.6250000000,-0.3125000000,4.5625000000,image60.jpg,12005.7463690000
4,50.8634461667,-0.0939658333,56.7000000000,7.3125000000,-0.8125000000,5.1875000000,image61.jpg,12205.8112470000
4,50.8634470000,-0.0939665000,56.7000000000,7.1875000000,0.0000000000,6.6875000000,image62.jpg,12405.8921190000
4,50.8634478333,-0.0939673333,56.7000000000,7.2500000000,-0.2500000000,7.1875000000,image63.jpg,12605.9618420000
4,50.8634488333,-0.0939680000,56.7000000000,7.3125000000,-0.4375000000,8.1875000000,image64.jpg,12806.0301590000
4,50.8634496667,-0.0939685000,56.7000000000,7.6250000000,-0.5000000000,9.1875000000,image65.jpg,13006.0905570000
4,50.8634505000,-0.0939690000,56.7000000000,6.6875000000,-0.9375000000,10.5000000000,image66.jpg,13206.9973910000
4,50.8634515000,-0.0939695000,56.7000000000,6.8750000000,0.1250000000,11.0625000000,image67.jpg,13407.3008110000
4,50.8634521667,-0.0939700000,56.7000000000,7.6875000000,0.9375000000,12.1250000000,image68.jpg,13607.2397250000
4,50.8634531667,-0.0939705000,56.7000000000,6.6250000000,2.0625000000,13.1250000000,image69.jpg,13806.6678490000
4,50.8634540000,-0.0939708333,56.7000000000,8.2500000000,0.2500000000,13.5625000000,image70.jpg,14006.4575100000
4,50.8634550000,-0.0939713333,56.7000000000,7.9375000000,0.1875000000,14.8750000000,image71.jpg,14206.9985870000
4,50.8634558333,-0.0939718333,56.7000000000,8.4375000000,-0.5000000000,16.5000000000,image72.jpg,14407.5410180000
4,50.8634568333,-0.0939720000,56.7000000000,8.5000000000,-0.1875000000,17.0000000000,image73.jpg,14607.5812040000
4,50.8634575000,-0.0939725000,56.7000000000,10.1250000000,0.6875000000,17.9375000000,image74.jpg,14807.7047930000
4,50.8634585000,-0.0939726667,56.7000000000,7.3125000000,0.0000000000,19.9375000000,image75.jpg,15006.7940400000
4,50.8634591667,-0.0939730000,56.7000000000,9.3750000000,1.0000000000,20.2500000000,image76.jpg,15207.0131710000
4,50.8634601667,-0.0939733333,56.7000000000,9.1250000000,0.4375000000,21.0000000000,image77.jpg,15407.8787980000
4,50.8634610000,-0.0939736667,56.7000000000,8.8750000000,0.0625000000,21.2500000000,image78.jpg,15607.9229420000
4,50.8634618333,-0.0939736667,56.7000000000,8.5000000000,0.1250000000,23.5625000000,image79.jpg,15807.9710460000
4,50.8634626667,-0.0939740000,56.7000000000,8.6250000000,-0.0625000000,24.8125000000,image80.jpg,16007.1850600000
4,50.8634635000,-0.0939741667,56.7000000000,9.6250000000,-0.0625000000,25.2500000000,image81.jpg,16207.1741930000
4,50.8634643333,-0.0939741667,56.7000000000,8.4375000000,1.1875000000,25.4375000000,image82.jpg,16407.6421800000
4,50.8634653333,-0.0939745000,56.7000000000,8.2500000000,0.8750000000,26.0625000000,image83.jpg,16607.2424770000
4,50.8634663333,-0.0939745000,56.7000000000,8.6250000000,1.1250000000,26.5000000000,image84.jpg,16807.2958940000
4,50.8634673333,-0.0939746667,56.7000000000,8.3750000000,0.2500000000,26.5625000000,image85.jpg,17007.3778080000
4,50.8634680000,-0.0939748333,56.7000000000,9.1250000000,1.1875000000,26.1250000000,image86.jpg,17207.4446130000
4,50.8634688333,-0.0939748333,56.7000000000,9.1875000000,0.1250000000,27.1250000000,image87.jpg,17407.7729870000
4,50.8634698333,-0.0939750000,56.7000000000,7.7500000000,0.4375000000,28.0000000000,image88.jpg,17607.5685870000
4,50.8634706667,-0.0939748333,56.8000000000,6.9375000000,-0.5000000000,28.8750000000,image89.jpg,17807.6513340000
4,50.8634713333,-0.0939750000,56.8000000000,8.1875000000,-0.1875000000,29.0625000000,image90.jpg,18007.7141800000
4,50.8634723333,-0.0939750000,56.8000000000,7.3125000000,0.0000000000,28.6875000000,image91.jpg,18207.8739750000
4,50.8634730000,-0.0939750000,56.8000000000,6.6250000000,0.5625000000,29.6250000000,image92.jpg,18408.6071250000
4,50.8634738333,-0.0939750000,56.8000000000,6.5000000000,0.6250000000,29.8750000000,image93.jpg,18608.9163280000
4,50.8634746667,-0.0939750000,56.7000000000,7.6875000000,0.4375000000,30.9375000000,image94.jpg,18808.9828730000
4,50.8634755000,-0.0939750000,56.8000000000,7.8125000000,0.6875000000,31.6250000000,image95.jpg,19008.9455930000
4,50.8634761667,-0.0939748333,56.8000000000,6.7500000000,0.7500000000,31.1250000000,image96.jpg,19208.1704950000
4,50.8634770000,-0.0939751667,56.8000000000,6.2500000000,-0.1875000000,28.8125000000,image97.jpg,19408.4857920000
4,50.8634778333,-0.0939750000,56.8000000000,6.4375000000,-0.7500000000,28.5000000000,image98.jpg,19609.3989290000
4,50.8634786667,-0.0939753333,56.8000000000,7.5000000000,-0.8125000000,28.4375000000,image99.jpg,19809.3463340000
4,50.8634793333,-0.0939755000,56.8000000000,9.1250000000,-0.3750000000,27.7500000000,image100.jpg,20009.4547110000
4,50.8634801667,-0.0939756667,56.8000000000,6.9375000000,-0.8125000000,26.6250000000,image101.jpg,20208.5445830000
4,50.8634811667,-0.0939756667,56.8000000000,8.0625000000,-0.0625000000,25.6250000000,image102.jpg,20408.5702860000
4,50.8634818333,-0.0939758333,56.8000000000,8.5000000000,-0.8125000000,25.7500000000,image103.jpg,20609.4423200000
4,50.8634826667,-0.0939760000,56.8000000000,6.1250000000,-1.8125000000,24.6875000000,image104.jpg,20809.6311830000
4,50.8634835000,-0.0939761667,56.8000000000,5.2500000000,-1.0000000000,22.7500000000,image105.jpg,21009.7012710000
4,50.8634841667,-0.0939763333,56.8000000000,5.6250000000,-2.2500000000,21.9375000000,image106.jpg,21208.8106270000
4,50.8634851667,-0.0939766667,56.8000000000,3.4375000000,-3.0000000000,20.9375000000,image107.jpg,21408.9090530000
4,50.8634860000,-0.0939766667,56.8000000000,4.6875000000,-2.0625000000,18.1250000000,image108.jpg,21609.4712280000
4,50.8634865000,-0.0939771667,56.8000000000,4.3125000000,-2.3125000000,15.9375000000,image109.jpg,21809.5591320000
4,50.8634871667,-0.0939773333,56.8000000000,5.1250000000,-2.1250000000,16.4375000000,image110.jpg,22009.0979050000
4,50.8634878333,-0.0939776667,56.7000000000,2.7500000000,-1.7500000000,16.6875000000,image111.jpg,22209.1955500000
4,50.8634888333,-0.0939778333,56.8000000000,2.9375000000,-2.8750000000,15.1250000000,image112.jpg,22409.1230540000
4,50.8634895000,-0.0939783333,56.8000000000,-0.4375000000,-2.6875000000,11.8125000000,image113.jpg,22609.5006570000
4,50.8634900000,-0.0939786667,56.7000000000,1.4375000000,-2.2500000000,9.2500000000,image114.jpg,22809.3117300000
4,50.8634906667,-0.0939791667,56.7000000000,2.9375000000,-1.0000000000,6.1875000000,image115.jpg,23009.4247950000
4,50.8634910000,-0.0939796667,56.7000000000,4.2500000000,-0.4375000000,6.3125000000,image116.jpg,23209.4851930000
4,50.8634916667,-0.0939800000,56.7000000000,4.9375000000,-0.9375000000,5.7500000000,image117.jpg,23409.4996950000
4,50.8634925000,-0.0939806667,56.7000000000,6.2500000000,-1.6250000000,5.6250000000,image118.jpg,23609.7331000000
4,50.8634931667,-0.0939813333,56.7000000000,7.5000000000,-2.1250000000,5.8750000000,image119.jpg,23810.8701400000
4,50.8634938333,-0.0939820000,56.7000000000,9.8125000000,-1.8750000000,5.8125000000,image120.jpg,24010.6485490000
4,50.8634945000,-0.0939826667,56.7000000000,10.2500000000,-1.0625000000,4.5625000000,image121.jpg,24210.7961530000
4,50.8634950000,-0.0939830000,56.7000000000,10.3750000000,-0.3750000000,3.5000000000,image122.jpg,24409.8442450000
4,50.8634955000,-0.0939833333,56.7000000000,8.5000000000,0.8125000000,4.0625000000,image123.jpg,24609.9025070000
4,50.8634960000,-0.0939840000,56.7000000000,9.8750000000,0.7500000000,5.3125000000,image124.jpg,24810.7137980000
4,50.8634968333,-0.0939845000,56.8000000000,10.4375000000,-0.3125000000,6.0000000000,image125.jpg,25010.9775740000
4,50.8634975000,-0.0939850000,56.8000000000,9.7500000000,0.6250000000,5.8750000000,image126.jpg,25211.3708050000
4,50.8634980000,-0.0939855000,56.8000000000,9.3125000000,-0.8125000000,4.8750000000,image127.jpg,25410.1953060000
4,50.8634986667,-0.0939858333,56.8000000000,8.3125000000,-0.5000000000,5.1250000000,image128.jpg,25610.1459400000
4,50.8634993333,-0.0939863333,56.8000000000,6.8750000000,0.2500000000,5.6250000000,image129.jpg,25810.8452800000
4,50.8635000000,-0.0939868333,56.8000000000,8.3125000000,0.2500000000,6.3750000000,image130.jpg,26011.5681670000
4,50.8635006667,-0.0939871667,56.8000000000,6.0000000000,-0.3750000000,7.7500000000,image131.jpg,26211.4536820000
4,50.8635013333,-0.0939880000,56.8000000000,8.2500000000,-0.7500000000,8.0625000000,image132.jpg,26411.2749650000
4,50.8635020000,-0.0939881667,56.8000000000,7.1250000000,-0.6875000000,8.8750000000,image133.jpg,26610.5471680000
4,50.8635026667,-0.0939886667,56.8000000000,8.4375000000,-1.2500000000,9.8750000000,image134.jpg,26810.9126850000
4,50.8635033333,-0.0939890000,56.8000000000,8.1875000000,0.9375000000,9.5000000000,image135.jpg,27010.6864570000
4,50.8635040000,-0.0939893333,56.8000000000,7.6875000000,0.0000000000,10.5625000000,image136.jpg,27210.8230690000
4,50.8635046667,-0.0939898333,56.8000000000,8.1875000000,0.4375000000,11.0000000000,image137.jpg,27410.9374370000
4,50.8635053333,-0.0939900000,56.8000000000,7.5625000000,0.6250000000,12.8125000000,image138.jpg,27610.9334450000
4,50.8635061667,-0.0939905000,56.8000000000,8.8125000000,-0.5625000000,13.3125000000,image139.jpg,27810.8937690000
4,50.8635068333,-0.0939910000,56.8000000000,7.7500000000,0.1250000000,12.0625000000,image140.jpg,28011.1951050000
4,50.8635075000,-0.0939913333,56.8000000000,9.3125000000,0.6250000000,12.1250000000,image141.jpg,28211.1543340000
4,50.8635080000,-0.0939916667,56.8000000000,7.8750000000,0.0000000000,11.6250000000,image142.jpg,28411.1986350000
4,50.8635088333,-0.0939921667,56.8000000000,9.1875000000,-0.4375000000,10.5000000000,image143.jpg,28611.2648150000
4,50.8635095000,-0.0939926667,56.8000000000,8.6875000000,0.0000000000,9.5000000000,image144.jpg,28811.3499570000
4,50.8635103333,-0.0939931667,56.8000000000,8.8750000000,-1.1875000000,8.7500000000,image145.jpg,29012.3774420000
4,50.8635111667,-0.0939936667,56.8000000000,7.3125000000,-0.3750000000,8.6250000000,image146.jpg,29212.7023250000
4,50.8635120000,-0.0939945000,56.8000000000,7.5000000000,-1.1875000000,7.8750000000,image147.jpg,29412.6841640000
4,50.8635128333,-0.0939950000,56.8000000000,7.5625000000,-1.3125000000,6.4375000000,image148.jpg,29611.7905500000
4,50.8635138333,-0.0939956667,56.8000000000,6.9375000000,-1.1250000000,6.0000000000,image149.jpg,29811.7539990000
4,50.8635148333,-0.0939965000,56.8000000000,6.6875000000,-2.0000000000,3.5625000000,image150.jpg,30012.3695180000
4,50.8635156667,-0.0939973333,56.8000000000,6.3750000000,-1.6250000000,3.4375000000,image151.jpg,30212.7584250000
4,50.8635165000,-0.0939981667,56.8000000000,5.3125000000,-1.5000000000,0.6875000000,image152.jpg,30412.9861510000
4,50.8635173333,-0.0939990000,56.8000000000,5.7500000000,-1.3125000000,358.0625000000,image153.jpg,30612.8489530000
4,50.8635181667,-0.0939998333,56.8000000000,6.6875000000,-1.0000000000,355.7500000000,image154.jpg,30812.0798970000
4,50.8635188333,-0.0940006667,56.8000000000,6.6250000000,-1.8750000000,355.2500000000,image155.jpg,31012.4572910000
4,50.8635195000,-0.0940016667,56.8000000000,6.1875000000,-1.3750000000,354.4375000000,image156.jpg,31213.4696160000
4,50.8635203333,-0.0940026667,56.8000000000,5.9375000000,-2.0625000000,353.8750000000,image157.jpg,31413.4841180000
4,50.8635211667,-0.0940035000,56.8000000000,6.4375000000,-1.5000000000,353.0000000000,image158.jpg,31613.4448060000
4,50.8635220000,-0.0940045000,56.8000000000,6.5000000000,-1.9375000000,353.6875000000,image159.jpg,31812.4679960000
4,50.8635228333,-0.0940055000,56.8000000000,5.6875000000,-1.8750000000,354.5000000000,image160.jpg,32012.6174760000
4,50.8635235000,-0.0940063333,56.8000000000,7.3125000000,-1.9375000000,355.6250000000,image161.jpg,32213.4006360000
4,50.8635245000,-0.0940071667,56.8000000000,7.4375000000,-1.0000000000,355.8125000000,image162.jpg,32412.6639310000
4,50.8635251667,-0.0940083333,56.8000000000,5.9375000000,-1.7500000000,353.9375000000,image163.jpg,32612.7158890000
4,50.8635258333,-0.0940093333,56.8000000000,5.7500000000,-1.6875000000,350.0000000000,image164.jpg,32812.9164210000
4,50.8635265000,-0.0940103333,56.8000000000,6.2500000000,-1.8125000000,349.5625000000,image165.jpg,33012.9472290000
4,50.8635271667,-0.0940115000,56.8000000000,5.7500000000,-2.5000000000,349.1875000000,image166.jpg,33213.0286210000
4,50.8635280000,-0.0940126667,56.8000000000,6.3125000000,-2.0625000000,349.7500000000,image167.jpg,33413.1542930000
4,50.8635288333,-0.0940136667,56.8000000000,6.8750000000,-2.8125000000,350.0000000000,image168.jpg,33613.1011750000
4,50.8635295000,-0.0940148333,56.8000000000,6.1875000000,-2.8125000000,349.8750000000,image169.jpg,33813.2248680000
4,50.8635305000,-0.0940160000,56.8000000000,7.1875000000,-1.3125000000,349.8125000000,image170.jpg,34013.2515080000
4,50.8635311667,-0.0940171667,56.8000000000,7.0625000000,-2.5000000000,349.3750000000,image171.jpg,34214.0689460000
4,50.8635320000,-0.0940181667,56.8000000000,7.4375000000,-1.6250000000,349.3125000000,image172.jpg,34414.5812660000
4,50.8635328333,-0.0940195000,56.8000000000,8.3125000000,-2.4375000000,349.6250000000,image173.jpg,34614.7370490000
4,50.8635335000,-0.0940205000,56.8000000000,7.9375000000,-2.2500000000,349.6250000000,image174.jpg,34814.4185610000
4,50.8635341667,-0.0940216667,56.8000000000,7.1250000000,-2.1250000000,349.3125000000,image175.jpg,35013.6104860000
4,50.8635351667,-0.0940228333,56.8000000000,5.7500000000,-2.8125000000,346.6875000000,image176.jpg,35214.3752570000
4,50.8635358333,-0.0940240000,56.8000000000,6.5625000000,-2.7500000000,346.4375000000,image177.jpg,35415.1358600000
4,50.8635365000,-0.0940251667,56.8000000000,6.0625000000,-1.8125000000,346.6250000000,image178.jpg,35615.6213510000
4,50.8635371667,-0.0940261667,56.8000000000,7.1875000000,-1.3750000000,347.6875000000,image179.jpg,35815.6192350000
4,50.8635378333,-0.0940271667,56.8000000000,6.1250000000,-0.8750000000,348.7500000000,image180.jpg,36014.8024080000
4,50.8635386667,-0.0940283333,56.8000000000,5.6250000000,-1.5000000000,348.5625000000,image181.jpg,36214.9423020000
4,50.8635393333,-0.0940295000,56.8000000000,7.6250000000,-1.4375000000,347.8750000000,image182.jpg,36415.6102290000
4,50.8635400000,-0.0940305000,56.8000000000,6.1250000000,-1.1250000000,346.6250000000,image183.jpg,36616.0434160000
4,50.8635406667,-0.0940316667,56.8000000000,5.0625000000,-0.5625000000,346.1875000000,image184.jpg,36815.9493520000
4,50.8635413333,-0.0940326667,56.8000000000,7.1250000000,-0.3125000000,346.3125000000,image185.jpg,37015.4195160000
4,50.8635420000,-0.0940338333,56.8000000000,5.6250000000,0.6875000000,345.7500000000,image186.jpg,37215.2698670000
4,50.8635428333,-0.0940348333,56.9000000000,7.8125000000,-0.8750000000,345.8750000000,image187.jpg,37415.6304340000
4,50.8635433333,-0.0940360000,56.9000000000,5.6875000000,-1.2500000000,346.6875000000,image188.jpg,37615.2854810000
4,50.8635440000,-0.0940371667,56.9000000000,7.2500000000,-2.0000000000,346.3750000000,image189.jpg,37815.8277550000
4,50.8635446667,-0.0940380000,56.9000000000,8.1875000000,-1.1250000000,346.3125000000,image190.jpg,38015.7280130000
4,50.8635451667,-0.0940393333,56.9000000000,6.0625000000,-1.1875000000,346.2500000000,image191.jpg,38216.2318410000
4,50.8635460000,-0.0940403333,56.9000000000,7.2500000000,-1.3125000000,343.6250000000,image192.jpg,38416.2353510000
4,50.8635465000,-0.0940415000,56.9000000000,7.5625000000,-1.7500000000,339.5625000000,image193.jpg,38616.7323020000
4,50.8635468333,-0.0940428333,56.9000000000,8.1250000000,-1.9375000000,336.2500000000,image194.jpg,38816.3222830000
4,50.8635473333,-0.0940438333,56.9000000000,6.4375000000,-0.6250000000,336.2500000000,image195.jpg,39016.3317320000
4,50.8635478333,-0.0940450000,56.9000000000,7.1250000000,-0.9375000000,339.2500000000,image196.jpg,39216.4421920000
4,50.8635485000,-0.0940461667,56.9000000000,7.6250000000,-0.6875000000,340.6250000000,image197.jpg,39416.5752610000
4,50.8635490000,-0.0940473333,56.9000000000,6.6250000000,-0.7500000000,340.9375000000,image198.jpg,39617.5324700000
4,50.8635495000,-0.0940485000,56.9000000000,5.5625000000,-1.8125000000,339.8125000000,image199.jpg,39817.4804460000
4,50.8635501667,-0.0940498333,56.9000000000,7.7500000000,-1.5625000000,339.4375000000,image200.jpg,40017.7487540000
4,50.8635506667,-0.0940510000,56.9000000000,7.5000000000,-2.3750000000,340.5000000000,image201.jpg,40217.2025070000
4,50.8635513333,-0.0940521667,56.9000000000,7.6250000000,-1.7500000000,341.8750000000,image202.jpg,40416.9644010000
4,50.8635520000,-0.0940533333,56.9000000000,7.1250000000,-1.7500000000,342.4375000000,image203.jpg,40617.3619560000
4,50.8635526667,-0.0940546667,56.9000000000,7.3750000000,-1.6875000000,342.9375000000,image204.jpg,40817.9652850000
4,50.8635531667,-0.0940556667,56.9000000000,6.3750000000,-1.6875000000,343.2500000000,image205.jpg,41018.1627430000
4,50.8635538333,-0.0940568333,56.9000000000,6.3125000000,-1.6875000000,342.0000000000,image206.jpg,41217.6261860000
4,50.8635545000,-0.0940580000,56.9000000000,5.6250000000,-2.5000000000,342.1250000000,image207.jpg,41417.1332330000
4,50.8635550000,-0.0940591667,56.9000000000,5.5625000000,-2.2500000000,340.4375000000,image208.jpg,41617.4933830000
4,50.8635556667,-0.0940605000,56.9000000000,6.1250000000,-1.8750000000,340.2500000000,image209.jpg,41818.4122500000
4,50.8635561667,-0.0940616667,56.9000000000,5.5625000000,-1.8750000000,339.6250000000,image210.jpg,42018.3028180000
4,50.8635568333,-0.0940630000,56.9000000000,4.6875000000,-2.0625000000,339.6875000000,image211.jpg,42218.6458810000
4,50.8635575000,-0.0940643333,56.9000000000,5.1875000000,-2.9375000000,339.1250000000,image212.jpg,42418.1647010000
4,50.8635580000,-0.0940656667,56.9000000000,5.0625000000,-2.6250000000,339.1250000000,image213.jpg,42618.0350570000
4,50.8635588333,-0.0940670000,56.9000000000,5.2500000000,-1.1250000000,339.1875000000,image214.jpg,42818.6738100000
4,50.8635591667,-0.0940683333,56.9000000000,4.5000000000,-1.4375000000,338.9375000000,image215.jpg,43018.0001400000
4,50.8635598333,-0.0940696667,56.9000000000,5.1250000000,-1.7500000000,338.1250000000,image216.jpg,43218.5236070000
4,50.8635605000,-0.0940708333,56.9000000000,5.0625000000,-1.8750000000,338.8125000000,image217.jpg,43418.6312540000
4,50.8635610000,-0.0940723333,56.9000000000,7.5000000000,-0.8750000000,338.9375000000,image218.jpg,43618.7832860000
4,50.8635616667,-0.0940733333,56.9000000000,7.3125000000,-1.3125000000,339.5000000000,image219.jpg,43818.9418820000
4,50.8635623333,-0.0940748333,56.9000000000,6.4375000000,-2.1875000000,340.5000000000,image220.jpg,44018.8148420000
4,50.8635628333,-0.0940760000,56.9000000000,8.3750000000,-2.1875000000,340.6250000000,image221.jpg,44219.1334730000
4,50.8635635000,-0.0940773333,56.9000000000,7.9375000000,-1.8125000000,340.5000000000,image222.jpg,44418.9494410000
4,50.8635641667,-0.0940786667,56.9000000000,8.0000000000,-1.4375000000,340.2500000000,image223.jpg,44619.0984520000
4,50.8635648333,-0.0940800000,56.9000000000,8.6875000000,-2.0000000000,339.8750000000,image224.jpg,44819.3725940000
4,50.8635653333,-0.0940811667,56.9000000000,7.0625000000,-1.2500000000,339.6875000000,image225.jpg,45020.4741050000
4,50.8635660000,-0.0940823333,56.9000000000,7.0625000000,-1.7500000000,339.8125000000,image226.jpg,45220.4440130000
4,50.8635665000,-0.0940838333,56.9000000000,7.5000000000,-1.1875000000,340.0625000000,image227.jpg,45420.5512440000
4,50.8635671667,-0.0940851667,56.9000000000,6.6250000000,-0.7500000000,340.5000000000,image228.jpg,45619.4131480000
4,50.8635676667,-0.0940861667,57.0000000000,6.6250000000,-0.8750000000,340.2500000000,image229.jpg,45819.5553340000
4,50.8635683333,-0.0940875000,57.0000000000,6.6250000000,-1.0625000000,340.1875000000,image230.jpg,46020.2617590000
4,50.8635690000,-0.0940886667,57.0000000000,4.5000000000,-1.1875000000,340.4375000000,image231.jpg,46220.8322680000
4,50.8635696667,-0.0940898333,57.0000000000,5.8125000000,-1.1875000000,340.1250000000,image232.jpg,46420.7435180000
4,50.8635703333,-0.0940913333,57.0000000000,6.5625000000,-1.7500000000,340.0000000000,image233.jpg,46620.2009700000
4,50.8635710000,-0.0940926667,57.0000000000,4.8750000000,-1.2500000000,339.4375000000,image234.jpg,46819.9358260000
4,50.8635715000,-0.0940938333,57.0000000000,5.9375000000,-0.5625000000,338.1250000000,image235.jpg,47020.1600090000
4,50.8635720000,-0.0940950000,57.0000000000,7.1250000000,-0.7500000000,338.3750000000,image236.jpg,47221.3674810000
4,50.8635726667,-0.0940963333,57.0000000000,4.8750000000,-1.5000000000,338.0625000000,image237.jpg,47421.4215740000
4,50.8635731667,-0.0940978333,57.0000000000,6.9375000000,-2.1250000000,338.1875000000,image238.jpg,47621.4547780000
4,50.8635738333,-0.0940990000,57.0000000000,8.1250000000,-2.3125000000,338.0000000000,image239.jpg,47820.2727660000
4,50.8635743333,-0.0941003333,57.0000000000,8.4375000000,-2.1250000000,337.0000000000,image240.jpg,48020.5028880000
4,50.8635748333,-0.0941018333,57.0000000000,9.2500000000,-1.1875000000,337.0625000000,image241.jpg,48220.4609710000
4,50.8635755000,-0.0941031667,57.0000000000,8.7500000000,-2.0625000000,338.1250000000,image242.jpg,48420.6779650000
4,50.8635760000,-0.0941043333,57.0000000000,7.1250000000,-0.5000000000,339.0625000000,image243.jpg,48620.6923100000
4,50.8635765000,-0.0941056667,57.0000000000,8.3750000000,-0.7500000000,338.4375000000,image244.jpg,48820.7694290000
4,50.8635771667,-0.0941068333,57.0000000000,8.1875000000,-0.1875000000,336.5625000000,image245.jpg,49020.9009350000
4,50.8635776667,-0.0941083333,57.0000000000,8.2500000000,-1.1250000000,336.2500000000,image246.jpg,49220.8091110000
4,50.8635781667,-0.0941096667,57.0000000000,8.0000000000,-1.4375000000,335.3125000000,image247.jpg,49420.9040470000
4,50.8635790000,-0.0941113333,57.0000000000,7.6250000000,-3.4375000000,335.6250000000,image248.jpg,49621.5257130000
4,50.8635795000,-0.0941131667,57.0000000000,8.2500000000,-3.1875000000,336.7500000000,image249.jpg,49821.4680110000
4,50.8635805000,-0.0941150000,57.0000000000,7.8125000000,-2.7500000000,336.3125000000,image250.jpg,50021.6371300000
4,50.8635811667,-0.0941168333,57.0000000000,7.2500000000,-3.3750000000,337.3125000000,image251.jpg,50222.2140980000
4,50.8635820000,-0.0941185000,57.0000000000,7.9375000000,-2.6875000000,338.8750000000,image252.jpg,50422.5296030000
4,50.8635826667,-0.0941200000,57.0000000000,7.5000000000,-3.5625000000,342.1875000000,image253.jpg,50622.3583870000
4,50.8635835000,-0.0941210000,57.0000000000,6.8125000000,-2.8125000000,345.1250000000,image254.jpg,50822.1503390000
4,50.8635843333,-0.0941225000,57.0000000000,6.9375000000,-2.7500000000,346.5000000000,image255.jpg,51022.0143910000
4,50.8635850000,-0.0941235000,57.0000000000,7.1250000000,-2.3750000000,346.1875000000,image256.jpg,51222.3377100000
4,50.8635858333,-0.0941248333,57.0000000000,5.0000000000,-2.5000000000,346.6250000000,image257.jpg,51423.2132860000
4,50.8635865000,-0.0941260000,57.0000000000,7.6250000000,-1.6250000000,350.1250000000,image258.jpg,51623.2387800000
4,50.8635871667,-0.0941270000,57.0000000000,8.8125000000,-1.0625000000,349.6875000000,image259.jpg,51823.1214810000
4,50.8635880000,-0.0941281667,57.0000000000,7.6875000000,-1.0625000000,350.3125000000,image260.jpg,52022.3105410000
4,50.8635890000,-0.0941296667,57.0000000000,8.3125000000,-1.6250000000,352.2500000000,image261.jpg,52222.6602720000
4,50.8635898333,-0.0941308333,57.0000000000,7.0625000000,-2.0625000000,349.7500000000,image262.jpg,52423.4729180000
4,50.8635906667,-0.0941323333,57.0000000000,7.1250000000,-3.0625000000,344.6875000000,image263.jpg,52624.0302990000
4,50.8635913333,-0.0941336667,57.0000000000,6.3750000000,-3.2500000000,340.5625000000,image264.jpg,52824.2261420000
4,50.8635918333,-0.0941350000,57.0000000000,6.0625000000,-1.3750000000,340.9375000000,image265.jpg,53024.6649550000
4,50.8635926667,-0.0941363333,57.0000000000,6.4375000000,-0.9375000000,340.4375000000,image266.jpg,53223.5142010000
4,50.8635933333,-0.0941376667,57.0000000000,6.6875000000,-1.7500000000,344.1875000000,image267.jpg,53423.7878210000
4,50.8635940000,-0.0941390000,57.0000000000,6.8750000000,-1.5625000000,348.6875000000,image268.jpg,53623.6947470000
4,50.8635950000,-0.0941400000,57.0000000000,7.0625000000,-2.6250000000,353.9375000000,image269.jpg,53824.7417150000
4,50.8635958333,-0.0941410000,57.0000000000,6.1875000000,-3.0625000000,353.7500000000,image270.jpg,54023.8216360000
4,50.8635966667,-0.0941420000,57.0000000000,8.1250000000,-1.5000000000,354.6875000000,image271.jpg,54223.7506500000
4,50.8635975000,-0.0941430000,57.0000000000,7.5000000000,-1.3750000000,357.1875000000,image272.jpg,54423.9360220000
4,50.8635983333,-0.0941440000,57.0000000000,7.8750000000,-1.1875000000,358.0000000000,image273.jpg,54623.9321340000
4,50.8635995000,-0.0941450000,57.0000000000,8.6875000000,-1.4375000000,358.6875000000,image274.jpg,54824.0779660000
4,50.8636003333,-0.0941463333,57.0000000000,6.0000000000,-1.7500000000,357.6250000000,image275.jpg,55024.5067780000
4,50.8636011667,-0.0941473333,57.0000000000,8.0625000000,-0.6250000000,356.2500000000,image276.jpg,55224.5518590000
4,50.8636021667,-0.0941483333,57.0000000000,6.1875000000,-2.0625000000,355.4375000000,image277.jpg,55424.7516090000
4,50.8636031667,-0.0941495000,57.0000000000,6.8125000000,-1.1875000000,352.8750000000,image278.jpg,55625.5177860000
4,50.8636038333,-0.0941505000,57.1000000000,7.0000000000,-2.8125000000,351.8750000000,image279.jpg,55825.8443350000
4,50.8636046667,-0.0941518333,57.1000000000,5.6250000000,-2.3125000000,348.2500000000,image280.jpg,56025.9546970000
4,50.8636053333,-0.0941531667,57.1000000000,6.8125000000,-2.2500000000,344.8750000000,image281.jpg,56224.7228140000
4,50.8636060000,-0.0941545000,57.1000000000,6.0000000000,-2.0625000000,342.6875000000,image282.jpg,56424.9123980000
4,50.8636065000,-0.0941556667,57.1000000000,7.5625000000,-2.3750000000,343.6250000000,image283.jpg,56625.3663150000
4,50.8636071667,-0.0941571667,57.0000000000,7.9375000000,-1.9375000000,344.5625000000,image284.jpg,56825.9375270000
4,50.8636080000,-0.0941581667,57.1000000000,6.7500000000,-0.8125000000,349.8125000000,image285.jpg,57026.2661840000
4,50.8636090000,-0.0941591667,57.1000000000,6.4375000000,-0.9375000000,351.8750000000,image286.jpg,57226.2388230000
4,50.8636096667,-0.0941603333,57.1000000000,6.3750000000,-1.2500000000,352.2500000000,image287.jpg,57425.1850680000
4,50.8636106667,-0.0941613333,57.1000000000,5.1875000000,-0.5625000000,352.8750000000,image288.jpg,57625.2010320000
4,50.8636115000,-0.0941626667,57.1000000000,7.3750000000,-1.6250000000,352.9375000000,image289.jpg,57825.6740130000
4,50.8636125000,-0.0941638333,57.1000000000,6.7500000000,-1.3125000000,351.0625000000,image290.jpg,58026.3358470000
4,50.8636130000,-0.0941651667,57.1000000000,4.8125000000,-2.0625000000,346.8750000000,image291.jpg,58226.6945010000
4,50.8636136667,-0.0941663333,57.1000000000,5.6250000000,-1.1250000000,341.1875000000,image292.jpg,58426.8970120000
4,50.8636143333,-0.0941678333,57.1000000000,7.5000000000,-2.5000000000,340.5000000000,image293.jpg,58626.3873680000
4,50.8636150000,-0.0941691667,57.1000000000,6.3750000000,-1.2500000000,344.1250000000,image294.jpg,58826.0974670000
4,50.8636156667,-0.0941701667,57.1000000000,7.1250000000,0.5000000000,349.6250000000,image295.jpg,59026.0345690000
4,50.8636166667,-0.0941711667,57.1000000000,6.3125000000,0.1875000000,353.3125000000,image296.jpg,59227.3151330000
4,50.8636175000,-0.0941723333,57.1000000000,6.0000000000,-1.2500000000,354.1250000000,image297.jpg,59426.1408050000
4,50.8636186667,-0.0941735000,57.1000000000,6.5000000000,-1.1875000000,353.8125000000,image298.jpg,59627.0010470000
4,50.8636195000,-0.0941748333,57.1000000000,5.6250000000,-1.1250000000,352.2500000000,image299.jpg,59828.0663820000
4,50.8636205000,-0.0941761667,57.1000000000,7.2500000000,-0.8125000000,352.1875000000,image300.jpg,60026.8041710000
4,50.8636213333,-0.0941775000,57.1000000000,5.6875000000,-1.1875000000,352.2500000000,image301.jpg,60227.3670580000
4,50.8636225000,-0.0941788333,57.1000000000,5.6250000000,-2.1875000000,350.6250000000,image302.jpg,60427.4372080000
4,50.8636233333,-0.0941803333,57.1000000000,5.9375000000,-0.9375000000,349.3125000000,image303.jpg,60627.2322510000
4,50.8636241667,-0.0941815000,57.1000000000,7.6250000000,-1.8750000000,352.5000000000,image304.jpg,60827.4078300000
4,50.8636250000,-0.0941828333,57.1000000000,7.8750000000,-1.1250000000,357.6875000000,image305.jpg,61027.4387410000
4,50.8636261667,-0.0941836667,57.1000000000,6.5625000000,-1.7500000000,1.6250000000,image306.jpg,61227.4572730000
4,50.8636271667,-0.0941846667,57.1000000000,6.1250000000,-1.6875000000,2.9375000000,image307.jpg,61427.4571300000
4,50.8636283333,-0.0941855000,57.1000000000,5.5000000000,-1.8125000000,359.8750000000,image308.jpg,61628.2747830000
4,50.8636293333,-0.0941868333,57.1000000000,5.6250000000,-2.1250000000,355.0625000000,image309.jpg,61828.7581280000
4,50.8636300000,-0.0941880000,57.1000000000,6.1250000000,-1.6250000000,351.8750000000,image310.jpg,62029.1491190000
4,50.8636308333,-0.0941891667,57.1000000000,7.2500000000,-1.5625000000,352.6875000000,image311.jpg,62230.2493100000
4,50.8636318333,-0.0941903333,57.1000000000,7.1250000000,-0.6875000000,353.3750000000,image312.jpg,62428.5336110000
4,50.8636326667,-0.0941915000,57.1000000000,7.1875000000,-0.6875000000,354.0625000000,image313.jpg,62628.3615180000
4,50.8636338333,-0.0941926667,57.1000000000,7.3125000000,-1.8750000000,354.0625000000,image314.jpg,62828.5858680000
4,50.8636346667,-0.0941941667,57.1000000000,7.6875000000,-0.6875000000,349.9375000000,image315.jpg,63029.6266820000
4,50.8636355000,-0.0941955000,57.1000000000,6.9375000000,-0.8750000000,345.1875000000,image316.jpg,63230.9293020000
4,50.8636360000,-0.0941970000,57.1000000000,8.4375000000,-1.3125000000,341.3125000000,image317.jpg,63429.8635900000
4,50.8636366667,-0.0941985000,57.1000000000,7.5625000000,-0.6875000000,341.8125000000,image318.jpg,63629.9610550000
4,50.8636373333,-0.0941998333,57.1000000000,7.8750000000,-1.6250000000,342.3750000000,image319.jpg,63829.4312270000
4,50.8636381667,-0.0942013333,57.1000000000,7.5625000000,-1.2500000000,341.5625000000,image320.jpg,64029.6916100000
4,50.8636390000,-0.0942030000,57.1000000000,6.1875000000,-1.2500000000,337.2500000000,image321.jpg,64229.9460100000
4,50.8636395000,-0.0942046667,57.1000000000,7.1875000000,-1.2500000000,336.4375000000,image322.jpg,64430.8129360000
4,50.8636401667,-0.0942063333,57.1000000000,8.3125000000,-0.2500000000,337.0000000000,image323.jpg,64630.7115250000
4,50.8636408333,-0.0942078333,57.1000000000,8.8125000000,-1.0000000000,338.3125000000,image324.jpg,64830.7927530000
4,50.8636416667,-0.0942096667,57.1000000000,7.5625000000,-1.0000000000,339.6250000000,image325.jpg,65029.7714460000
4,50.8636425000,-0.0942115000,57.1000000000,6.6250000000,-1.3750000000,339.8750000000,image326.jpg,65229.7935620000
4,50.8636433333,-0.0942131667,57.1000000000,5.8750000000,-0.8125000000,338.3750000000,image327.jpg,65430.1377860000
4,50.8636440000,-0.0942146667,57.1000000000,5.9375000000,-1.3125000000,337.8125000000,image328.jpg,65629.8592760000
4,50.8636446667,-0.0942163333,57.1000000000,4.0625000000,-2.0625000000,334.8125000000,image329.jpg,65830.1555550000
4,50.8636455000,-0.0942183333,57.2000000000,3.8750000000,-1.8750000000,329.5625000000,image330.jpg,66030.2093210000
4,50.8636458333,-0.0942200000,57.2000000000,4.2500000000,-1.6250000000,325.9375000000,image331.jpg,66231.0812770000
4,50.8636465000,-0.0942218333,57.2000000000,4.7500000000,-1.6250000000,326.6250000000,image332.jpg,66430.9024560000
4,50.8636470000,-0.0942238333,57.1000000000,5.1875000000,-1.0000000000,329.4375000000,image333.jpg,66630.6773890000
4,50.8636475000,-0.0942255000,57.1000000000,5.4375000000,-1.2500000000,332.8125000000,image334.jpg,66831.1239590000
4,50.8636481667,-0.0942271667,57.2000000000,3.1875000000,-0.3125000000,333.5625000000,image335.jpg,67030.8123860000
4,50.8636488333,-0.0942288333,57.2000000000,3.4375000000,-0.6875000000,334.3125000000,image336.jpg,67231.0445490000
4,50.8636495000,-0.0942305000,57.2000000000,2.9375000000,-0.4375000000,332.2500000000,image337.jpg,67431.1435880000
4,50.8636505000,-0.0942330000,57.2000000000,2.5000000000,0.2500000000,331.5000000000,image338.jpg,67631.3749710000
4,50.8636508333,-0.0942338333,57.2000000000,4.0625000000,0.0000000000,332.5000000000,image339.jpg,67831.0706800000
4,50.8636516667,-0.0942365000,57.2000000000,2.3125000000,-1.0625000000,330.1250000000,image340.jpg,68032.6841720000
4,50.8636520000,-0.0942383333,57.2000000000,3.9375000000,-0.7500000000,327.8750000000,image341.jpg,68233.0567020000
4,50.8636526667,-0.0942401667,57.2000000000,3.5000000000,-1.1250000000,328.1250000000,image342.jpg,68433.0389030000
4,50.8636530000,-0.0942418333,57.2000000000,4.2500000000,-1.1875000000,326.4375000000,image343.jpg,68633.0496630000
4,50.8636533333,-0.0942428333,57.2000000000,5.2500000000,-0.5000000000,324.0000000000,image344.jpg,68831.8509340000
4,50.8636540000,-0.0942453333,57.2000000000,3.5625000000,-2.3125000000,325.0000000000,image345.jpg,69032.5435720000
4,50.8636545000,-0.0942473333,57.2000000000,3.3125000000,-2.4375000000,325.0000000000,image346.jpg,69232.8807290000
4,50.8636548333,-0.0942490000,57.2000000000,4.1875000000,-2.0625000000,322.8125000000,image347.jpg,69434.1307550000
4,50.8636553333,-0.0942508333,57.2000000000,3.5625000000,-0.3750000000,322.8750000000,image348.jpg,69633.2630320000
4,50.8636556667,-0.0942526667,57.2000000000,5.5000000000,-1.5000000000,323.0000000000,image349.jpg,69833.7943830000
4,50.8636561667,-0.0942546667,57.2000000000,5.4375000000,-1.0625000000,322.5000000000,image350.jpg,70032.9430740000
4,50.8636565000,-0.0942565000,57.2000000000,4.5000000000,-1.9375000000,322.2500000000,image351.jpg,70232.7733980000
4,50.8636568333,-0.0942583333,57.2000000000,4.7500000000,-1.6875000000,322.0000000000,image352.jpg,70433.3603760000
4,50.8636573333,-0.0942601667,57.2000000000,4.3125000000,-1.7500000000,320.8750000000,image353.jpg,70634.0067660000
4,50.8636576667,-0.0942620000,57.2000000000,3.7500000000,-0.8750000000,319.6250000000,image354.jpg,70834.1544450000
4,50.8636578333,-0.0942638333,57.2000000000,4.3125000000,-1.2500000000,318.0000000000,image355.jpg,71034.1014960000
4,50.8636581667,-0.0942658333,57.2000000000,3.8125000000,-1.5625000000,316.6875000000,image356.jpg,71233.2079100000
4,50.8636585000,-0.0942676667,57.3000000000,4.2500000000,-1.1875000000,316.1250000000,image357.jpg,71433.2609910000
4,50.8636588333,-0.0942698333,57.3000000000,4.3125000000,-0.4375000000,315.3125000000,image358.jpg,71633.7449510000
4,50.8636590000,-0.0942716667,57.3000000000,3.9375000000,-0.5625000000,313.9375000000,image359.jpg,71833.4439600000
4,50.8636591667,-0.0942736667,57.3000000000,5.1875000000,-0.8125000000,314.3750000000,image360.jpg,72033.5547190000
4,50.8636593333,-0.0942755000,57.3000000000,5.6875000000,-1.7500000000,317.0625000000,image361.jpg,72234.6005070000
4,50.8636600000,-0.0942773333,57.3000000000,4.7500000000,-1.9375000000,323.5000000000,image362.jpg,72433.7051680000
4,50.8636605000,-0.0942791667,57.3000000000,3.0625000000,-2.3125000000,327.3750000000,image363.jpg,72633.7735770000
4,50.8636610000,-0.0942810000,57.3000000000,2.5625000000,-2.5625000000,326.6875000000,image364.jpg,72834.0455290000
4,50.8636615000,-0.0942828333,57.3000000000,2.6250000000,-3.6875000000,323.8125000000,image365.jpg,73033.8516420000
4,50.8636620000,-0.0942846667,57.3000000000,1.8125000000,-2.7500000000,322.8125000000,image366.jpg,73233.9668010000
4,50.8636623333,-0.0942866667,57.3000000000,3.4375000000,-2.5000000000,321.3750000000,image367.jpg,73433.9975700000
4,50.8636626667,-0.0942885000,57.3000000000,2.6875000000,-2.6875000000,318.8125000000,image368.jpg,73634.6024150000
4,50.8636630000,-0.0942903333,57.3000000000,3.8125000000,-1.7500000000,319.6250000000,image369.jpg,73834.5204210000
4,50.8636631667,-0.0942920000,57.3000000000,3.8125000000,-0.6875000000,317.0625000000,image370.jpg,74035.0322220000
4,50.8636633333,-0.0942936667,57.3000000000,4.5000000000,1.5000000000,315.1875000000,image371.jpg,74235.5772700000
4,50.8636635000,-0.0942955000,57.3000000000,5.3125000000,0.3125000000,315.3125000000,image372.jpg,74436.3350630000
4,50.8636638333,-0.0942973333,57.3000000000,5.9375000000,-0.7500000000,314.3750000000,image373.jpg,74635.9747560000
4,50.8636640000,-0.0942993333,57.3000000000,5.6250000000,-1.3750000000,314.5625000000,image374.jpg,74835.7964110000
4,50.8636643333,-0.0943013333,57.3000000000,6.0625000000,-1.7500000000,313.3750000000,image375.jpg,75035.1887200000
4,50.8636645000,-0.0943031667,57.3000000000,4.3125000000,-2.3125000000,312.0625000000,image376.jpg,75235.3772910000
4,50.8636646667,-0.0943051667,57.3000000000,5.0000000000,-4.2500000000,312.9375000000,image377.jpg,75436.6997460000
4,50.8636648333,-0.0943071667,57.3000000000,6.5000000000,-2.8125000000,313.4375000000,image378.jpg,75636.5827470000
4,50.8636653333,-0.0943091667,57.3000000000,5.2500000000,-2.6875000000,315.5625000000,image379.jpg,75836.5101830000
4,50.8636655000,-0.0943108333,57.3000000000,5.5000000000,-3.1875000000,316.5000000000,image380.jpg,76035.7605100000
4,50.8636656667,-0.0943130000,57.3000000000,6.3750000000,-2.8125000000,316.6250000000,image381.jpg,76235.9866720000
4,50.8636661667,-0.0943150000,57.3000000000,5.8750000000,-3.1875000000,318.6250000000,image382.jpg,76436.0515380000
4,50.8636665000,-0.0943168333,57.3000000000,7.6250000000,-2.7500000000,318.7500000000,image383.jpg,76637.0083660000
4,50.8636666667,-0.0943185000,57.3000000000,7.7500000000,-1.5000000000,317.7500000000,image384.jpg,76837.0518020000
4,50.8636670000,-0.0943206667,57.3000000000,7.3750000000,-3.5000000000,316.9375000000,image385.jpg,77037.1170030000
4,50.8636673333,-0.0943225000,57.3000000000,7.3125000000,-4.8125000000,316.5000000000,image386.jpg,77235.9429190000
4,50.8636675000,-0.0943243333,57.4000000000,7.2500000000,-2.6250000000,312.5625000000,image387.jpg,77436.1725390000
4,50.8636676667,-0.0943260000,57.3000000000,7.5625000000,-0.8750000000,312.0000000000,image388.jpg,77636.5085110000
4,50.8636678333,-0.0943280000,57.3000000000,6.3125000000,-1.1875000000,313.0625000000,image389.jpg,77836.5423910000
4,50.8636680000,-0.0943298333,57.3000000000,7.0000000000,-1.8750000000,313.3750000000,image390.jpg,78036.3716990000
4,50.8636681667,-0.0943318333,57.3000000000,6.5000000000,-1.5625000000,312.9375000000,image391.jpg,78236.8195670000
4,50.8636686667,-0.0943341667,57.4000000000,6.1250000000,-1.5000000000,313.0625000000,image392.jpg,78436.4927790000
4,50.8636686667,-0.0943365000,57.3000000000,5.2500000000,-2.9375000000,313.4375000000,image393.jpg,78636.5753280000
4,50.8636690000,-0.0943385000,57.4000000000,6.2500000000,-2.5000000000,313.8125000000,image394.jpg,78836.8556730000
4,50.8636693333,-0.0943406667,57.3000000000,5.5000000000,-1.6875000000,314.0000000000,image395.jpg,79036.7435380000
4,50.8636695000,-0.0943428333,57.4000000000,6.3125000000,-2.4375000000,314.6875000000,image396.jpg,79237.0172810000
4,50.8636696667,-0.0943451667,57.3000000000,5.0625000000,-2.1250000000,314.1875000000,image397.jpg,79436.9165930000
4,50.8636700000,-0.0943473333,57.3000000000,3.9375000000,-3.1250000000,314.7500000000,image398.jpg,79636.9254860000
4,50.8636701667,-0.0943493333,57.3000000000,4.8750000000,-2.8125000000,314.3125000000,image399.jpg,79837.2664560000
4,50.8636703333,-0.0943513333,57.4000000000,5.1875000000,-1.7500000000,312.3750000000,image400.jpg,80037.5042720000
4,50.8636705000,-0.0943533333,57.4000000000,5.3125000000,-3.1250000000,313.0000000000,image401.jpg,80238.2486380000
4,50.8636708333,-0.0943555000,57.4000000000,6.6250000000,-4.2500000000,313.4375000000,image402.jpg,80438.3404980000
4,50.8636710000,-0.0943575000,57.4000000000,5.5000000000,-2.8750000000,313.1250000000,image403.jpg,80638.4188300000
4,50.8636713333,-0.0943593333,57.4000000000,5.1875000000,-3.0000000000,313.1250000000,image404.jpg,80837.2793640000
4,50.8636715000,-0.0943616667,57.4000000000,4.0000000000,-4.1875000000,313.0625000000,image405.jpg,81037.3936800000
4,50.8636716667,-0.0943636667,57.4000000000,6.0625000000,-5.0625000000,312.3750000000,image406.jpg,81237.7532350000
4,50.8636720000,-0.0943658333,57.4000000000,5.2500000000,-4.5625000000,312.1875000000,image407.jpg,81438.7372600000
4,50.8636721667,-0.0943678333,57.4000000000,6.1250000000,-4.1250000000,313.4375000000,image408.jpg,81638.7437600000
4,50.8636725000,-0.0943700000,57.4000000000,5.4375000000,-3.9375000000,313.4375000000,image409.jpg,81838.8882460000
4,50.8636726667,-0.0943721667,57.4000000000,4.0000000000,-5.3125000000,313.5000000000,image410.jpg,82037.7557180000
4,50.8636730000,-0.0943743333,57.4000000000,5.3125000000,-4.4375000000,314.0625000000,image411.jpg,82237.8030440000
4,50.8636733333,-0.0943766667,57.4000000000,4.5000000000,-3.5000000000,313.9375000000,image412.jpg,82438.3919040000
4,50.8636735000,-0.0943790000,57.4000000000,4.5000000000,-5.8125000000,312.3125000000,image413.jpg,82639.1788110000
4,50.8636736667,-0.0943813333,57.4000000000,4.2500000000,-6.1250000000,312.3750000000,image414.jpg,82839.2636670000
4,50.8636740000,-0.0943838333,57.3000000000,4.3125000000,-6.3125000000,312.1875000000,image415.jpg,83039.2038860000
4,50.8636741667,-0.0943865000,57.3000000000,3.7500000000,-6.0000000000,310.6250000000,image416.jpg,83238.2017790000
4,50.8636743333,-0.0943890000,57.3000000000,4.2500000000,-5.4375000000,310.1250000000,image417.jpg,83438.2655320000
4,50.8636745000,-0.0943915000,57.3000000000,3.5625000000,-4.8125000000,309.4375000000,image418.jpg,83638.7785140000
4,50.8636745000,-0.0943936667,57.3000000000,5.3750000000,-4.6250000000,307.8125000000,image419.jpg,83838.4429640000
4,50.8636746667,-0.0943960000,57.3000000000,3.3125000000,-3.9375000000,306.5625000000,image420.jpg,84038.4572710000
4,50.8636746667,-0.0943981667,57.3000000000,3.3125000000,-2.3125000000,302.3750000000,image421.jpg,84238.4557060000
4,50.8636746667,-0.0944003333,57.3000000000,4.9375000000,-3.8750000000,299.5000000000,image422.jpg,84438.4359810000
4,50.8636743333,-0.0944021667,57.3000000000,5.1875000000,-3.8750000000,300.9375000000,image423.jpg,84638.4535140000
4,50.8636745000,-0.0944043333,57.3000000000,6.0625000000,-3.5000000000,305.6250000000,image424.jpg,84838.8537130000
4,50.8636746667,-0.0944063333,57.3000000000,3.6875000000,-2.8125000000,310.6875000000,image425.jpg,85038.7417700000
4,50.8636751667,-0.0944081667,57.3000000000,4.8750000000,-3.8750000000,311.8750000000,image426.jpg,85239.0494080000
4,50.8636751667,-0.0944105000,57.3000000000,5.4375000000,-3.3750000000,312.6250000000,image427.jpg,85439.1947920000
4,50.8636755000,-0.0944128333,57.3000000000,5.1875000000,0.0000000000,313.9375000000,image428.jpg,85639.0524060000
4,50.8636756667,-0.0944158333,57.3000000000,4.8750000000,-1.5625000000,315.3750000000,image429.jpg,85839.4046500000
4,50.8636761667,-0.0944188333,57.3000000000,4.3750000000,-3.2500000000,316.5000000000,image430.jpg,86040.3232780000
4,50.8636766667,-0.0944220000,57.3000000000,3.1250000000,-3.5000000000,316.8750000000,image431.jpg,86240.4387940000
4,50.8636771667,-0.0944250000,57.3000000000,1.2500000000,-3.7500000000,316.6875000000,image432.jpg,86440.6755600000
4,50.8636775000,-0.0944280000,57.3000000000,1.1250000000,-2.3750000000,314.1250000000,image433.jpg,86640.4896160000
4,50.8636776667,-0.0944306667,57.3000000000,4.3125000000,-1.0000000000,315.0000000000,image434.jpg,86839.6382850000
4,50.8636781667,-0.0944335000,57.3000000000,4.4375000000,-1.3125000000,315.6875000000,image435.jpg,87039.6854830000
4,50.8636785000,-0.0944365000,57.3000000000,6.6250000000,-2.3125000000,317.0625000000,image436.jpg,87240.4665390000
4,50.8636790000,-0.0944391667,57.4000000000,4.0000000000,-1.0625000000,318.3750000000,image437.jpg,87440.7178340000
4,50.8636795000,-0.0944420000,57.4000000000,4.3125000000,-1.4375000000,317.3125000000,image438.jpg,87640.7649800000
4,50.8636798333,-0.0944448333,57.4000000000,4.5625000000,-2.3125000000,316.5000000000,image439.jpg,87840.7765760000
4,50.8636803333,-0.0944475000,57.4000000000,4.8125000000,-2.5625000000,317.3125000000,image440.jpg,88040.1075100000
4,50.8636806667,-0.0944503333,57.4000000000,4.5625000000,-2.6875000000,317.1875000000,image441.jpg,88240.1272990000
4,50.8636811667,-0.0944530000,57.4000000000,5.6250000000,-2.7500000000,317.6875000000,image442.jpg,88441.0654380000
4,50.8636816667,-0.0944558333,57.4000000000,2.5625000000,-3.6875000000,315.9375000000,image443.jpg,88641.4013170000
4,50.8636818333,-0.0944586667,57.4000000000,3.5000000000,-2.6250000000,312.1875000000,image444.jpg,88841.3249580000
4,50.8636820000,-0.0944616667,57.4000000000,5.2500000000,-4.1250000000,312.1875000000,image445.jpg,89041.0455360000
4,50.8636825000,-0.0944645000,57.4000000000,4.6875000000,-2.0625000000,313.3125000000,image446.jpg,89240.8220580000
4,50.8636826667,-0.0944673333,57.4000000000,6.5000000000,-3.3750000000,316.0625000000,image447.jpg,89440.9130630000
4,50.8636831667,-0.0944701667,57.4000000000,5.5000000000,-3.1250000000,318.5625000000,image448.jpg,89641.2054130000
4,50.8636836667,-0.0944728333,57.4000000000,4.5625000000,-2.7500000000,318.6875000000,image449.jpg,89840.7527250000
4,50.8636840000,-0.0944753333,57.4000000000,6.9375000000,-3.0000000000,321.1875000000,image450.jpg,90040.8719180000
4,50.8636846667,-0.0944780000,57.4000000000,6.5625000000,-3.1875000000,322.0000000000,image451.jpg,90240.9371440000
4,50.8636851667,-0.0944806667,57.4000000000,5.1250000000,-3.8125000000,322.4375000000,image452.jpg,90440.9723430000
4,50.8636858333,-0.0944833333,57.4000000000,6.3750000000,-2.2500000000,325.0000000000,image453.jpg,90641.1827130000
4,50.8636865000,-0.0944858333,57.4000000000,5.7500000000,-2.1875000000,325.6875000000,image454.jpg,90841.1410500000
4,50.8636870000,-0.0944885000,57.4000000000,4.6250000000,-2.3125000000,322.6250000000,image455.jpg,91041.1172760000
4,50.8636875000,-0.0944911667,57.4000000000,4.5625000000,-3.1250000000,319.4375000000,image456.jpg,91241.2191840000
4,50.8636878333,-0.0944938333,57.4000000000,3.6250000000,-2.9375000000,318.6875000000,image457.jpg,91441.2326730000
4,50.8636883333,-0.0944965000,57.4000000000,5.7500000000,-3.4375000000,318.9375000000,image458.jpg,91641.3570110000
4,50.8636886667,-0.0944990000,57.4000000000,4.8750000000,-2.5625000000,318.6875000000,image459.jpg,91842.2902800000
4,50.8636890000,-0.0945018333,57.4000000000,5.6250000000,-2.3125000000,316.9375000000,image460.jpg,92042.5454050000
4,50.8636895000,-0.0945043333,57.5000000000,4.1250000000,-1.6250000000,315.5000000000,image461.jpg,92242.6742220000
4,50.8636898333,-0.0945071667,57.5000000000,4.6875000000,-3.5000000000,315.5000000000,image462.jpg,92442.8281240000
4,50.8636901667,-0.0945098333,57.5000000000,5.1250000000,-3.1250000000,319.3125000000,image463.jpg,92641.6392690000
4,50.8636906667,-0.0945121667,57.5000000000,5.8750000000,-4.0000000000,324.1875000000,image464.jpg,92841.8031620000
4,50.8636913333,-0.0945145000,57.5000000000,5.0625000000,-2.8125000000,324.4375000000,image465.jpg,93042.5675490000
4,50.8636920000,-0.0945171667,57.5000000000,7.5000000000,-2.1250000000,326.7500000000,image466.jpg,93243.0335190000
4,50.8636925000,-0.0945195000,57.5000000000,4.5000000000,-2.8125000000,330.7500000000,image467.jpg,93442.9915970000
4,50.8636933333,-0.0945216667,57.5000000000,7.6875000000,-3.2500000000,333.0000000000,image468.jpg,93643.5329780000
4,50.8636943333,-0.0945238333,57.5000000000,6.0000000000,-2.0625000000,338.2500000000,image469.jpg,93842.6937800000
4,50.8636953333,-0.0945260000,57.5000000000,6.1875000000,-2.1250000000,342.0000000000,image470.jpg,94042.7506620000
4,50.8636963333,-0.0945280000,57.5000000000,5.7500000000,-2.0000000000,342.6875000000,image471.jpg,94243.4586160000
4,50.8636975000,-0.0945301667,57.5000000000,6.2500000000,-2.1250000000,345.3125000000,image472.jpg,94443.8976580000
4,50.8636986667,-0.0945318333,57.5000000000,4.2500000000,-3.6250000000,345.5000000000,image473.jpg,94644.0718990000
4,50.8636996667,-0.0945338333,57.5000000000,3.9375000000,-3.1250000000,342.6875000000,image474.jpg,94843.9465410000
4,50.8637008333,-0.0945360000,57.5000000000,3.6875000000,-2.1250000000,338.3750000000,image475.jpg,95043.0628040000
4,50.8637016667,-0.0945381667,57.5000000000,3.8125000000,-1.6250000000,339.0625000000,image476.jpg,95243.8687520000
4,50.8637025000,-0.0945403333,57.5000000000,5.6875000000,-2.8125000000,339.1250000000,image477.jpg,95443.7118210000
4,50.8637036667,-0.0945425000,57.5000000000,5.3750000000,-1.0625000000,338.8750000000,image478.jpg,95643.2757720000
4,50.8637045000,-0.0945446667,57.5000000000,5.8750000000,-2.1250000000,338.6875000000,image479.jpg,95843.3447480000
4,50.8637056667,-0.0945468333,57.5000000000,8.5625000000,-2.8750000000,343.7500000000,image480.jpg,96043.4476760000
4,50.8637068333,-0.0945486667,57.5000000000,6.2500000000,-3.3125000000,350.7500000000,image481.jpg,96243.6297120000
4,50.8637081667,-0.0945505000,57.5000000000,8.5000000000,-4.3750000000,354.2500000000,image482.jpg,96443.4854240000
4,50.8637095000,-0.0945521667,57.5000000000,8.0625000000,-1.0000000000,353.6875000000,image483.jpg,96643.6407620000
4,50.8637108333,-0.0945536667,57.5000000000,9.4375000000,-1.7500000000,1.6250000000,image484.jpg,96843.8414420000
4,50.8637123333,-0.0945546667,57.5000000000,7.1875000000,-2.3125000000,5.5625000000,image485.jpg,97043.7990190000
4,50.8637138333,-0.0945560000,57.5000000000,7.1250000000,-1.8750000000,4.3750000000,image486.jpg,97243.9121090000
4,50.8637153333,-0.0945570000,57.6000000000,1.8750000000,-2.0000000000,359.4375000000,image487.jpg,97443.9512420000
4,50.8637161667,-0.0945586667,57.5000000000,5.3750000000,-2.0625000000,353.7500000000,image488.jpg,97644.4241790000
4,50.8637170000,-0.0945601667,57.5000000000,5.6875000000,-3.0000000000,349.0000000000,image489.jpg,97845.2265650000
4,50.8637176667,-0.0945615000,57.5000000000,5.9375000000,-3.1250000000,347.2500000000,image490.jpg,98044.9940420000
4,50.8637185000,-0.0945630000,57.6000000000,3.3125000000,-4.3125000000,347.3750000000,image491.jpg,98245.0691150000
4,50.8637186667,-0.0945628333,57.6000000000,4.0000000000,-3.8125000000,347.1250000000,image492.jpg,98444.2625690000
4,50.8637186667,-0.0945626667,57.6000000000,4.7500000000,-3.0625000000,347.1250000000,image493.jpg,98644.3795390000
4,50.8637186667,-0.0945628333,57.6000000000,4.9375000000,-3.1250000000,347.1875000000,image494.jpg,98844.8232080000
4,50.8637185000,-0.0945628333,57.6000000000,5.0625000000,-3.1250000000,347.1875000000,image495.jpg,99045.3740870000
4,50.8637185000,-0.0945628333,57.6000000000,5.1250000000,-3.1250000000,347.1875000000,image496.jpg,99245.7056400000
4,50.8637185000,-0.0945628333,57.5000000000,5.2500000000,-3.1250000000,347.1875000000,image497.jpg,99445.5238500000
4,50.8637185000,-0.0945628333,57.5000000000,5.3125000000,-3.1250000000,347.1875000000,image498.jpg,99644.9021040000
4,50.8637185000,-0.0945628333,57.5000000000,5.3750000000,-3.1250000000,347.1875000000,image499.jpg,99844.8846000000
4,50.8637185000,-0.0945628333,57.5000000000,5.3750000000,-3.1250000000,347.1875000000,image500.jpg,100045.4093630000
4,50.8637185000,-0.0945628333,57.5000000000,5.3750000000,-3.1250000000,347.1875000000,image501.jpg,100245.9850300000
4,50.8637185000,-0.0945628333,57.6000000000,5.3750000000,-3.1250000000,347.1875000000,image502.jpg,100446.0048760000
4,50.8637185000,-0.0945628333,57.6000000000,5.3750000000,-3.1250000000,347.1875000000,image503.jpg,100646.0795300000
4,50.8637185000,-0.0945628333,57.6000000000,5.3750000000,-3.1250000000,347.1875000000,image504.jpg,100845.2433000000
4,50.8637185000,-0.0945628333,57.6000000000,5.3750000000,-3.1250000000,347.1875000000,image505.jpg,101045.2653550000
4,50.8637185000,-0.0945628333,57.6000000000,5.3750000000,-3.1250000000,347.1875000000,image506.jpg,101246.2213150000
4,50.8637185000,-0.0945628333,57.5000000000,5.3750000000,-3.1250000000,347.1875000000,image507.jpg,101446.6041170000
4,50.8637186667,-0.0945628333,57.5000000000,5.3750000000,-3.1250000000,347.1875000000,image508.jpg,101646.4597730000
4,50.8637185000,-0.0945628333,57.5000000000,5.3750000000,-3.1250000000,347.1875000000,image509.jpg,101846.0139500000
4,50.8637185000,-0.0945628333,57.5000000000,5.3750000000,-3.1250000000,347.1875000000,image510.jpg,102045.5837880000
4,50.8637185000,-0.0945628333,57.5000000000,5.3750000000,-3.1250000000,347.1875000000,image511.jpg,102245.8370830000
4,50.8637185000,-0.0945628333,57.5000000000,5.3750000000,-3.1250000000,347.1875000000,image512.jpg,102446.6917010000
4,50.8637185000,-0.0945628333,57.5000000000,5.3750000000,-3.1250000000,347.1875000000,image513.jpg,102646.4407970000
4,50.8637185000,-0.0945628333,57.5000000000,5.3750000000,-3.1250000000,347.1875000000,image514.jpg,102845.8672510000
4,50.8637185000,-0.0945628333,57.5000000000,5.3750000000,-3.1250000000,347.1875000000,image515.jpg,103045.8765950000
4,50.8637186667,-0.0945628333,57.5000000000,5.3750000000,-3.1250000000,347.1875000000,image516.jpg,103245.9738520000
4,50.8637186667,-0.0945628333,57.5000000000,5.3750000000,-3.1250000000,347.1875000000,image517.jpg,103449.6207360000
4,50.8637186667,-0.0945628333,57.5000000000,5.3750000000,-3.1250000000,347.1875000000,image518.jpg,103647.0938590000
