gps quality,lat,lon,altitude,roll,pitch,yaw,image name,timestamp
4,50.8634171667,-0.0939376667,56.6000000000,7.6250000000,-1.1875000000,0.1250000000,image0.jpg,2.4139070000
4,50.8634173333,-0.0939376667,56.6000000000,7.6875000000,-1.2500000000,0.1250000000,image1.jpg,202.2015110000
4,50.8634173333,-0.0939376667,56.6000000000,9.0625000000,0.0000000000,0.7500000000,image2.jpg,402.6145320000
4,50.8634180000,-0.0939388333,56.7000000000,8.6875000000,-1.3125000000,1.3125000000,image3.jpg,602.9255210000
4,50.8634195000,-0.0939403333,56.7000000000,8.0000000000,-1.6875000000,2.0625000000,image4.jpg,803.0660420000
4,50.8634203333,-0.0939411667,56.7000000000,7.1250000000,-2.0625000000,2.4375000000,image5.jpg,1003.0490110000
4,50.8634210000,-0.0939418333,56.7000000000,9.2500000000,-1.2500000000,2.6250000000,image6.jpg,1203.2183850000
4,50.8634215000,-0.0939426667,56.7000000000,8.1250000000,-3.0000000000,1.3750000000,image7.jpg,1403.1799480000
4,50.8634220000,-0.0939431667,56.7000000000,7.2500000000,-2.4375000000,359.8750000000,image8.jpg,1602.3308850000
4,50.8634226667,-0.0939440000,56.7000000000,7.1875000000,-2.1875000000,359.1250000000,image9.jpg,1802.3641660000
4,50.8634235000,-0.0939448333,56.7000000000,7.9375000000,-1.9375000000,359.7500000000,image10.jpg,2002.4331770000
4,50.8634241667,-0.0939456667,56.7000000000,8.5625000000,-1.1250000000,359.8750000000,image11.jpg,2202.5883330000
4,50.8634246667,-0.0939463333,56.7000000000,7.8750000000,-1.0625000000,359.4375000000,image12.jpg,2403.0687500000
4,50.8634253333,-0.0939473333,56.7000000000,6.4375000000,-1.1250000000,359.1250000000,image13.jpg,2603.6826040000
4,50.8634263333,-0.0939480000,56.7000000000,6.6250000000,-2.0000000000,359.4375000000,image14.jpg,2803.7457810000
4,50.8634268333,-0.0939490000,56.7000000000,8.1875000000,-1.8750000000,359.2500000000,image15.jpg,3003.5994260000
4,50.8634275000,-0.0939500000,56.7000000000,9.1250000000,-2.2500000000,359.3125000000,image16.jpg,3203.7619780000
4,50.8634285000,-0.0939506667,56.7000000000,6.8750000000,-1.1875000000,358.9375000000,image17.jpg,3403.8261450000
4,50.8634290000,-0.0939518333,56.7000000000,8.1250000000,-2.0000000000,358.5625000000,image18.jpg,3603.0397910000
4,50.8634298333,-0.0939528333,56.7000000000,7.5625000000,-2.3125000000,358.6875000000,image19.jpg,3802.9455720000
4,50.8634306667,-0.0939538333,56.7000000000,9.1250000000,-2.0000000000,358.3125000000,image20.jpg,4003.0159360000
4,50.8634313333,-0.0939545000,56.7000000000,8.7500000000,-3.0625000000,358.9375000000,image21.jpg,4203.3439050000
4,50.8634320000,-0.0939555000,56.7000000000,7.7500000000,-2.8750000000,359.0000000000,image22.jpg,4403.7518220000
4,50.8634328333,-0.0939565000,56.7000000000,10.0000000000,-3.1875000000,359.7500000000,image23.jpg,4604.1945300000
4,50.8634336667,-0.0939573333,56.7000000000,9.4375000000,-2.2500000000,1.9375000000,image24.jpg,4804.3477590000
4,50.8634345000,-0.0939581667,56.7000000000,9.9375000000,-1.1875000000,4.5625000000,image25.jpg,5004.3699460000
4,50.8634355000,-0.0939588333,56.7000000000,8.7500000000,-2.0625000000,6.8125000000,image26.jpg,5204.4275510000
4,50.8634363333,-0.0939598333,56.7000000000,10.3750000000,-2.5625000000,7.5625000000,image27.jpg,5404.5199460000
4,50.8634371667,-0.0939605000,56.7000000000,9.9375000000,-3.1875000000,7.7500000000,image28.jpg,5603.5514050000
4,50.8634381667,-0.0939611667,56.7000000000,9.3125000000,-2.3125000000,8.6250000000,image29.jpg,5803.6618730000
4,50.8634391667,-0.0939621667,56.7000000000,9.3750000000,-1.3750000000,10.0625000000,image30.jpg,6003.7354670000
4,50.8634400000,-0.0939628333,56.7000000000,8.5625000000,-1.7500000000,10.5625000000,image31.jpg,6204.0644250000
4,50.8634410000,-0.0939633333,56.7000000000,8.8125000000,-0.5625000000,10.8750000000,image32.jpg,6404.5354670000
4,50.8634420000,-0.0939641667,56.7000000000,8.8750000000,-1.5625000000,11.5625000000,image33.jpg,6604.0575500000
4,50.8634431667,-0.0939648333,56.7000000000,6.4375000000,-1.6250000000,12.1250000000,image34.jpg,6803.9864040000
4,50.8634441667,-0.0939656667,56.7000000000,7.5000000000,-1.5000000000,13.4375000000,image35.jpg,7004.1258830000
4,50.8634453333,-0.0939663333,56.7000000000,7.3125000000,-0.3750000000,13.9375000000,image36.jpg,7204.2058830000
4,50.8634465000,-0.0939670000,56.7000000000,7.4375000000,-0.5625000000,15.0000000000,image37.jpg,7404.2339040000
4,50.8634475000,-0.0939675000,56.7000000000,7.6250000000,-0.1250000000,16.9375000000,image38.jpg,7604.2759870000
4,50.8634485000,-0.0939680000,56.7000000000,7.1875000000,-0.3750000000,18.2500000000,image39.jpg,7804.3620810000
4,50.8634496667,-0.0939686667,56.7000000000,7.6250000000,-0.6250000000,18.8125000000,image40.jpg,8004.4276020000
4,50.8634508333,-0.0939691667,56.7000000000,6.6875000000,-0.6250000000,19.3750000000,image41.jpg,8204.5227060000
4,50.8634518333,-0.0939696667,56.7000000000,6.6875000000,0.2500000000,20.1250000000,image42.jpg,8404.7849450000
4,50.8634530000,-0.0939701667,56.7000000000,7.7500000000,0.4375000000,20.6250000000,image43.jpg,8604.5817680000
4,50.8634541667,-0.0939705000,56.7000000000,8.6250000000,0.8125000000,21.3750000000,image44.jpg,8804.6642160000
4,50.8634550000,-0.0939710000,56.7000000000,9.5625000000,0.8750000000,22.1250000000,image45.jpg,9004.6953620000
4,50.8634561667,-0.0939713333,56.8000000000,9.5000000000,0.8125000000,22.6875000000,image46.jpg,9204.8260910000
4,50.8634573333,-0.0939718333,56.8000000000,9.7500000000,0.0000000000,24.5000000000,image47.jpg,9404.8324450000
4,50.8634583333,-0.0939721667,56.8000000000,10.0625000000,-0.3750000000,26.0000000000,image48.jpg,9604.9492160000
4,50.8634595000,-0.0939723333,56.8000000000,10.0000000000,-0.0625000000,27.8125000000,image49.jpg,9804.9635900000
4,50.8634606667,-0.0939725000,56.8000000000,8.7500000000,0.3125000000,29.6250000000,image50.jpg,10005.0470280000
4,50.8634616667,-0.0939726667,56.8000000000,9.4375000000,0.5625000000,31.3750000000,image51.jpg,10205.3510380000
4,50.8634628333,-0.0939728333,56.8000000000,9.7500000000,0.3125000000,32.4375000000,image52.jpg,10405.9586420000
4,50.8634640000,-0.0939728333,56.8000000000,8.5625000000,-0.5625000000,32.2500000000,image53.jpg,10606.4955170000
4,50.8634650000,-0.0939730000,56.8000000000,8.0000000000,0.6250000000,31.6250000000,image54.jpg,10806.3268190000
4,50.8634661667,-0.0939733333,56.8000000000,8.3125000000,1.5625000000,30.4375000000,image55.jpg,11006.4069750000
4,50.8634673333,-0.0939733333,56.8000000000,7.6875000000,-0.3750000000,30.3125000000,image56.jpg,11206.4936940000
4,50.8634683333,-0.0939736667,56.8000000000,8.8750000000,-0.1875000000,31.1250000000,image57.jpg,11406.5435380000
4,50.8634696667,-0.0939738333,56.8000000000,8.1250000000,-1.3750000000,30.3750000000,image58.jpg,11605.8742150000
4,50.8634706667,-0.0939740000,56.8000000000,8.1250000000,-0.0625000000,29.2500000000,image59.jpg,11805.7139540000
4,50.8634718333,-0.0939741667,56.8000000000,8.1250000000,-1.4375000000,28.8125000000,image60.jpg,12005.7905690000
4,50.8634728333,-0.0939745000,56.8000000000,6.8125000000,-0.3125000000,25.6250000000,image61.jpg,12205.8942670000
4,50.8634740000,-0.0939748333,56.8000000000,7.3750000000,-1.7500000000,24.0000000000,image62.jpg,12406.4710890000
4,50.8634750000,-0.0939751667,56.8000000000,7.8125000000,-0.8125000000,23.7500000000,image63.jpg,12606.9359850000
4,50.8634760000,-0.0939756667,56.8000000000,7.1250000000,-0.6250000000,23.8750000000,image64.jpg,12806.9997870000
4,50.8634771667,-0.0939760000,56.8000000000,9.3750000000,-0.8125000000,24.5625000000,image65.jpg,13007.0981210000
4,50.8634783333,-0.0939763333,56.8000000000,8.1250000000,-1.2500000000,24.2500000000,image66.jpg,13207.1920270000
4,50.8634795000,-0.0939766667,56.8000000000,7.9375000000,-1.5625000000,22.8125000000,image67.jpg,13407.3446830000
4,50.8634806667,-0.0939773333,56.8000000000,8.5625000000,-2.6250000000,20.8750000000,image68.jpg,13606.3591620000
4,50.8634818333,-0.0939778333,56.8000000000,7.1875000000,-1.9375000000,20.3125000000,image69.jpg,13806.4303600000
4,50.8634830000,-0.0939781667,56.8000000000,7.9375000000,-1.2500000000,18.5000000000,image70.jpg,14006.4954120000
4,50.8634841667,-0.0939790000,56.8000000000,7.5625000000,-2.1875000000,16.6250000000,image71.jpg,14206.7150470000
4,50.8634851667,-0.0939793333,56.8000000000,6.9375000000,-2.3750000000,16.6250000000,image72.jpg,14407.2825990000
4,50.8634861667,-0.0939801667,56.8000000000,9.2500000000,-2.7500000000,17.4375000000,image73.jpg,14607.6582240000
4,50.8634875000,-0.0939806667,56.8000000000,7.1250000000,-2.9375000000,17.5000000000,image74.jpg,14807.7323910000
4,50.8634885000,-0.0939811667,56.8000000000,6.8125000000,-1.3125000000,17.7500000000,image75.jpg,15007.7973390000
4,50.8634895000,-0.0939818333,56.8000000000,4.5625000000,-2.0625000000,17.1250000000,image76.jpg,15207.8836410000
4,50.8634908333,-0.0939823333,56.8000000000,1.8125000000,-2.4375000000,15.8750000000,image77.jpg,15408.1149950000
4,50.8634918333,-0.0939828333,56.8000000000,1.9375000000,-3.2500000000,15.3125000000,image78.jpg,15607.0516610000
4,50.8634930000,-0.0939836667,56.8000000000,3.5000000000,-2.1250000000,13.5000000000,image79.jpg,15807.1400470000
4,50.8634940000,-0.0939843333,56.8000000000,5.2500000000,-0.6875000000,11.3750000000,image80.jpg,16007.2781710000
4,50.8634951667,-0.0939851667,56.8000000000,6.8125000000,-0.3125000000,9.8125000000,image81.jpg,16207.6347340000
4,50.8634960000,-0.0939858333,56.8000000000,4.1250000000,2.0625000000,9.0625000000,image82.jpg,16407.9657230000
4,50.8634968333,-0.0939868333,56.8000000000,7.0625000000,0.7500000000,10.1875000000,image83.jpg,16607.4467650000
4,50.8634978333,-0.0939876667,56.8000000000,9.0000000000,0.7500000000,11.1875000000,image84.jpg,16807.5590570000
4,50.8634986667,-0.0939883333,56.8000000000,8.6250000000,-0.5625000000,10.5625000000,image85.jpg,17007.6635880000
4,50.8634998333,-0.0939890000,56.8000000000,6.9375000000,-1.2500000000,11.6250000000,image86.jpg,17207.7277020000
4,50.8635010000,-0.0939898333,56.8000000000,7.0625000000,-1.3125000000,12.8125000000,image87.jpg,17407.8032750000
4,50.8635021667,-0.0939905000,56.8000000000,7.3750000000,-1.1875000000,13.3750000000,image88.jpg,17607.8613480000
4,50.8635031667,-0.0939911667,56.8000000000,7.0000000000,-1.0625000000,13.5000000000,image89.jpg,17807.9341600000
4,50.8635041667,-0.0939918333,56.8000000000,7.1875000000,0.0000000000,13.3125000000,image90.jpg,18007.9055140000
4,50.8635051667,-0.0939925000,56.8000000000,6.5000000000,0.0000000000,12.6250000000,image91.jpg,18208.2820770000
4,50.8635060000,-0.0939931667,56.8000000000,7.6875000000,-0.3125000000,11.5000000000,image92.jpg,18408.1011910000
4,50.8635073333,-0.0939940000,56.8000000000,6.9375000000,-0.9375000000,11.0625000000,image93.jpg,18608.2354100000
4,50.8635083333,-0.0939948333,56.8000000000,9.6875000000,-2.0000000000,10.3750000000,image94.jpg,18808.3036390000
4,50.8635093333,-0.0939955000,56.8000000000,8.9375000000,-0.3750000000,10.1250000000,image95.jpg,19008.3746290000
4,50.8635103333,-0.0939963333,56.8000000000,8.0625000000,-1.5000000000,9.1250000000,image96.jpg,19208.4752540000
4,50.8635113333,-0.0939971667,56.8000000000,10.0625000000,-1.0625000000,7.7500000000,image97.jpg,19408.5333260000
4,50.8635125000,-0.0939981667,56.8000000000,9.3750000000,-1.4375000000,6.7500000000,image98.jpg,19608.4663990000
4,50.8635133333,-0.0939990000,56.8000000000,8.5625000000,-2.1875000000,6.2500000000,image99.jpg,19808.5652010000
4,50.8635145000,-0.0940001667,56.8000000000,10.1250000000,-2.0000000000,6.6250000000,image100.jpg,20008.8619720000
4,50.8635156667,-0.0940010000,56.8000000000,10.0625000000,-2.2500000000,6.8750000000,image101.jpg,20209.6549930000
4,50.8635165000,-0.0940018333,56.8000000000,8.5000000000,-0.7500000000,6.8125000000,image102.jpg,20409.7305660000
4,50.8635175000,-0.0940028333,56.8000000000,9.2500000000,-0.5625000000,6.5000000000,image103.jpg,20609.8354090000
4,50.8635186667,-0.0940036667,56.8000000000,9.0625000000,-0.8750000000,6.6250000000,image104.jpg,20809.9315550000
4,50.8635196667,-0.0940045000,56.9000000000,8.6250000000,-1.0625000000,6.6250000000,image105.jpg,21010.0120760000
4,50.8635206667,-0.0940056667,56.9000000000,9.0625000000,-1.9375000000,6.3125000000,image106.jpg,21210.1338470000
4,50.8635218333,-0.0940065000,56.9000000000,7.2500000000,-2.1250000000,5.5625000000,image107.jpg,21409.1833780000
4,50.8635228333,-0.0940075000,56.9000000000,7.8125000000,-1.4375000000,4.6875000000,image108.jpg,21609.2266590000
4,50.8635240000,-0.0940085000,56.9000000000,7.6875000000,-2.0000000000,3.1875000000,image109.jpg,21809.3294190000
4,50.8635250000,-0.0940096667,56.9000000000,8.0625000000,-1.1875000000,2.0625000000,image110.jpg,22009.5460340000
4,50.8635260000,-0.0940108333,56.9000000000,6.2500000000,-1.5625000000,359.9375000000,image111.jpg,22210.0824920000
4,50.8635268333,-0.0940120000,56.9000000000,6.6250000000,-2.0000000000,357.6250000000,image112.jpg,22410.4756170000
4,50.8635278333,-0.0940133333,56.9000000000,6.2500000000,-1.9375000000,356.0625000000,image113.jpg,22610.5078040000
4,50.8635288333,-0.0940146667,56.9000000000,6.8750000000,-2.7500000000,353.6250000000,image114.jpg,22810.5880130000
4,50.8635295000,-0.0940158333,56.9000000000,6.5000000000,-2.3750000000,352.5625000000,image115.jpg,23010.6644190000
4,50.8635305000,-0.0940171667,56.9000000000,5.7500000000,-3.1250000000,351.6250000000,image116.jpg,23210.6983250000
4,50.8635313333,-0.0940186667,56.9000000000,8.7500000000,-2.5000000000,351.5000000000,image117.jpg,23409.8712940000
4,50.8635323333,-0.0940198333,56.9000000000,8.3750000000,-2.3750000000,350.8750000000,image118.jpg,23609.9434290000
4,50.8635331667,-0.0940213333,56.9000000000,8.8750000000,-1.8750000000,351.3125000000,image119.jpg,23810.0137410000
4,50.8635340000,-0.0940228333,56.9000000000,8.6250000000,-2.6250000000,351.5000000000,image120.jpg,24010.3904600000
4,50.8635348333,-0.0940240000,56.9000000000,9.1875000000,-3.2500000000,352.2500000000,image121.jpg,24211.0247830000
4,50.8635356667,-0.0940251667,56.9000000000,7.8750000000,-1.6250000000,353.2500000000,image122.jpg,24411.2023350000
4,50.8635365000,-0.0940266667,56.9000000000,8.1250000000,-2.0625000000,353.4375000000,image123.jpg,24611.1732200000
4,50.8635375000,-0.0940278333,56.9000000000,7.2500000000,-2.2500000000,354.6250000000,image124.jpg,24811.2423870000
4,50.8635385000,-0.0940290000,56.9000000000,5.3750000000,-2.6875000000,354.8125000000,image125.jpg,25011.3238970000
4,50.8635395000,-0.0940305000,56.9000000000,8.2500000000,-0.6250000000,354.9375000000,image126.jpg,25210.8525430000
4,50.8635403333,-0.0940316667,56.9000000000,7.3125000000,-0.5625000000,354.4375000000,image127.jpg,25410.5047820000
4,50.8635413333,-0.0940328333,56.9000000000,7.0625000000,-0.1250000000,353.3750000000,image128.jpg,25610.5595740000
4,50.8635420000,-0.0940341667,56.9000000000,7.0625000000,0.5000000000,351.6875000000,image129.jpg,25810.6325950000
4,50.8635430000,-0.0940356667,56.9000000000,7.8125000000,-0.6250000000,350.1250000000,image130.jpg,26011.2620220000
4,50.8635438333,-0.0940370000,56.9000000000,7.6875000000,-1.8125000000,348.9375000000,image131.jpg,26210.7811880000
4,50.8635445000,-0.0940385000,56.9000000000,8.3750000000,-1.3750000000,347.3125000000,image132.jpg,26410.8655630000
4,50.8635453333,-0.0940403333,56.9000000000,9.0000000000,-1.8125000000,346.1875000000,image133.jpg,26610.9482190000
4,50.8635461667,-0.0940416667,56.9000000000,9.6875000000,-2.5000000000,345.6250000000,image134.jpg,26811.0427510000
4,50.8635468333,-0.0940431667,56.9000000000,9.3750000000,-1.2500000000,344.3125000000,image135.jpg,27011.1069170000
4,50.8635476667,-0.0940446667,56.9000000000,7.8125000000,-1.6250000000,343.7500000000,image136.jpg,27211.1860320000
4,50.8635485000,-0.0940463333,56.9000000000,8.1875000000,-1.8750000000,342.8750000000,image137.jpg,27411.2422820000
4,50.8635491667,-0.0940478333,56.9000000000,8.0625000000,-1.9375000000,342.0625000000,image138.jpg,27611.3550940000
4,50.8635500000,-0.0940496667,56.9000000000,7.3750000000,-3.0000000000,341.2500000000,image139.jpg,27811.6472290000
4,50.8635506667,-0.0940513333,56.9000000000,9.0625000000,-2.7500000000,339.8750000000,image140.jpg,28011.5150940000
4,50.8635513333,-0.0940528333,56.9000000000,8.0625000000,-2.8125000000,340.3750000000,image141.jpg,28211.5915000000
4,50.8635520000,-0.0940545000,56.9000000000,8.0625000000,-2.6250000000,341.0625000000,image142.jpg,28411.6524380000
4,50.8635528333,-0.0940563333,56.9000000000,8.7500000000,-3.2500000000,341.5625000000,image143.jpg,28611.7048330000
4,50.8635535000,-0.0940580000,56.9000000000,7.8750000000,-2.7500000000,341.6875000000,image144.jpg,28811.7779060000
4,50.8635543333,-0.0940593333,56.9000000000,6.6250000000,-2.1250000000,342.6250000000,image145.jpg,29011.8521770000
4,50.8635550000,-0.0940613333,56.9000000000,7.6875000000,-2.5000000000,342.5000000000,image146.jpg,29211.9480100000
4,50.8635558333,-0.0940628333,56.9000000000,7.1875000000,-3.1250000000,343.3125000000,image147.jpg,29411.9656660000
4,50.8635566667,-0.0940641667,56.9000000000,7.8750000000,-2.6250000000,344.6250000000,image148.jpg,29612.1143640000
4,50.8635575000,-0.0940658333,56.9000000000,6.6875000000,-2.8125000000,345.7500000000,image149.jpg,29812.6642080000
4,50.8635583333,-0.0940675000,56.9000000000,6.8750000000,-1.5000000000,346.3125000000,image150.jpg,30013.3393120000
4,50.8635591667,-0.0940690000,56.9000000000,6.1875000000,-1.1875000000,345.7500000000,image151.jpg,30213.3694680000
4,50.8635600000,-0.0940706667,56.9000000000,7.5625000000,-2.3125000000,345.3125000000,image152.jpg,30413.3559260000
4,50.8635608333,-0.0940721667,57.0000000000,8.6875000000,-2.1250000000,345.5625000000,image153.jpg,30613.4088950000
4,50.8635616667,-0.0940736667,57.0000000000,8.0625000000,-1.7500000000,345.4375000000,image154.jpg,30813.5006660000
4,50.8635625000,-0.0940753333,57.0000000000,7.7500000000,-2.0625000000,345.3125000000,image155.jpg,31012.8129050000
4,50.8635631667,-0.0940770000,57.0000000000,9.3750000000,-1.3125000000,344.3125000000,image156.jpg,31212.6664990000
4,50.8635641667,-0.0940786667,57.0000000000,9.1875000000,-2.2500000000,342.7500000000,image157.jpg,31412.7305610000
4,50.8635648333,-0.0940803333,57.0000000000,8.4375000000,-2.6875000000,341.2500000000,image158.jpg,31612.7913950000
4,50.8635655000,-0.0940820000,57.0000000000,7.3750000000,-2.2500000000,340.3125000000,image159.jpg,31813.3885300000
4,50.8635663333,-0.0940838333,57.0000000000,8.1875000000,-2.6250000000,339.5625000000,image160.jpg,32013.9629570000
4,50.8635670000,-0.0940856667,57.0000000000,8.0625000000,-1.6250000000,339.2500000000,image161.jpg,32214.0361860000
4,50.8635678333,-0.0940873333,57.0000000000,6.6250000000,-2.1875000000,338.2500000000,image162.jpg,32414.0208210000
4,50.8635685000,-0.0940891667,57.0000000000,7.1250000000,-2.3125000000,337.4375000000,image163.jpg,32614.1079050000
4,50.8635691667,-0.0940910000,57.0000000000,6.3125000000,-2.1250000000,336.0000000000,image164.jpg,32814.1040500000
4,50.8635698333,-0.0940928333,57.0000000000,6.2500000000,-2.5000000000,335.5000000000,image165.jpg,33013.2575400000
4,50.8635703333,-0.0940945000,57.0000000000,8.0625000000,-2.5625000000,334.2500000000,image166.jpg,33213.3494150000
4,50.8635710000,-0.0940965000,57.0000000000,8.6875000000,-3.1250000000,332.6875000000,image167.jpg,33413.3721230000
4,50.8635715000,-0.0940985000,57.0000000000,8.3750000000,-3.6875000000,331.8125000000,image168.jpg,33613.6989460000
4,50.8635720000,-0.0941001667,57.0000000000,9.1875000000,-2.9375000000,331.3750000000,image169.jpg,33814.2443630000
4,50.8635725000,-0.0941023333,57.0000000000,9.5000000000,-3.6250000000,331.6250000000,image170.jpg,34014.5153520000
4,50.8635733333,-0.0941041667,57.0000000000,8.5000000000,-4.6250000000,333.0625000000,image171.jpg,34214.5841540000
4,50.8635738333,-0.0941061667,57.0000000000,11.3750000000,-2.2500000000,335.6250000000,image172.jpg,34414.8334770000
4,50.8635745000,-0.0941078333,57.0000000000,10.6250000000,-1.3750000000,338.4375000000,image173.jpg,34614.6695190000
4,50.8635753333,-0.0941096667,57.0000000000,11.0625000000,-0.8750000000,342.8750000000,image174.jpg,34814.2016020000
4,50.8635761667,-0.0941113333,57.0000000000,12.5000000000,-0.6875000000,345.5000000000,image175.jpg,35013.8982680000
4,50.8635771667,-0.0941128333,57.0000000000,11.5000000000,-2.0000000000,347.8750000000,image176.jpg,35213.9647790000
4,50.8635781667,-0.0941145000,57.0000000000,10.0000000000,-3.6250000000,351.5000000000,image177.jpg,35414.0442580000
4,50.8635791667,-0.0941160000,57.1000000000,11.0625000000,-3.3125000000,352.6875000000,image178.jpg,35614.5564450000
4,50.8635803333,-0.0941176667,57.1000000000,9.6250000000,-2.5625000000,352.3750000000,image179.jpg,35814.1670180000
4,50.8635813333,-0.0941191667,57.1000000000,9.8750000000,-2.5625000000,352.8125000000,image180.jpg,36014.1868100000
4,50.8635825000,-0.0941208333,57.0000000000,8.8750000000,-2.9375000000,352.0625000000,image181.jpg,36214.2635800000
4,50.8635835000,-0.0941223333,57.0000000000,8.3125000000,-2.7500000000,351.5000000000,image182.jpg,36414.3202990000
4,50.8635845000,-0.0941241667,57.0000000000,8.8125000000,-2.5625000000,351.1250000000,image183.jpg,36614.3381640000
4,50.8635855000,-0.0941255000,57.0000000000,7.6250000000,-2.9375000000,351.1250000000,image184.jpg,36814.4538410000
4,50.8635865000,-0.0941270000,57.0000000000,8.1875000000,-2.0625000000,352.0000000000,image185.jpg,37014.5276950000
4,50.8635875000,-0.0941285000,57.0000000000,8.5625000000,-1.2500000000,351.9375000000,image186.jpg,37214.6271740000
4,50.8635883333,-0.0941300000,57.0000000000,9.4375000000,-1.7500000000,352.0000000000,image187.jpg,37414.8330070000
4,50.8635893333,-0.0941315000,57.1000000000,10.6250000000,-1.6875000000,352.5625000000,image188.jpg,37614.7419130000
4,50.8635903333,-0.0941330000,57.1000000000,10.3750000000,-2.8750000000,354.3750000000,image189.jpg,37814.8199860000
4,50.8635913333,-0.0941343333,57.1000000000,10.4375000000,-2.3125000000,355.3125000000,image190.jpg,38014.9030590000
4,50.8635923333,-0.0941356667,57.1000000000,8.3125000000,-1.0625000000,356.0000000000,image191.jpg,38215.0142050000
4,50.8635935000,-0.0941368333,57.1000000000,8.6250000000,-1.1250000000,356.1250000000,image192.jpg,38415.1023820000
4,50.8635943333,-0.0941383333,57.1000000000,8.5625000000,-2.0000000000,356.1875000000,image193.jpg,38615.1067040000
4,50.8635955000,-0.0941398333,57.1000000000,7.8750000000,-2.3125000000,357.3125000000,image194.jpg,38815.1192040000
4,50.8635966667,-0.0941411667,57.1000000000,10.5625000000,-1.7500000000,357.1875000000,image195.jpg,39015.3770170000
4,50.8635976667,-0.0941425000,57.1000000000,9.6875000000,-1.6250000000,357.6875000000,image196.jpg,39215.6503500000
4,50.8635988333,-0.0941438333,57.1000000000,9.8125000000,-2.1250000000,358.8125000000,image197.jpg,39416.1662880000
4,50.8635998333,-0.0941453333,57.1000000000,11.3750000000,-1.7500000000,358.6875000000,image198.jpg,39616.4676420000
4,50.8636011667,-0.0941466667,57.1000000000,8.1875000000,-1.5000000000,358.0000000000,image199.jpg,39816.5080580000
4,50.8636021667,-0.0941480000,57.1000000000,10.0625000000,-1.5625000000,357.1250000000,image200.jpg,40016.5820160000
4,50.8636033333,-0.0941493333,57.1000000000,8.5625000000,-1.5000000000,356.1250000000,image201.jpg,40216.6480060000
4,50.8636045000,-0.0941510000,57.1000000000,9.5000000000,-3.1875000000,354.2500000000,image202.jpg,40416.5539950000
4,50.8636056667,-0.0941526667,57.1000000000,11.3125000000,-3.0625000000,352.4375000000,image203.jpg,40615.7435790000
4,50.8636066667,-0.0941543333,57.1000000000,10.3750000000,-3.4375000000,351.8125000000,image204.jpg,40815.9420160000
4,50.8636075000,-0.0941560000,57.1000000000,10.0625000000,-2.8125000000,352.3750000000,image205.jpg,41015.9570160000
4,50.8636086667,-0.0941575000,57.1000000000,9.7500000000,-0.8125000000,351.7500000000,image206.jpg,41216.3443600000
4,50.8636096667,-0.0941591667,57.1000000000,9.6875000000,-1.5000000000,351.6875000000,image207.jpg,41416.9493600000
4,50.8636106667,-0.0941603333,57.1000000000,8.8125000000,-1.6250000000,352.9375000000,image208.jpg,41617.0862350000
4,50.8636116667,-0.0941620000,57.1000000000,9.8125000000,-1.6250000000,353.3750000000,image209.jpg,41817.1659220000
4,50.8636128333,-0.0941635000,57.1000000000,9.5000000000,-2.0625000000,352.8125000000,image210.jpg,42017.2211300000
4,50.8636136667,-0.0941650000,57.1000000000,10.0000000000,-1.6875000000,352.7500000000,image211.jpg,42217.2868590000
4,50.8636148333,-0.0941666667,57.1000000000,10.7500000000,-2.6875000000,352.0625000000,image212.jpg,42417.4122240000
4,50.8636160000,-0.0941683333,57.1000000000,8.9375000000,-1.9375000000,350.9375000000,image213.jpg,42616.8914430000
4,50.8636170000,-0.0941701667,57.1000000000,10.2500000000,-1.1875000000,349.6250000000,image214.jpg,42816.5571200000
4,50.8636180000,-0.0941718333,57.1000000000,8.8125000000,-2.1250000000,348.9375000000,image215.jpg,43016.8954010000
4,50.8636190000,-0.0941736667,57.1000000000,10.0625000000,-2.5625000000,348.1875000000,image216.jpg,43217.4647760000
4,50.8636201667,-0.0941753333,57.1000000000,8.1875000000,-2.5000000000,348.0625000000,image217.jpg,43418.0176400000
4,50.8636211667,-0.0941770000,57.1000000000,10.3750000000,-2.1875000000,347.8750000000,image218.jpg,43618.0234210000
4,50.8636220000,-0.0941786667,57.1000000000,9.4375000000,-1.5000000000,348.1875000000,image219.jpg,43818.1075880000
4,50.8636231667,-0.0941806667,57.1000000000,10.5625000000,-2.1875000000,348.4375000000,image220.jpg,44018.2186820000
4,50.8636240000,-0.0941821667,57.1000000000,9.3750000000,-3.0625000000,350.1875000000,image221.jpg,44217.6965980000
4,50.8636251667,-0.0941836667,57.1000000000,9.4375000000,-2.9375000000,351.1250000000,image222.jpg,44417.1200880000
4,50.8636261667,-0.0941855000,57.1000000000,10.9375000000,-3.2500000000,351.7500000000,image223.jpg,44617.2169110000
4,50.8636271667,-0.0941870000,57.1000000000,9.3750000000,-2.8750000000,352.1875000000,image224.jpg,44817.3377440000
4,50.8636281667,-0.0941885000,57.1000000000,10.8750000000,-1.9375000000,350.8125000000,image225.jpg,45017.9299830000
4,50.8636291667,-0.0941901667,57.1000000000,10.6250000000,-1.0625000000,348.7500000000,image226.jpg,45218.1484210000
4,50.8636301667,-0.0941918333,57.1000000000,10.1875000000,-3.0000000000,347.8750000000,image227.jpg,45417.6045140000
4,50.8636310000,-0.0941936667,57.1000000000,10.5000000000,-3.5625000000,347.2500000000,image228.jpg,45617.7008160000
4,50.8636318333,-0.0941951667,57.1000000000,8.5000000000,-1.8750000000,347.8125000000,image229.jpg,45817.8115460000
4,50.8636330000,-0.0941968333,57.1000000000,9.3750000000,-2.8125000000,348.4375000000,image230.jpg,46017.8975870000
4,50.8636338333,-0.0941983333,57.1000000000,8.7500000000,-2.1875000000,348.5625000000,image231.jpg,46217.9686290000
4,50.8636348333,-0.0941998333,57.1000000000,10.3125000000,-0.8125000000,348.0625000000,image232.jpg,46418.1315970000
4,50.8636358333,-0.0942015000,57.1000000000,10.2500000000,-1.7500000000,347.0000000000,image233.jpg,46618.1536290000
4,50.8636366667,-0.0942033333,57.1000000000,10.1250000000,-2.4375000000,346.0625000000,image234.jpg,46818.4756080000
4,50.8636376667,-0.0942050000,57.1000000000,8.8125000000,-2.0625000000,345.5625000000,image235.jpg,47018.2437850000
4,50.8636385000,-0.0942066667,57.2000000000,7.9375000000,-1.3750000000,344.1875000000,image236.jpg,47218.3438370000
4,50.8636393333,-0.0942085000,57.2000000000,7.7500000000,-1.5625000000,343.6875000000,image237.jpg,47418.4042530000
4,50.8636401667,-0.0942098333,57.2000000000,7.6250000000,-1.8125000000,344.2500000000,image238.jpg,47618.4382110000
4,50.8636410000,-0.0942115000,57.2000000000,7.3125000000,-0.8125000000,342.7500000000,image239.jpg,47818.5447740000
4,50.8636416667,-0.0942135000,57.2000000000,7.1875000000,-2.1875000000,340.5000000000,image240.jpg,48018.6068050000
4,50.8636425000,-0.0942151667,57.2000000000,7.5625000000,-2.2500000000,340.2500000000,image241.jpg,48218.8098780000
4,50.8636431667,-0.0942166667,57.2000000000,8.1250000000,-2.0000000000,340.4375000000,image242.jpg,48418.7110240000
4,50.8636440000,-0.0942183333,57.2000000000,6.2500000000,-2.0000000000,339.1875000000,image243.jpg,48618.9611280000
4,50.8636445000,-0.0942201667,57.2000000000,6.1250000000,-3.9375000000,336.5625000000,image244.jpg,48819.5610760000
4,50.8636451667,-0.0942220000,57.2000000000,5.7500000000,-3.5000000000,335.0000000000,image245.jpg,49019.8701900000
4,50.8636456667,-0.0942238333,57.2000000000,6.8750000000,-2.6875000000,333.3125000000,image246.jpg,49220.6435750000
4,50.8636465000,-0.0942256667,57.2000000000,7.1875000000,-2.6875000000,333.2500000000,image247.jpg,49420.1128460000
4,50.8636471667,-0.0942275000,57.2000000000,7.1875000000,-2.4375000000,333.3750000000,image248.jpg,49620.1585230000
4,50.8636478333,-0.0942293333,57.2000000000,6.3125000000,-2.3125000000,332.1875000000,image249.jpg,49820.1217000000
4,50.8636481667,-0.0942311667,57.2000000000,6.7500000000,-1.3750000000,330.5000000000,image250.jpg,50019.2844080000
4,50.8636488333,-0.0942330000,57.2000000000,6.6875000000,-2.0625000000,329.3750000000,image251.jpg,50219.6938880000
4,50.8636493333,-0.0942348333,57.2000000000,7.6250000000,-3.5000000000,329.6250000000,image252.jpg,50419.4086270000
4,50.8636498333,-0.0942368333,57.2000000000,8.3750000000,-1.8750000000,331.1875000000,image253.jpg,50619.6814400000
4,50.8636505000,-0.0942386667,57.2000000000,9.0625000000,-2.6250000000,336.7500000000,image254.jpg,50820.6045120000
4,50.8636515000,-0.0942403333,57.2000000000,7.3125000000,-3.0625000000,340.0000000000,image255.jpg,51020.9222210000
4,50.8636521667,-0.0942420000,57.2000000000,6.7500000000,-3.0625000000,339.5625000000,image256.jpg,51220.7311270000
4,50.8636528333,-0.0942438333,57.2000000000,6.2500000000,-3.1875000000,337.1875000000,image257.jpg,51420.9822730000
4,50.8636535000,-0.0942455000,57.2000000000,4.7500000000,-3.0625000000,335.5000000000,image258.jpg,51621.0345120000
4,50.8636541667,-0.0942471667,57.2000000000,5.4375000000,-3.3125000000,335.1875000000,image259.jpg,51820.1855540000
4,50.8636548333,-0.0942491667,57.2000000000,6.8750000000,-3.8125000000,334.9375000000,image260.jpg,52020.0670640000
4,50.8636555000,-0.0942508333,57.3000000000,5.0000000000,-1.9375000000,335.5625000000,image261.jpg,52219.9668030000
4,50.8636561667,-0.0942525000,57.3000000000,8.8125000000,-3.1875000000,335.8125000000,image262.jpg,52420.1706050000
4,50.8636568333,-0.0942543333,57.3000000000,8.2500000000,-3.1250000000,335.4375000000,image263.jpg,52621.0240430000
4,50.8636573333,-0.0942563333,57.3000000000,7.8750000000,-2.7500000000,333.0625000000,image264.jpg,52821.6169070000
4,50.8636578333,-0.0942580000,57.3000000000,9.0625000000,-2.6875000000,331.6250000000,image265.jpg,53021.6430530000
4,50.8636585000,-0.0942600000,57.3000000000,8.4375000000,-3.0625000000,331.8750000000,image266.jpg,53221.5668550000
4,50.8636590000,-0.0942620000,57.3000000000,8.8750000000,-2.8750000000,330.5625000000,image267.jpg,53421.4663860000
4,50.8636595000,-0.0942636667,57.3000000000,7.7500000000,-2.5000000000,329.3125000000,image268.jpg,53621.4998760000
4,50.8636600000,-0.0942655000,57.3000000000,6.5000000000,-3.1875000000,326.0625000000,image269.jpg,53820.7415950000
4,50.8636603333,-0.0942673333,57.3000000000,6.3125000000,-4.0000000000,320.8125000000,image270.jpg,54020.8089900000
4,50.8636605000,-0.0942690000,57.3000000000,4.6250000000,-3.5000000000,317.1875000000,image271.jpg,54220.8371670000
4,50.8636605000,-0.0942706667,57.3000000000,7.3750000000,-2.8125000000,317.0000000000,image272.jpg,54421.0845630000
4,50.8636608333,-0.0942726667,57.3000000000,6.8125000000,-3.5625000000,316.8125000000,image273.jpg,54621.6833130000
4,50.8636611667,-0.0942745000,57.3000000000,6.8750000000,-3.8750000000,317.1250000000,image274.jpg,54820.9020110000
4,50.8636613333,-0.0942761667,57.3000000000,7.1875000000,-4.2500000000,318.8125000000,image275.jpg,55021.1849790000
4,50.8636616667,-0.0942781667,57.3000000000,6.8125000000,-3.5000000000,319.8125000000,image276.jpg,55221.0431560000
4,50.8636620000,-0.0942800000,57.3000000000,6.1250000000,-5.0000000000,319.5625000000,image277.jpg,55421.2287810000
4,50.8636623333,-0.0942818333,57.3000000000,5.6250000000,-5.4375000000,319.1875000000,image278.jpg,55621.3038330000
4,50.8636626667,-0.0942836667,57.3000000000,6.0625000000,-5.4375000000,318.9375000000,image279.jpg,55821.6480000000
4,50.8636630000,-0.0942855000,57.3000000000,5.1875000000,-4.6250000000,319.0625000000,image280.jpg,56021.6358120000
4,50.8636631667,-0.0942870000,57.3000000000,6.5000000000,-4.8750000000,319.5625000000,image281.jpg,56221.6789370000
4,50.8636633333,-0.0942888333,57.3000000000,7.0000000000,-3.8750000000,319.1250000000,image282.jpg,56422.1061770000
4,50.8636636667,-0.0942903333,57.3000000000,8.1875000000,-3.0000000000,318.8750000000,image283.jpg,56621.9723230000
4,50.8636638333,-0.0942920000,57.3000000000,8.2500000000,-2.5625000000,318.9375000000,image284.jpg,56822.2131040000
4,50.8636640000,-0.0942938333,57.3000000000,10.0625000000,-1.0000000000,318.6875000000,image285.jpg,57022.1369060000
4,50.8636641667,-0.0942953333,57.3000000000,8.6875000000,-1.7500000000,318.6875000000,image286.jpg,57222.2795100000
4,50.8636645000,-0.0942970000,57.3000000000,9.4375000000,-1.8750000000,318.5625000000,image287.jpg,57422.3310200000
4,50.8636646667,-0.0942990000,57.3000000000,9.4375000000,-2.3750000000,318.8750000000,image288.jpg,57622.3101870000
4,50.8636651667,-0.0943006667,57.3000000000,7.6250000000,-3.5625000000,318.2500000000,image289.jpg,57822.9587280000
4,50.8636651667,-0.0943026667,57.3000000000,5.5000000000,-4.3750000000,314.4375000000,image290.jpg,58022.7031030000
4,50.8636651667,-0.0943043333,57.3000000000,5.6875000000,-5.7500000000,309.6250000000,image291.jpg,58223.1558120000
4,50.8636653333,-0.0943061667,57.3000000000,7.7500000000,-5.4375000000,310.5000000000,image292.jpg,58424.8335200000
4,50.8636655000,-0.0943081667,57.3000000000,6.1250000000,-5.7500000000,310.7500000000,image293.jpg,58623.8923740000
4,50.8636655000,-0.0943103333,57.3000000000,7.5625000000,-5.5000000000,312.8750000000,image294.jpg,58824.1724260000
4,50.8636656667,-0.0943120000,57.3000000000,8.3750000000,-5.7500000000,313.8125000000,image295.jpg,59024.5938320000
4,50.8636658333,-0.0943140000,57.3000000000,8.6875000000,-6.1875000000,315.0000000000,image296.jpg,59224.5838840000
4,50.8636661667,-0.0943158333,57.3000000000,9.7500000000,-5.1875000000,314.8750000000,image297.jpg,59424.4497690000
4,50.8636663333,-0.0943178333,57.3000000000,8.1875000000,-4.7500000000,315.2500000000,image298.jpg,59624.1000300000
4,50.8636665000,-0.0943196667,57.3000000000,9.2500000000,-5.2500000000,316.8750000000,image299.jpg,59823.8680510000
4,50.8636666667,-0.0943216667,57.3000000000,11.1250000000,-5.3750000000,317.3125000000,image300.jpg,60023.9654980000
4,50.8636670000,-0.0943236667,57.3000000000,10.0000000000,-4.6875000000,317.8125000000,image301.jpg,60224.7060190000
4,50.8636673333,-0.0943250000,57.3000000000,9.8125000000,-3.1250000000,318.0000000000,image302.jpg,60425.1504460000
4,50.8636675000,-0.0943270000,57.3000000000,9.8125000000,-1.9375000000,317.6250000000,image303.jpg,60625.3682590000
4,50.8636676667,-0.0943290000,57.3000000000,9.1250000000,-2.9375000000,318.2500000000,image304.jpg,60825.4796130000
4,50.8636680000,-0.0943308333,57.4000000000,9.5000000000,-3.0000000000,318.6250000000,image305.jpg,61025.6337790000
4,50.8636681667,-0.0943328333,57.3000000000,8.8125000000,-3.3750000000,317.5625000000,image306.jpg,61225.8640920000
4,50.8636685000,-0.0943348333,57.4000000000,8.3125000000,-4.3750000000,317.4375000000,image307.jpg,61425.1553940000
4,50.8636688333,-0.0943368333,57.4000000000,8.5000000000,-3.9375000000,317.9375000000,image308.jpg,61624.7483620000
4,50.8636691667,-0.0943388333,57.4000000000,9.1875000000,-3.6250000000,317.7500000000,image309.jpg,61824.8823210000
4,50.8636695000,-0.0943408333,57.4000000000,6.6875000000,-3.5000000000,317.0625000000,image310.jpg,62025.0829460000
4,50.8636695000,-0.0943430000,57.4000000000,9.1250000000,-4.0000000000,317.1250000000,image311.jpg,62225.9254980000
4,50.8636698333,-0.0943453333,57.4000000000,7.0625000000,-3.1875000000,316.8125000000,image312.jpg,62426.2093000000
4,50.8636701667,-0.0943473333,57.4000000000,5.3125000000,-4.6250000000,314.9375000000,image313.jpg,62626.5180500000
4,50.8636701667,-0.0943495000,57.4000000000,7.3750000000,-5.4375000000,310.3125000000,image314.jpg,62826.5195600000
4,50.8636701667,-0.0943515000,57.4000000000,5.8750000000,-4.6250000000,307.5625000000,image315.jpg,63026.3503930000
4,50.8636701667,-0.0943535000,57.4000000000,7.5000000000,-5.0625000000,307.8750000000,image316.jpg,63227.1242470000
4,50.8636703333,-0.0943556667,57.4000000000,8.9375000000,-4.8125000000,308.5000000000,image317.jpg,63426.4159140000
4,50.8636705000,-0.0943580000,57.4000000000,8.0625000000,-4.4375000000,308.9375000000,image318.jpg,63626.0234660000
4,50.8636703333,-0.0943601667,57.4000000000,9.8750000000,-4.5625000000,310.6250000000,image319.jpg,63826.1359660000
4,50.8636706667,-0.0943625000,57.4000000000,9.3750000000,-5.8125000000,316.0625000000,image320.jpg,64026.6353410000
4,50.8636710000,-0.0943648333,57.4000000000,9.9375000000,-6.6875000000,317.1875000000,image321.jpg,64226.8862780000
4,50.8636715000,-0.0943668333,57.4000000000,8.6875000000,-6.0000000000,317.2500000000,image322.jpg,64426.3165380000
4,50.8636718333,-0.0943691667,57.4000000000,9.1875000000,-5.1250000000,317.7500000000,image323.jpg,64627.3436740000
4,50.8636720000,-0.0943715000,57.4000000000,8.1875000000,-5.6250000000,315.8125000000,image324.jpg,64826.4507570000
4,50.8636723333,-0.0943740000,57.4000000000,9.2500000000,-6.0000000000,316.7500000000,image325.jpg,65026.6656530000
4,50.8636725000,-0.0943761667,57.4000000000,8.2500000000,-6.7500000000,316.0625000000,image326.jpg,65226.8032050000
4,50.8636728333,-0.0943785000,57.4000000000,8.6875000000,-7.3750000000,315.3125000000,image327.jpg,65426.7606010000
4,50.8636730000,-0.0943810000,57.4000000000,8.1250000000,-6.7500000000,314.6875000000,image328.jpg,65627.6057570000
4,50.8636733333,-0.0943835000,57.4000000000,8.2500000000,-7.6875000000,316.0000000000,image329.jpg,65827.7720590000
4,50.8636735000,-0.0943860000,57.4000000000,7.8750000000,-6.8125000000,316.7500000000,image330.jpg,66027.8355480000
4,50.8636740000,-0.0943885000,57.4000000000,8.3125000000,-6.7500000000,318.5000000000,image331.jpg,66228.4435170000
4,50.8636743333,-0.0943905000,57.4000000000,8.4375000000,-5.6250000000,318.9375000000,image332.jpg,66427.9461210000
4,50.8636746667,-0.0943930000,57.4000000000,9.1875000000,-5.1250000000,319.3750000000,image333.jpg,66627.7795580000
4,50.8636750000,-0.0943955000,57.4000000000,9.1250000000,-5.5000000000,318.4375000000,image334.jpg,66827.8879440000
4,50.8636753333,-0.0943975000,57.4000000000,8.0000000000,-4.6875000000,316.7500000000,image335.jpg,67027.9714330000
4,50.8636755000,-0.0943998333,57.4000000000,6.3750000000,-5.1250000000,314.6250000000,image336.jpg,67227.9162250000
4,50.8636758333,-0.0944023333,57.4000000000,8.8750000000,-6.0000000000,313.4375000000,image337.jpg,67428.0506000000
4,50.8636760000,-0.0944045000,57.4000000000,8.3125000000,-5.1250000000,312.1875000000,image338.jpg,67628.3852870000
4,50.8636760000,-0.0944070000,57.4000000000,8.4375000000,-4.8750000000,312.1250000000,image339.jpg,67828.7279950000
4,50.8636761667,-0.0944093333,57.4000000000,9.8125000000,-5.0625000000,312.0625000000,image340.jpg,68029.3560160000
4,50.8636763333,-0.0944115000,57.4000000000,8.5625000000,-3.6875000000,312.5000000000,image341.jpg,68229.4827350000
4,50.8636765000,-0.0944136667,57.4000000000,9.3750000000,-3.6250000000,314.0000000000,image342.jpg,68429.7538290000
4,50.8636768333,-0.0944161667,57.4000000000,7.6250000000,-4.8125000000,315.1875000000,image343.jpg,68629.6631510000
4,50.8636770000,-0.0944185000,57.4000000000,8.0000000000,-5.0000000000,315.6875000000,image344.jpg,68829.7813280000
4,50.8636775000,-0.0944208333,57.4000000000,6.8125000000,-4.4375000000,316.5000000000,image345.jpg,69029.1239850000
4,50.8636778333,-0.0944233333,57.4000000000,7.4375000000,-5.7500000000,317.8750000000,image346.jpg,69229.0009640000
4,50.8636781667,-0.0944256667,57.4000000000,8.1250000000,-3.7500000000,317.9375000000,image347.jpg,69428.8653390000
4,50.8636783333,-0.0944280000,57.4000000000,7.4375000000,-2.7500000000,317.8750000000,image348.jpg,69629.1305470000
4,50.8636786667,-0.0944301667,57.4000000000,8.6875000000,-2.2500000000,318.9375000000,image349.jpg,69829.8915360000
4,50.8636791667,-0.0944326667,57.4000000000,7.1875000000,-2.0625000000,317.4375000000,image350.jpg,70030.6826300000
4,50.8636791667,-0.0944351667,57.4000000000,9.1875000000,-3.2500000000,316.4375000000,image351.jpg,70230.1831510000
4,50.8636798333,-0.0944373333,57.4000000000,7.5000000000,-3.4375000000,317.7500000000,image352.jpg,70430.5105990000
4,50.8636800000,-0.0944395000,57.4000000000,8.8125000000,-3.1250000000,318.5625000000,image353.jpg,70630.5074210000
4,50.8636805000,-0.0944421667,57.4000000000,7.7500000000,-3.5625000000,319.0000000000,image354.jpg,70830.3814840000
4,50.8636808333,-0.0944446667,57.4000000000,8.3750000000,-3.6875000000,319.8125000000,image355.jpg,71029.5493480000
4,50.8636813333,-0.0944470000,57.4000000000,7.9375000000,-4.3125000000,318.5000000000,image356.jpg,71229.6790360000
4,50.8636815000,-0.0944495000,57.4000000000,7.6875000000,-4.1875000000,318.3750000000,image357.jpg,71429.7240880000
4,50.8636818333,-0.0944520000,57.4000000000,7.5000000000,-3.2500000000,317.0000000000,image358.jpg,71630.3189310000
4,50.8636821667,-0.0944541667,57.4000000000,8.1875000000,-5.3750000000,316.2500000000,image359.jpg,71830.8828900000
4,50.8636823333,-0.0944565000,57.4000000000,9.0000000000,-5.3125000000,316.6250000000,image360.jpg,72030.8402860000
4,50.8636826667,-0.0944591667,57.4000000000,7.6875000000,-4.2500000000,314.8750000000,image361.jpg,72232.3589830000
4,50.8636830000,-0.0944616667,57.4000000000,7.5000000000,-4.1250000000,317.0625000000,image362.jpg,72431.0397650000
4,50.8636833333,-0.0944636667,57.4000000000,7.5000000000,-2.5625000000,318.0625000000,image363.jpg,72631.1211190000
4,50.8636836667,-0.0944661667,57.4000000000,8.8125000000,-2.6875000000,318.8125000000,image364.jpg,72830.2905980000
4,50.8636840000,-0.0944683333,57.4000000000,8.6875000000,-3.5625000000,320.0000000000,image365.jpg,73030.4230460000
4,50.8636843333,-0.0944708333,57.4000000000,9.5000000000,-3.5625000000,321.0000000000,image366.jpg,73230.6095560000
4,50.8636846667,-0.0944731667,57.4000000000,10.1875000000,-2.1875000000,321.0000000000,image367.jpg,73430.7748680000
4,50.8636851667,-0.0944755000,57.4000000000,9.9375000000,-3.8750000000,322.1875000000,image368.jpg,73630.8809620000
4,50.8636855000,-0.0944778333,57.4000000000,10.6250000000,-2.5625000000,322.6875000000,image369.jpg,73831.2917950000
4,50.8636860000,-0.0944801667,57.5000000000,10.0625000000,-2.1875000000,323.3750000000,image370.jpg,74031.4660660000
4,50.8636865000,-0.0944826667,57.5000000000,10.8750000000,-4.6250000000,325.1875000000,image371.jpg,74231.4616910000
4,50.8636871667,-0.0944850000,57.5000000000,12.0000000000,-3.7500000000,327.9375000000,image372.jpg,74431.7961180000
4,50.8636875000,-0.0944870000,57.5000000000,12.4375000000,-2.2500000000,329.8125000000,image373.jpg,74631.7109620000
4,50.8636883333,-0.0944891667,57.5000000000,13.0000000000,-2.6250000000,331.9375000000,image374.jpg,74831.6682010000
4,50.8636890000,-0.0944916667,57.5000000000,11.3125000000,-2.0625000000,332.9375000000,image375.jpg,75032.4362220000
4,50.8636896667,-0.0944936667,57.5000000000,13.0625000000,-3.4375000000,330.8125000000,image376.jpg,75232.0099200000
4,50.8636905000,-0.0944958333,57.5000000000,10.5625000000,-4.0625000000,328.3125000000,image377.jpg,75432.2460130000
4,50.8636908333,-0.0944981667,57.5000000000,9.9375000000,-1.9375000000,325.7500000000,image378.jpg,75632.5785650000
4,50.8636913333,-0.0945003333,57.5000000000,9.0625000000,-2.7500000000,325.2500000000,image379.jpg,75832.0735650000
4,50.8636918333,-0.0945026667,57.5000000000,9.6250000000,-3.3125000000,320.6875000000,image380.jpg,76032.6867420000
4,50.8636921667,-0.0945050000,57.5000000000,9.0625000000,-4.4375000000,320.9375000000,image381.jpg,76232.7795550000
4,50.8636925000,-0.0945073333,57.5000000000,10.7500000000,-3.6250000000,320.1875000000,image382.jpg,76432.8457530000
4,50.8636930000,-0.0945098333,57.5000000000,11.3125000000,-3.6250000000,320.0000000000,image383.jpg,76633.3276800000
4,50.8636933333,-0.0945126667,57.5000000000,11.2500000000,-4.8125000000,321.6250000000,image384.jpg,76833.3652840000
4,50.8636938333,-0.0945150000,57.5000000000,11.0000000000,-3.0000000000,322.2500000000,image385.jpg,77033.3882520000
4,50.8636943333,-0.0945171667,57.5000000000,11.5625000000,-3.3125000000,325.0625000000,image386.jpg,77233.5003360000
4,50.8636948333,-0.0945198333,57.5000000000,10.9375000000,-2.9375000000,328.3125000000,image387.jpg,77434.2511690000
4,50.8636956667,-0.0945221667,57.5000000000,9.6875000000,-2.5000000000,329.3125000000,image388.jpg,77634.6893980000
4,50.8636961667,-0.0945245000,57.5000000000,10.2500000000,-3.2500000000,330.8125000000,image389.jpg,77834.8788250000
4,50.8636970000,-0.0945265000,57.5000000000,11.9375000000,-2.4375000000,334.0625000000,image390.jpg,78034.8870540000
4,50.8636978333,-0.0945286667,57.5000000000,11.2500000000,-2.5000000000,338.1250000000,image391.jpg,78235.4899190000
4,50.8636986667,-0.0945308333,57.5000000000,10.8125000000,-2.6250000000,339.8750000000,image392.jpg,78435.5856480000
4,50.8636998333,-0.0945330000,57.5000000000,10.8750000000,-0.1875000000,340.6875000000,image393.jpg,78635.3229910000
4,50.8637008333,-0.0945351667,57.5000000000,10.3125000000,-3.5000000000,342.8125000000,image394.jpg,78834.6467410000
4,50.8637016667,-0.0945370000,57.5000000000,10.1875000000,-1.0625000000,344.8125000000,image395.jpg,79034.6579910000
4,50.8637028333,-0.0945386667,57.5000000000,10.1875000000,-0.9375000000,345.1250000000,image396.jpg,79234.7065330000
4,50.8637036667,-0.0945408333,57.5000000000,11.5625000000,-3.8750000000,343.1250000000,image397.jpg,79435.4112200000
4,50.8637048333,-0.0945428333,57.5000000000,8.0625000000,-1.4375000000,344.0000000000,image398.jpg,79636.0896060000
4,50.8637060000,-0.0945448333,57.5000000000,9.5625000000,-1.6875000000,343.6875000000,image399.jpg,79835.9181990000
4,50.8637070000,-0.0945470000,57.5000000000,9.1250000000,-2.6250000000,343.3750000000,image400.jpg,80035.8774700000
4,50.8637081667,-0.0945491667,57.5000000000,10.5000000000,-3.1250000000,343.9375000000,image401.jpg,80235.9654390000
4,50.8637090000,-0.0945511667,57.5000000000,9.5000000000,-2.5625000000,345.0000000000,image402.jpg,80436.0979390000
4,50.8637100000,-0.0945530000,57.5000000000,11.3125000000,-2.1250000000,347.6250000000,image403.jpg,80635.2837200000
4,50.8637111667,-0.0945548333,57.5000000000,11.0000000000,-1.4375000000,351.0625000000,image404.jpg,80835.4629380000
4,50.8637121667,-0.0945568333,57.5000000000,11.1250000000,-0.4375000000,354.9375000000,image405.jpg,81035.4068970000
4,50.8637136667,-0.0945580000,57.6000000000,10.3750000000,0.2500000000,358.3125000000,image406.jpg,81235.8806990000
4,50.8637148333,-0.0945596667,57.5000000000,10.4375000000,-2.1875000000,354.1875000000,image407.jpg,81436.2890840000
4,50.8637160000,-0.0945613333,57.5000000000,10.9375000000,-1.5000000000,350.5625000000,image408.jpg,81636.7402300000
4,50.8637171667,-0.0945633333,57.6000000000,9.2500000000,-2.0000000000,346.5000000000,image409.jpg,81836.7457510000
4,50.8637180000,-0.0945651667,57.6000000000,8.1875000000,-4.1250000000,340.6875000000,image410.jpg,82036.6621050000
4,50.8637186667,-0.0945671667,57.6000000000,10.1250000000,-2.7500000000,336.2500000000,image411.jpg,82237.8417400000
4,50.8637195000,-0.0945691667,57.6000000000,9.9375000000,-3.9375000000,337.1250000000,image412.jpg,82438.1379900000
4,50.8637201667,-0.0945711667,57.6000000000,10.0000000000,-4.1250000000,338.0625000000,image413.jpg,82636.5886150000
4,50.8637200000,-0.0945708333,57.6000000000,10.0625000000,-3.4375000000,337.8750000000,image414.jpg,82836.6794480000
4,50.8637200000,-0.0945710000,57.6000000000,9.6250000000,-2.4375000000,337.8750000000,image415.jpg,83036.5811670000
4,50.8637200000,-0.0945710000,57.6000000000,9.3750000000,-2.6250000000,337.8750000000,image416.jpg,83236.8186670000
4,50.8637200000,-0.0945710000,57.6000000000,9.1875000000,-2.6250000000,337.8750000000,image417.jpg,83437.5713750000
4,50.8637200000,-0.0945710000,57.6000000000,9.0625000000,-2.6250000000,337.8750000000,image418.jpg,83638.1579370000
4,50.8637200000,-0.0945710000,57.6000000000,8.9375000000,-2.6875000000,337.8750000000,image419.jpg,83838.0454370000
4,50.8637200000,-0.0945710000,57.6000000000,8.8750000000,-2.6875000000,337.8750000000,image420.jpg,84038.3185620000
4,50.8637200000,-0.0945710000,57.6000000000,8.8125000000,-2.6875000000,337.8750000000,image421.jpg,84238.0704890000
4,50.8637200000,-0.0945710000,57.6000000000,8.7500000000,-2.6875000000,337.8750000000,image422.jpg,84437.7254370000
4,50.8637200000,-0.0945710000,57.6000000000,8.7500000000,-2.6875000000,337.8750000000,image423.jpg,84637.4621560000
4,50.8637200000,-0.0945710000,57.6000000000,8.7500000000,-2.6875000000,337.8750000000,image424.jpg,84837.5129890000
4,50.8637200000,-0.0945710000,57.6000000000,8.7500000000,-2.6875000000,337.8750000000,image425.jpg,85037.4248640000
4,50.8637200000,-0.0945710000,57.6000000000,8.7500000000,-2.6875000000,337.8750000000,image426.jpg,85238.1134580000
4,50.8637200000,-0.0945710000,57.6000000000,8.7500000000,-2.6875000000,337.8750000000,image427.jpg,85438.7169470000
4,50.8637200000,-0.0945710000,57.6000000000,8.7500000000,-2.6875000000,337.8750000000,image428.jpg,85638.4944470000
4,50.8637200000,-0.0945710000,57.6000000000,8.7500000000,-2.6875000000,337.8750000000,image429.jpg,85837.7048640000
4,50.8637200000,-0.0945710000,57.6000000000,8.7500000000,-2.6875000000,337.8750000000,image430.jpg,86037.7897070000
4,50.8637200000,-0.0945710000,57.6000000000,8.7500000000,-2.6875000000,337.8750000000,image431.jpg,86237.7779880000
4,50.8637200000,-0.0945710000,57.6000000000,8.7500000000,-2.6875000000,337.8750000000,image432.jpg,86438.0787700000
4,50.8637200000,-0.0945710000,57.6000000000,8.7500000000,-2.6875000000,337.8750000000,image433.jpg,86638.1535090000
4,50.8637200000,-0.0945710000,57.6000000000,8.7500000000,-2.6875000000,337.8750000000,image434.jpg,86838.1326760000
4,50.8637200000,-0.0945710000,57.6000000000,8.7500000000,-2.6875000000,337.8750000000,image435.jpg,87038.6884570000
4,50.8637200000,-0.0945710000,57.6000000000,8.7500000000,-2.6875000000,337.8750000000,image436.jpg,87239.4434050000
4,50.8637200000,-0.0945710000,57.6000000000,8.7500000000,-2.6875000000,337.8750000000,image437.jpg,87440.8461650000
4,50.8637200000,-0.0945710000,57.6000000000,8.7500000000,-2.6875000000,337.8750000000,image438.jpg,87639.5225190000
4,50.8637200000,-0.0945710000,57.6000000000,8.7500000000,-2.6875000000,337.8750000000,image439.jpg,87839.6976750000
4,50.8637200000,-0.0945710000,57.6000000000,8.7500000000,-2.6875000000,337.8750000000,image440.jpg,88040.1128310000
4,50.8637200000,-0.0945710000,57.6000000000,8.7500000000,-2.6875000000,337.8750000000,image441.jpg,88239.5997580000
4,50.8637200000,-0.0945710000,57.6000000000,8.7500000000,-2.6875000000,337.8750000000,image442.jpg,88439.1011130000
4,50.8637200000,-0.0945710000,57.6000000000,8.7500000000,-2.6875000000,337.8750000000,image443.jpg,88639.2892900000
4,50.8637200000,-0.0945710000,57.6000000000,8.7500000000,-2.6875000000,337.8750000000,image444.jpg,88839.4652790000
4,50.8637200000,-0.0945710000,57.6000000000,8.7500000000,-2.6875000000,337.8750000000,image445.jpg,89039.6992370000
4,50.8637200000,-0.0945710000,57.6000000000,8.7500000000,-2.6875000000,337.8750000000,image446.jpg,89240.3890810000
4,50.8637200000,-0.0945710000,57.6000000000,8.7500000000,-2.6875000000,337.8750000000,image447.jpg,89440.6649660000
4,50.8637200000,-0.0945710000,57.6000000000,8.7500000000,-2.6875000000,337.8750000000,image448.jpg,89640.6734040000
4,50.8637200000,-0.0945710000,57.6000000000,8.7500000000,-2.6875000000,337.8750000000,image449.jpg,89840.7320500000
4,50.8637200000,-0.0945710000,57.6000000000,8.7500000000,-2.6875000000,337.8750000000,image450.jpg,90040.4720490000
4,50.8637200000,-0.0945710000,57.6000000000,8.7500000000,-2.6875000000,337.8750000000,image451.jpg,90239.7454870000
4,50.8637200000,-0.0945710000,57.5000000000,8.7500000000,-2.6875000000,337.8750000000,image452.jpg,90440.3134030000
4,50.8637200000,-0.0945710000,57.6000000000,8.7500000000,-2.6875000000,337.8750000000,image453.jpg,90640.0495490000
4,50.8637200000,-0.0945710000,57.6000000000,8.7500000000,-2.6875000000,337.8750000000,image454.jpg,90840.2251740000
4,50.8637200000,-0.0945710000,57.6000000000,8.7500000000,-2.6875000000,337.8750000000,image455.jpg,91042.2096530000
4,50.8637200000,-0.0945710000,57.6000000000,8.7500000000,-2.6875000000,337.8750000000,image456.jpg,91241.2400180000
4,50.8637200000,-0.0945710000,57.6000000000,8.7500000000,-2.6875000000,337.8750000000,image457.jpg,91441.1978820000
4,50.8637200000,-0.0945710000,57.6000000000,8.7500000000,-2.6875000000,337.8750000000,image458.jpg,91641.2798090000
4,50.8637200000,-0.0945710000,57.5000000000,8.7500000000,-2.6875000000,337.8750000000,image459.jpg,91841.5914760000
4,50.8637200000,-0.0945710000,57.6000000000,8.7500000000,-2.6875000000,337.8750000000,image460.jpg,92040.7465280000
4,50.8637200000,-0.0945710000,57.6000000000,8.7500000000,-2.6875000000,337.8750000000,image461.jpg,92240.6085070000
4,50.8637200000,-0.0945710000,57.5000000000,8.7500000000,-2.6875000000,337.8750000000,image462.jpg,92440.6428820000
4,50.8637200000,-0.0945710000,57.6000000000,8.7500000000,-2.6875000000,337.8750000000,image463.jpg,92640.6930380000
4,50.8637200000,-0.0945710000,57.6000000000,8.7500000000,-2.6875000000,337.8750000000,image464.jpg,92841.2572050000
4,50.8637200000,-0.0945710000,57.6000000000,8.7500000000,-2.6875000000,337.8750000000,image465.jpg,93041.9012670000
4,50.8637200000,-0.0945710000,57.6000000000,8.7500000000,-2.6875000000,337.8750000000,image466.jpg,93242.0434020000
4,50.8637200000,-0.0945710000,57.6000000000,8.7500000000,-2.6875000000,337.8750000000,image467.jpg,93442.1033500000
4,50.8637200000,-0.0945710000,57.6000000000,8.7500000000,-2.6875000000,337.8750000000,image468.jpg,93642.2029340000
4,50.8637200000,-0.0945710000,57.6000000000,8.7500000000,-2.6875000000,337.8750000000,image469.jpg,93842.0578290000
4,50.8637200000,-0.0945710000,57.6000000000,8.7500000000,-2.6875000000,337.8750000000,image470.jpg,94041.1104850000
4,50.8637200000,-0.0945710000,57.6000000000,8.7500000000,-2.6875000000,337.8750000000,image471.jpg,94241.2511100000
4,50.8637200000,-0.0945710000,57.6000000000,8.7500000000,-2.6875000000,337.8750000000,image472.jpg,94441.6147040000
4,50.8637200000,-0.0945710000,57.6000000000,8.7500000000,-2.6875000000,337.8750000000,image473.jpg,94641.9189750000
4,50.8637200000,-0.0945710000,57.6000000000,8.7500000000,-2.6875000000,337.8750000000,image474.jpg,94842.4309540000
4,50.8637200000,-0.0945710000,57.6000000000,8.7500000000,-2.6875000000,337.8750000000,image475.jpg,95042.6876090000
4,50.8637200000,-0.0945710000,57.6000000000,8.7500000000,-2.6875000000,337.8750000000,image476.jpg,95242.0813920000
4,50.8637200000,-0.0945710000,57.6000000000,8.7500000000,-2.6875000000,337.8750000000,image477.jpg,95442.1263040000
4,50.8637200000,-0.0945710000,57.6000000000,8.7500000000,-2.6875000000,337.8750000000,image478.jpg,95642.1941430000
4,50.8637200000,-0.0945710000,57.6000000000,8.7500000000,-2.6875000000,337.8750000000,image479.jpg,95842.3714050000
4,50.8637200000,-0.0945710000,57.6000000000,8.7500000000,-2.6875000000,337.8750000000,image480.jpg,96042.3893100000
4,50.8637200000,-0.0945710000,57.6000000000,8.7500000000,-2.6875000000,337.8750000000,image481.jpg,96242.3905240000
4,50.8637200000,-0.0945710000,57.6000000000,8.7500000000,-2.6875000000,337.8750000000,image482.jpg,96442.9801590000
4,50.8637200000,-0.0945710000,57.6000000000,8.7500000000,-2.6875000000,337.8750000000,image483.jpg,96643.5472850000
4,50.8637200000,-0.0945708333,57.6000000000,8.7500000000,-2.6875000000,337.8750000000,image484.jpg,96843.5911730000
4,50.8637200000,-0.0945710000,57.6000000000,8.7500000000,-2.6875000000,337.8750000000,image485.jpg,97043.7232060000
4,50.8637198333,-0.0945711667,57.6000000000,8.7500000000,-2.6875000000,337.8750000000,image486.jpg,97243.7334860000
4,50.8637198333,-0.0945711667,57.6000000000,8.7500000000,-2.6875000000,337.8750000000,image487.jpg,97444.6010290000
4,50.8637200000,-0.0945710000,57.6000000000,8.7500000000,-2.6875000000,337.8750000000,image488.jpg,97643.2097720000
4,50.8637198333,-0.0945711667,57.6000000000,8.7500000000,-2.6875000000,337.8750000000,image489.jpg,97843.2674670000
4,50.8637200000,-0.0945710000,57.5000000000,8.7500000000,-2.6875000000,337.8750000000,image490.jpg,98043.3253710000
4,50.8637200000,-0.0945711667,57.5000000000,8.7500000000,-2.6875000000,337.8750000000,image491.jpg,98243.7084580000
4,50.8637198333,-0.0945713333,57.6000000000,8.8125000000,-2.6875000000,337.8750000000,image492.jpg,98444.3235050000
4,50.8637200000,-0.0945711667,57.5000000000,8.8125000000,-2.6875000000,337.8750000000,image493.jpg,98644.4708280000
4,50.8637198333,-0.0945711667,57.6000000000,8.4375000000,-2.6875000000,337.8750000000,image494.jpg,98844.5311400000
4,50.8637200000,-0.0945710000,57.6000000000,6.1250000000,-3.6250000000,337.0000000000,image495.jpg,99044.6936160000
4,50.8637196667,-0.0945711667,57.7000000000,7.1250000000,-5.3750000000,321.6250000000,image496.jpg,99244.6176890000
4,50.8637191667,-0.0945706667,57.9000000000,7.0000000000,-3.1250000000,296.0625000000,image497.jpg,99443.8261510000
4,50.8637186667,-0.0945698333,58.1000000000,7.5000000000,1.1250000000,260.1875000000,image498.jpg,99643.9015770000
2,50.8637190000,-0.0945681667,58.4000000000,16.7500000000,4.6875000000,219.6250000000,image499.jpg,99844.0113910000
2,50.8637198333,-0.0945656667,58.6000000000,19.8750000000,1.1875000000,189.3750000000,image500.jpg,100044.5584770000
2,50.8637200000,-0.0945638333,58.8000000000,18.6250000000,-0.5625000000,162.6875000000,image501.jpg,100245.2379320000
2,50.8637203333,-0.0945610000,59.0000000000,15.9375000000,-1.0000000000,139.8750000000,image502.jpg,100445.3740850000
2,50.8637210000,-0.0945573333,59.0000000000,15.0625000000,-2.3750000000,125.5625000000,image503.jpg,100645.2486440000
2,50.8637215000,-0.0945536667,59.1000000000,17.4375000000,-2.9375000000,113.6250000000,image504.jpg,100845.3189950000
2,50.8637213333,-0.0945501667,59.1000000000,14.3750000000,0.1875000000,102.8125000000,image505.jpg,101045.1729540000
2,50.8637208333,-0.0945468333,59.1000000000,11.8125000000,2.1250000000,91.5000000000,image506.jpg,101244.5359420000
2,50.8637196667,-0.0945435000,59.1000000000,19.5000000000,2.4375000000,88.1250000000,image507.jpg,101444.6085710000
2,50.8637188333,-0.0945396667,59.2000000000,18.0625000000,1.3125000000,87.3750000000,image508.jpg,101644.7846690000
2,50.8637173333,-0.0945356667,59.2000000000,15.5625000000,-2.1250000000,85.8750000000,image509.jpg,101845.4395570000
2,50.8637158333,-0.0945321667,59.2000000000,20.2500000000,-4.1250000000,85.8125000000,image510.jpg,102044.7518790000
2,50.8637141667,-0.0945291667,59.2000000000,17.0000000000,-6.7500000000,81.5000000000,image511.jpg,102244.8190140000
2,50.8637123333,-0.0945260000,59.2000000000,17.7500000000,-4.1250000000,81.0000000000,image512.jpg,102444.8916200000
2,50.8637108333,-0.0945225000,59.1000000000,17.4375000000,-5.1250000000,81.0000000000,image513.jpg,102644.9566190000
2,50.8637091667,-0.0945186667,59.2000000000,12.6250000000,-7.2500000000,77.4375000000,image514.jpg,102845.0279740000
2,50.8637078333,-0.0945151667,59.1000000000,15.5000000000,-6.1250000000,70.5000000000,image515.jpg,103045.3562790000
2,50.8637065000,-0.0945121667,59.1000000000,11.0625000000,-6.3125000000,61.7500000000,image516.jpg,103245.1818960000
2,50.8637053333,-0.0945085000,59.1000000000,12.8125000000,-3.5625000000,59.7500000000,image517.jpg,103445.6120490000
