gps quality,lat,lon,altitude,roll,pitch,yaw,image name,timestamp
4,50.8634190000,-0.0939380000,56.6000000000,7.7500000000,-1.5625000000,0.0000000000,image0.jpg,3.4855750000
4,50.8634193333,-0.0939375000,56.6000000000,7.7500000000,-1.5625000000,0.0000000000,image1.jpg,202.6253310000
4,50.8634193333,-0.0939376667,56.6000000000,7.7500000000,-1.5625000000,0.0000000000,image2.jpg,402.7011430000
4,50.8634193333,-0.0939375000,56.6000000000,7.7500000000,-1.5625000000,0.0000000000,image3.jpg,602.7703600000
4,50.8634193333,-0.0939375000,56.6000000000,7.7500000000,-1.5625000000,0.0000000000,image4.jpg,801.8463340000
4,50.8634193333,-0.0939375000,56.6000000000,7.7500000000,-1.5625000000,0.0000000000,image5.jpg,1001.9549960000
4,50.8634193333,-0.0939375000,56.6000000000,7.7500000000,-1.5625000000,0.0000000000,image6.jpg,1202.0315680000
4,50.8634193333,-0.0939376667,56.6000000000,7.7500000000,-1.5625000000,0.0000000000,image7.jpg,1402.6574350000
4,50.8634193333,-0.0939376667,56.6000000000,7.7500000000,-1.5625000000,0.0000000000,image8.jpg,1603.0879200000
4,50.8634193333,-0.0939375000,56.6000000000,7.7500000000,-1.5625000000,0.0000000000,image9.jpg,1803.1741460000
4,50.8634193333,-0.0939376667,56.6000000000,7.7500000000,-1.5625000000,0.0000000000,image10.jpg,2003.2318770000
4,50.8634193333,-0.0939375000,56.6000000000,7.7500000000,-1.5625000000,0.0000000000,image11.jpg,2203.2922640000
4,50.8634193333,-0.0939375000,56.6000000000,7.7500000000,-1.5625000000,0.0000000000,image12.jpg,2402.4124380000
4,50.8634193333,-0.0939375000,56.6000000000,7.7500000000,-1.5625000000,0.0000000000,image13.jpg,2602.4736850000
4,50.8634193333,-0.0939375000,56.6000000000,7.7500000000,-1.5625000000,0.0000000000,image14.jpg,2802.6079460000
4,50.8634193333,-0.0939375000,56.6000000000,7.7500000000,-1.5625000000,0.0000000000,image15.jpg,3003.1720950000
4,50.8634193333,-0.0939375000,56.6000000000,7.7500000000,-1.5625000000,0.0000000000,image16.jpg,3203.7753140000
4,50.8634193333,-0.0939375000,56.6000000000,7.7500000000,-1.5625000000,0.0000000000,image17.jpg,3403.7602720000
4,50.8634193333,-0.0939375000,56.6000000000,7.7500000000,-1.5625000000,0.0000000000,image18.jpg,3604.0273800000
4,50.8634193333,-0.0939375000,56.6000000000,7.7500000000,-1.5625000000,0.0000000000,image19.jpg,3803.9040740000
4,50.8634193333,-0.0939375000,56.6000000000,7.7500000000,-1.5625000000,0.0000000000,image20.jpg,4003.1685020000
4,50.8634193333,-0.0939375000,56.6000000000,7.7500000000,-1.5625000000,0.0000000000,image21.jpg,4203.0947380000
4,50.8634193333,-0.0939376667,56.6000000000,7.7500000000,-1.5625000000,0.0000000000,image22.jpg,4403.1806970000
4,50.8634193333,-0.0939375000,56.6000000000,7.7500000000,-1.5625000000,0.0000000000,image23.jpg,4603.5622460000
4,50.8634193333,-0.0939375000,56.6000000000,7.7500000000,-1.5625000000,0.0000000000,image24.jpg,4804.3357700000
4,50.8634193333,-0.0939376667,56.6000000000,7.7500000000,-1.5625000000,0.0000000000,image25.jpg,5004.3540830000
4,50.8634193333,-0.0939376667,56.6000000000,7.7500000000,-1.5625000000,0.0000000000,image26.jpg,5204.3958900000
4,50.8634193333,-0.0939376667,56.6000000000,7.7500000000,-1.5625000000,0.0000000000,image27.jpg,5404.4225380000
4,50.8634193333,-0.0939376667,56.6000000000,7.7500000000,-1.5625000000,0.0000000000,image28.jpg,5603.9540630000
4,50.8634193333,-0.0939376667,56.6000000000,7.7500000000,-1.5625000000,0.0000000000,image29.jpg,5803.6012660000
4,50.8634193333,-0.0939375000,56.6000000000,7.7500000000,-1.5625000000,0.0000000000,image30.jpg,6003.6997080000
4,50.8634193333,-0.0939376667,56.6000000000,7.7500000000,-1.5625000000,0.0000000000,image31.jpg,6203.9980870000
4,50.8634193333,-0.0939376667,56.6000000000,7.7500000000,-1.5625000000,0.0000000000,image32.jpg,6404.7006620000
4,50.8634193333,-0.0939376667,56.6000000000,7.7500000000,-1.5625000000,0.0000000000,image33.jpg,6604.7698680000
4,50.8634193333,-0.0939376667,56.6000000000,7.8750000000,-1.5000000000,359.8750000000,image34.jpg,6803.8817490000
4,50.8634193333,-0.0939376667,56.6000000000,8.6250000000,-1.3125000000,359.8125000000,image35.jpg,7003.9490810000
4,50.8634193333,-0.0939376667,56.6000000000,8.6875000000,-1.4375000000,359.8125000000,image36.jpg,7204.1222150000
4,50.8634193333,-0.0939376667,56.6000000000,8.6250000000,-1.4375000000,359.8125000000,image37.jpg,7404.0773370000
4,50.8634193333,-0.0939376667,56.6000000000,8.6250000000,-1.4375000000,359.8125000000,image38.jpg,7604.1787500000
4,50.8634193333,-0.0939376667,56.6000000000,8.6250000000,-1.4375000000,359.8125000000,image39.jpg,7804.6679570000
4,50.8634193333,-0.0939376667,56.6000000000,8.6250000000,-1.4375000000,359.8125000000,image40.jpg,8005.2939090000
4,50.8634193333,-0.0939376667,56.6000000000,8.6250000000,-1.4375000000,359.8125000000,image41.jpg,8205.3717870000
4,50.8634193333,-0.0939376667,56.6000000000,8.6250000000,-1.4375000000,359.8125000000,image42.jpg,8405.4836810000
4,50.8634193333,-0.0939376667,56.6000000000,8.6250000000,-1.4375000000,359.8125000000,image43.jpg,8605.6248070000
4,50.8634193333,-0.0939376667,56.6000000000,8.6250000000,-1.4375000000,359.8125000000,image44.jpg,8805.4610790000
4,50.8634193333,-0.0939378333,56.6000000000,8.6250000000,-1.4375000000,359.8125000000,image45.jpg,9004.7122400000
4,50.8634193333,-0.0939376667,56.6000000000,8.6250000000,-1.4375000000,359.8125000000,image46.jpg,9204.7668340000
4,50.8634193333,-0.0939376667,56.6000000000,8.6250000000,-1.4375000000,359.8125000000,image47.jpg,9404.8576330000
4,50.8634193333,-0.0939376667,56.6000000000,8.6250000000,-1.4375000000,359.8125000000,image48.jpg,9605.4223600000
4,50.8634193333,-0.0939378333,56.6000000000,8.6250000000,-1.4375000000,359.8125000000,image49.jpg,9805.9744750000
4,50.8634193333,-0.0939378333,56.6000000000,8.6250000000,-1.4375000000,359.8125000000,image50.jpg,10006.0468140000
4,50.8634193333,-0.0939378333,56.6000000000,8.6250000000,-1.4375000000,359.8125000000,image51.jpg,10206.1404590000
4,50.8634193333,-0.0939378333,56.6000000000,8.6250000000,-1.4375000000,359.8125000000,image52.jpg,10406.3461560000
4,50.8634193333,-0.0939378333,56.6000000000,8.6250000000,-1.4375000000,359.8125000000,image53.jpg,10605.3408160000
4,50.8634193333,-0.0939378333,56.6000000000,8.6250000000,-1.4375000000,359.8125000000,image54.jpg,10805.3915990000
4,50.8634193333,-0.0939378333,56.6000000000,8.6250000000,-1.4375000000,359.8125000000,image55.jpg,11005.4759830000
4,50.8634193333,-0.0939378333,56.6000000000,8.7500000000,-1.3750000000,359.8125000000,image56.jpg,11205.8687550000
4,50.8634193333,-0.0939378333,56.6000000000,9.1250000000,-1.2500000000,359.8125000000,image57.jpg,11406.6209150000
4,50.8634193333,-0.0939380000,56.6000000000,10.8750000000,-0.1250000000,0.2500000000,image58.jpg,11606.7434590000
4,50.8634200000,-0.0939393333,56.6000000000,10.1875000000,-0.9375000000,0.7500000000,image59.jpg,11806.7134880000
4,50.8634208333,-0.0939405000,56.6000000000,8.6875000000,-2.2500000000,1.3125000000,image60.jpg,12006.7600920000
4,50.8634215000,-0.0939415000,56.6000000000,9.1875000000,-2.6250000000,1.6875000000,image61.jpg,12206.3422400000
4,50.8634221667,-0.0939423333,56.6000000000,8.8125000000,-3.3750000000,1.8750000000,image62.jpg,12405.9637180000
4,50.8634228333,-0.0939431667,56.6000000000,8.4375000000,-2.4375000000,2.3750000000,image63.jpg,12606.0824140000
4,50.8634235000,-0.0939440000,56.6000000000,8.8125000000,-2.1875000000,3.0625000000,image64.jpg,12806.2679120000
4,50.8634241667,-0.0939451667,56.6000000000,9.1250000000,-1.5625000000,3.3125000000,image65.jpg,13006.3383390000
4,50.8634248333,-0.0939460000,56.6000000000,8.7500000000,-0.8125000000,3.6875000000,image66.jpg,13206.2436330000
4,50.8634256667,-0.0939470000,56.6000000000,6.8750000000,-1.0000000000,4.2500000000,image67.jpg,13406.3032770000
4,50.8634265000,-0.0939481667,56.6000000000,8.6250000000,-2.2500000000,4.6250000000,image68.jpg,13606.3967340000
4,50.8634273333,-0.0939490000,56.6000000000,10.0000000000,-1.7500000000,5.9375000000,image69.jpg,13806.4356360000
4,50.8634281667,-0.0939501667,56.6000000000,7.8125000000,-1.3750000000,7.6250000000,image70.jpg,14006.5189720000
4,50.8634290000,-0.0939511667,56.6000000000,9.3125000000,-1.6250000000,10.2500000000,image71.jpg,14206.5758460000
4,50.8634298333,-0.0939521667,56.6000000000,9.5625000000,-2.0625000000,11.7500000000,image72.jpg,14406.6566820000
4,50.8634308333,-0.0939531667,56.7000000000,9.9375000000,-2.0625000000,12.6250000000,image73.jpg,14606.9135600000
4,50.8634316667,-0.0939540000,56.6000000000,9.6250000000,-2.0625000000,13.5000000000,image74.jpg,14806.8267300000
4,50.8634326667,-0.0939548333,56.7000000000,9.6250000000,-1.6875000000,14.0000000000,image75.jpg,15006.8649200000
4,50.8634338333,-0.0939558333,56.7000000000,9.6250000000,-2.1250000000,14.7500000000,image76.jpg,15206.9287910000
4,50.8634348333,-0.0939568333,56.7000000000,9.1875000000,-2.3750000000,14.8750000000,image77.jpg,15406.9923500000
4,50.8634360000,-0.0939576667,56.7000000000,8.8750000000,-1.5000000000,15.1875000000,image78.jpg,15607.0947500000
4,50.8634368333,-0.0939586667,56.7000000000,9.1875000000,-2.3750000000,15.5000000000,image79.jpg,15807.1426720000
4,50.8634380000,-0.0939596667,56.7000000000,9.4375000000,-2.0000000000,16.6250000000,image80.jpg,16007.2018460000
4,50.8634390000,-0.0939606667,56.7000000000,9.8125000000,-1.8750000000,21.6250000000,image81.jpg,16207.9497760000
4,50.8634403333,-0.0939611667,56.7000000000,8.5000000000,-2.0000000000,22.3125000000,image82.jpg,16408.5222080000
4,50.8634413333,-0.0939618333,56.7000000000,8.3125000000,-1.1250000000,22.3125000000,image83.jpg,16608.3792020000
4,50.8634425000,-0.0939626667,56.7000000000,8.4375000000,-1.0000000000,21.2500000000,image84.jpg,16808.3696310000
4,50.8634436667,-0.0939633333,56.7000000000,6.5625000000,-1.2500000000,21.5625000000,image85.jpg,17008.4334570000
4,50.8634446667,-0.0939641667,56.7000000000,7.8750000000,-1.0000000000,21.9375000000,image86.jpg,17207.6642370000
4,50.8634458333,-0.0939650000,56.7000000000,8.4375000000,-1.3750000000,21.9375000000,image87.jpg,17407.6216920000
4,50.8634470000,-0.0939656667,56.7000000000,5.0625000000,-1.7500000000,21.2500000000,image88.jpg,17607.6868740000
4,50.8634480000,-0.0939665000,56.7000000000,6.5625000000,-0.8750000000,18.6875000000,image89.jpg,17808.0169250000
4,50.8634490000,-0.0939673333,56.7000000000,7.1250000000,-1.5625000000,19.3125000000,image90.jpg,18008.8454370000
4,50.8634501667,-0.0939680000,56.7000000000,7.1250000000,-0.8750000000,20.3125000000,image91.jpg,18209.1213660000
4,50.8634513333,-0.0939688333,56.7000000000,6.6875000000,-0.1250000000,21.6875000000,image92.jpg,18408.9322760000
4,50.8634523333,-0.0939693333,56.7000000000,7.7500000000,0.1250000000,22.9375000000,image93.jpg,18609.0282910000
4,50.8634536667,-0.0939701667,56.7000000000,9.0625000000,0.0625000000,25.6250000000,image94.jpg,18808.7167990000
4,50.8634548333,-0.0939706667,56.7000000000,9.6250000000,0.3125000000,27.6250000000,image95.jpg,19008.1786590000
4,50.8634560000,-0.0939711667,56.7000000000,9.4375000000,0.8750000000,29.7500000000,image96.jpg,19208.2280530000
4,50.8634571667,-0.0939718333,56.7000000000,9.6875000000,0.0000000000,31.3750000000,image97.jpg,19408.6116640000
4,50.8634585000,-0.0939721667,56.7000000000,9.4375000000,-0.5000000000,33.1250000000,image98.jpg,19609.1752810000
4,50.8634596667,-0.0939725000,56.7000000000,10.1250000000,-0.3750000000,35.0625000000,image99.jpg,19809.3818670000
4,50.8634610000,-0.0939726667,56.8000000000,9.8750000000,0.0000000000,36.4375000000,image100.jpg,20009.4727580000
4,50.8634623333,-0.0939730000,56.8000000000,9.1875000000,-0.8125000000,37.5625000000,image101.jpg,20209.4928590000
4,50.8634636667,-0.0939731667,56.8000000000,8.6875000000,-1.3125000000,38.8750000000,image102.jpg,20409.4306030000
4,50.8634650000,-0.0939735000,56.8000000000,8.8125000000,0.1250000000,39.1250000000,image103.jpg,20608.7139810000
4,50.8634663333,-0.0939736667,56.8000000000,7.5625000000,0.5625000000,38.9375000000,image104.jpg,20808.7579940000
4,50.8634678333,-0.0939738333,56.8000000000,8.5625000000,0.0000000000,37.8750000000,image105.jpg,21008.9804690000
4,50.8634691667,-0.0939741667,56.8000000000,8.3125000000,-1.3750000000,35.5625000000,image106.jpg,21209.5985210000
4,50.8634705000,-0.0939743333,56.8000000000,7.9375000000,-1.0625000000,35.7500000000,image107.jpg,21409.0171850000
4,50.8634718333,-0.0939748333,56.8000000000,8.2500000000,-1.2500000000,34.8750000000,image108.jpg,21609.0886590000
4,50.8634731667,-0.0939751667,56.8000000000,6.3125000000,-0.6250000000,31.5625000000,image109.jpg,21809.4531040000
4,50.8634743333,-0.0939756667,56.8000000000,6.6875000000,-0.8750000000,27.8125000000,image110.jpg,22009.1264650000
4,50.8634756667,-0.0939763333,56.8000000000,7.5625000000,-1.1875000000,26.8750000000,image111.jpg,22209.3047910000
4,50.8634770000,-0.0939770000,56.8000000000,8.9375000000,-1.5000000000,27.8750000000,image112.jpg,22409.2659510000
4,50.8634781667,-0.0939776667,56.8000000000,8.2500000000,-2.6250000000,27.9375000000,image113.jpg,22609.3512500000
4,50.8634796667,-0.0939781667,56.8000000000,5.8125000000,-2.6250000000,27.5625000000,image114.jpg,22809.6102030000
4,50.8634808333,-0.0939788333,56.8000000000,7.5000000000,-2.4375000000,27.5000000000,image115.jpg,23009.4925440000
4,50.8634821667,-0.0939793333,56.8000000000,5.5000000000,-1.4375000000,27.3125000000,image116.jpg,23209.5253730000
4,50.8634833333,-0.0939800000,56.8000000000,6.1250000000,-0.7500000000,26.3750000000,image117.jpg,23409.6847810000
4,50.8634848333,-0.0939806667,56.8000000000,7.2500000000,-2.0000000000,24.1250000000,image118.jpg,23609.7022060000
4,50.8634861667,-0.0939816667,56.8000000000,8.6250000000,-3.7500000000,23.5000000000,image119.jpg,23809.7131700000
4,50.8634873333,-0.0939823333,56.8000000000,7.6875000000,-2.1250000000,23.6250000000,image120.jpg,24009.8183120000
4,50.8634886667,-0.0939830000,56.8000000000,7.8125000000,0.1250000000,23.8750000000,image121.jpg,24209.8357340000
4,50.8634898333,-0.0939838333,56.8000000000,6.6875000000,-0.6875000000,24.1875000000,image122.jpg,24410.6476360000
4,50.8634910000,-0.0939845000,56.8000000000,3.9375000000,-2.0000000000,24.6250000000,image123.jpg,24611.2553610000
4,50.8634925000,-0.0939850000,56.8000000000,1.2500000000,-4.3125000000,24.0000000000,image124.jpg,24811.0964380000
4,50.8634938333,-0.0939860000,56.8000000000,5.7500000000,-3.0000000000,22.8125000000,image125.jpg,25011.1034730000
4,50.8634948333,-0.0939865000,56.8000000000,4.1875000000,1.1250000000,23.0625000000,image126.jpg,25211.1558270000
4,50.8634958333,-0.0939870000,56.8000000000,3.3125000000,2.9375000000,23.5625000000,image127.jpg,25410.5802360000
4,50.8634971667,-0.0939881667,56.8000000000,6.1875000000,2.8125000000,23.2500000000,image128.jpg,25610.3969160000
4,50.8634981667,-0.0939888333,56.8000000000,6.8125000000,-0.7500000000,22.5000000000,image129.jpg,25810.3943640000
4,50.8634995000,-0.0939893333,56.8000000000,5.8125000000,-0.6250000000,22.5625000000,image130.jpg,26010.7853520000
4,50.8635008333,-0.0939905000,56.8000000000,6.5625000000,-1.1250000000,23.0000000000,image131.jpg,26211.4749190000
4,50.8635020000,-0.0939910000,56.8000000000,5.6250000000,-0.2500000000,23.6875000000,image132.jpg,26411.5581070000
4,50.8635031667,-0.0939916667,56.8000000000,7.0000000000,-0.7500000000,22.8750000000,image133.jpg,26611.6390940000
4,50.8635045000,-0.0939925000,56.8000000000,7.0625000000,-0.3750000000,22.5000000000,image134.jpg,26811.7025560000
4,50.8635056667,-0.0939931667,56.8000000000,7.1250000000,0.8125000000,22.3750000000,image135.jpg,27011.4984850000
4,50.8635068333,-0.0939941667,56.8000000000,6.8750000000,0.3750000000,22.0625000000,image136.jpg,27210.9065540000
4,50.8635081667,-0.0939950000,56.8000000000,8.6250000000,-2.4375000000,21.6250000000,image137.jpg,27410.9547020000
4,50.8635095000,-0.0939958333,56.8000000000,8.4375000000,-1.3125000000,20.5625000000,image138.jpg,27611.3535130000
4,50.8635108333,-0.0939968333,56.8000000000,8.8750000000,-1.2500000000,19.0625000000,image139.jpg,27811.9166510000
4,50.8635120000,-0.0939980000,56.8000000000,8.0000000000,-2.1250000000,15.4375000000,image140.jpg,28012.0620310000
4,50.8635131667,-0.0939991667,56.8000000000,7.8750000000,-2.3125000000,13.1250000000,image141.jpg,28212.1674580000
4,50.8635143333,-0.0940003333,56.8000000000,9.1875000000,-2.1250000000,12.7500000000,image142.jpg,28412.2285040000
4,50.8635155000,-0.0940013333,56.8000000000,10.0625000000,-1.8125000000,12.0000000000,image143.jpg,28611.9912900000
4,50.8635168333,-0.0940026667,56.8000000000,9.3125000000,0.1250000000,13.1250000000,image144.jpg,28811.3932990000
4,50.8635181667,-0.0940036667,56.8000000000,7.5625000000,-1.5000000000,13.8750000000,image145.jpg,29011.4980980000
4,50.8635191667,-0.0940048333,56.9000000000,8.5000000000,-2.1875000000,13.9375000000,image146.jpg,29211.8743870000
4,50.8635205000,-0.0940060000,56.9000000000,8.5625000000,-1.6250000000,13.3125000000,image147.jpg,29411.8989690000
4,50.8635218333,-0.0940071667,56.9000000000,7.7500000000,-2.5625000000,13.3125000000,image148.jpg,29611.7165600000
4,50.8635230000,-0.0940083333,56.9000000000,6.5000000000,-1.8750000000,13.1250000000,image149.jpg,29811.7457920000
4,50.8635243333,-0.0940095000,56.9000000000,6.8750000000,-2.6875000000,12.8125000000,image150.jpg,30011.8413850000
4,50.8635255000,-0.0940108333,56.9000000000,7.8125000000,-2.0625000000,12.8125000000,image151.jpg,30212.0171440000
4,50.8635268333,-0.0940120000,56.9000000000,5.8750000000,-2.3125000000,11.3125000000,image152.jpg,30412.0707530000
4,50.8635278333,-0.0940133333,56.9000000000,7.4375000000,-3.0625000000,10.4375000000,image153.jpg,30612.1682430000
4,50.8635291667,-0.0940146667,56.9000000000,6.8125000000,-3.1250000000,9.1250000000,image154.jpg,30812.2195900000
4,50.8635305000,-0.0940160000,56.9000000000,6.5625000000,-3.3750000000,8.5625000000,image155.jpg,31012.4564270000
4,50.8635315000,-0.0940173333,56.9000000000,6.9375000000,-2.4375000000,6.1875000000,image156.jpg,31212.3851570000
4,50.8635326667,-0.0940188333,56.9000000000,7.7500000000,-2.6250000000,4.0625000000,image157.jpg,31412.5253160000
4,50.8635336667,-0.0940203333,56.9000000000,7.5625000000,-3.1250000000,1.3750000000,image158.jpg,31612.5913290000
4,50.8635346667,-0.0940216667,56.9000000000,7.3750000000,-3.0625000000,0.6875000000,image159.jpg,31812.5878710000
4,50.8635356667,-0.0940231667,56.9000000000,5.8750000000,-3.5000000000,359.2500000000,image160.jpg,32012.5802990000
4,50.8635365000,-0.0940248333,56.9000000000,7.1875000000,-3.7500000000,358.6250000000,image161.jpg,32212.7425370000
4,50.8635375000,-0.0940261667,56.9000000000,7.0000000000,-1.9375000000,358.5625000000,image162.jpg,32412.8753450000
4,50.8635383333,-0.0940278333,56.9000000000,6.4375000000,-1.4375000000,358.2500000000,image163.jpg,32613.5916980000
4,50.8635393333,-0.0940295000,56.9000000000,7.2500000000,-3.0625000000,357.0000000000,image164.jpg,32813.9864690000
4,50.8635401667,-0.0940310000,56.9000000000,5.4375000000,-2.5625000000,355.5625000000,image165.jpg,33013.9068140000
4,50.8635411667,-0.0940325000,56.9000000000,4.3750000000,-1.3750000000,354.3750000000,image166.jpg,33214.0686430000
4,50.8635418333,-0.0940343333,56.9000000000,7.0000000000,-0.7500000000,353.6875000000,image167.jpg,33414.0897280000
4,50.8635428333,-0.0940361667,56.9000000000,7.2500000000,-1.6250000000,354.0000000000,image168.jpg,33613.2345210000
4,50.8635438333,-0.0940380000,56.9000000000,8.2500000000,-3.6250000000,354.0000000000,image169.jpg,33813.2482320000
4,50.8635446667,-0.0940398333,56.9000000000,8.5000000000,-2.7500000000,354.3750000000,image170.jpg,34013.3306470000
4,50.8635456667,-0.0940416667,56.9000000000,7.3750000000,-2.7500000000,353.2500000000,image171.jpg,34213.8906660000
4,50.8635466667,-0.0940435000,56.9000000000,6.8125000000,-1.8125000000,353.1250000000,image172.jpg,34414.3790100000
4,50.8635475000,-0.0940451667,56.9000000000,6.6875000000,-1.5625000000,352.8125000000,image173.jpg,34614.4060090000
4,50.8635485000,-0.0940471667,56.9000000000,6.9375000000,-2.0000000000,352.6875000000,image174.jpg,34814.4378820000
4,50.8635495000,-0.0940491667,56.9000000000,6.2500000000,-3.4375000000,351.6250000000,image175.jpg,35014.8498480000
4,50.8635505000,-0.0940513333,56.9000000000,7.5625000000,-3.2500000000,351.1250000000,image176.jpg,35214.1082040000
4,50.8635513333,-0.0940531667,56.9000000000,6.8750000000,-3.1875000000,350.6875000000,image177.jpg,35413.7867600000
4,50.8635523333,-0.0940553333,56.9000000000,6.8125000000,-4.1250000000,350.2500000000,image178.jpg,35613.9291810000
4,50.8635531667,-0.0940575000,56.9000000000,5.7500000000,-3.2500000000,350.8125000000,image179.jpg,35814.4065140000
4,50.8635541667,-0.0940593333,56.9000000000,5.1875000000,-2.0625000000,351.1875000000,image180.jpg,36015.0899100000
4,50.8635553333,-0.0940618333,56.9000000000,5.6875000000,-2.5625000000,351.6250000000,image181.jpg,36215.2853390000
4,50.8635565000,-0.0940641667,56.9000000000,5.3125000000,-3.3750000000,352.5625000000,image182.jpg,36415.2915830000
4,50.8635576667,-0.0940661667,57.0000000000,5.7500000000,-2.5625000000,352.0625000000,image183.jpg,36615.3049840000
4,50.8635586667,-0.0940686667,57.0000000000,3.8125000000,-2.8750000000,350.6250000000,image184.jpg,36814.6961780000
4,50.8635598333,-0.0940708333,57.0000000000,5.5625000000,-3.5000000000,350.3125000000,image185.jpg,37014.2617640000
4,50.8635606667,-0.0940730000,57.0000000000,5.3750000000,-3.1250000000,349.0000000000,image186.jpg,37214.4703310000
4,50.8635618333,-0.0940755000,57.0000000000,7.4375000000,-3.5625000000,348.7500000000,image187.jpg,37414.8019300000
4,50.8635628333,-0.0940780000,57.0000000000,4.6250000000,-3.1250000000,348.8125000000,image188.jpg,37615.1550700000
4,50.8635638333,-0.0940803333,57.0000000000,5.6875000000,-3.3750000000,348.9375000000,image189.jpg,37814.6325990000
4,50.8635648333,-0.0940826667,57.0000000000,6.2500000000,-2.4375000000,349.5625000000,image190.jpg,38014.7053430000
4,50.8635658333,-0.0940850000,57.0000000000,5.8125000000,-2.4375000000,349.9375000000,image191.jpg,38214.7414680000
4,50.8635668333,-0.0940875000,57.0000000000,4.8125000000,-3.0000000000,349.3125000000,image192.jpg,38415.2391480000
4,50.8635680000,-0.0940898333,57.0000000000,6.1250000000,-3.0625000000,348.8125000000,image193.jpg,38615.2605150000
4,50.8635688333,-0.0940921667,57.0000000000,4.6875000000,-3.0000000000,348.5625000000,image194.jpg,38815.4753390000
4,50.8635700000,-0.0940948333,57.0000000000,7.1250000000,-3.6250000000,348.2500000000,image195.jpg,39015.4803510000
4,50.8635708333,-0.0940973333,57.0000000000,7.5000000000,-3.1250000000,348.4375000000,image196.jpg,39215.7298660000
4,50.8635718333,-0.0940996667,57.0000000000,9.0000000000,-3.0000000000,351.3750000000,image197.jpg,39415.6526310000
4,50.8635731667,-0.0941020000,57.0000000000,8.3125000000,-3.9375000000,352.3125000000,image198.jpg,39615.7122190000
4,50.8635743333,-0.0941043333,57.0000000000,8.3750000000,-3.5000000000,353.6875000000,image199.jpg,39815.9007340000
4,50.8635755000,-0.0941066667,57.0000000000,7.5625000000,-1.0625000000,354.3750000000,image200.jpg,40015.9504330000
4,50.8635766667,-0.0941090000,57.0000000000,9.8125000000,-0.5625000000,355.6875000000,image201.jpg,40216.0705040000
4,50.8635780000,-0.0941113333,57.0000000000,7.0625000000,-3.5000000000,358.0625000000,image202.jpg,40416.1775010000
4,50.8635793333,-0.0941136667,57.0000000000,8.4375000000,-4.3750000000,359.5000000000,image203.jpg,40616.1942220000
4,50.8635808333,-0.0941158333,57.0000000000,9.3125000000,-3.1875000000,0.6875000000,image204.jpg,40817.1446880000
4,50.8635821667,-0.0941181667,57.0000000000,9.3125000000,-3.7500000000,1.6250000000,image205.jpg,41017.6605830000
4,50.8635838333,-0.0941205000,57.0000000000,7.0625000000,-4.3750000000,3.0000000000,image206.jpg,41217.6292410000
4,50.8635853333,-0.0941225000,57.0000000000,6.1875000000,-3.3750000000,359.0625000000,image207.jpg,41417.6752490000
4,50.8635868333,-0.0941248333,57.0000000000,6.9375000000,-4.6250000000,357.4375000000,image208.jpg,41617.4291470000
4,50.8635878333,-0.0941273333,57.0000000000,7.9375000000,-3.8125000000,355.0000000000,image209.jpg,41816.6506730000
4,50.8635890000,-0.0941296667,57.0000000000,9.7500000000,-3.8125000000,356.8750000000,image210.jpg,42016.5865860000
4,50.8635905000,-0.0941320000,57.0000000000,8.3750000000,-4.3125000000,358.0000000000,image211.jpg,42216.5603150000
4,50.8635918333,-0.0941343333,57.1000000000,8.1875000000,-3.6250000000,359.6250000000,image212.jpg,42417.3375020000
4,50.8635933333,-0.0941363333,57.1000000000,7.2500000000,-2.9375000000,2.0000000000,image213.jpg,42617.9088930000
4,50.8635946667,-0.0941385000,57.1000000000,7.1875000000,-2.9375000000,3.7500000000,image214.jpg,42817.8381160000
4,50.8635963333,-0.0941405000,57.1000000000,8.7500000000,-3.6875000000,8.5000000000,image215.jpg,43017.9059960000
4,50.8635978333,-0.0941421667,57.1000000000,8.0000000000,-3.1875000000,9.4375000000,image216.jpg,43218.0579470000
4,50.8635995000,-0.0941438333,57.1000000000,8.0000000000,-4.4375000000,10.9375000000,image217.jpg,43417.0850590000
4,50.8636011667,-0.0941455000,57.1000000000,8.8125000000,-3.4375000000,11.9375000000,image218.jpg,43617.1352420000
4,50.8636026667,-0.0941471667,57.1000000000,6.0625000000,-3.0625000000,10.6875000000,image219.jpg,43817.0525770000
4,50.8636041667,-0.0941490000,57.1000000000,6.5000000000,-3.3125000000,7.4375000000,image220.jpg,44017.8505080000
4,50.8636056667,-0.0941506667,57.1000000000,6.6875000000,-3.4375000000,5.6875000000,image221.jpg,44218.2080890000
4,50.8636071667,-0.0941526667,57.1000000000,4.5000000000,-3.2500000000,3.5000000000,image222.jpg,44418.1912630000
4,50.8636085000,-0.0941546667,57.1000000000,4.6875000000,-4.1250000000,357.6250000000,image223.jpg,44618.4154620000
4,50.8636098333,-0.0941568333,57.1000000000,7.3125000000,-3.0625000000,357.0000000000,image224.jpg,44818.8534640000
4,50.8636111667,-0.0941590000,57.1000000000,3.9375000000,-3.8125000000,357.6875000000,image225.jpg,45017.7247700000
4,50.8636123333,-0.0941613333,57.1000000000,6.7500000000,-3.1250000000,357.1250000000,image226.jpg,45218.4992590000
4,50.8636136667,-0.0941635000,57.1000000000,6.8750000000,-1.9375000000,357.6875000000,image227.jpg,45418.2520980000
4,50.8636150000,-0.0941658333,57.1000000000,8.0625000000,-2.7500000000,358.1875000000,image228.jpg,45619.2328730000
4,50.8636163333,-0.0941680000,57.1000000000,7.5000000000,-2.6875000000,358.8750000000,image229.jpg,45818.2156560000
4,50.8636175000,-0.0941701667,57.1000000000,8.3750000000,-3.9375000000,358.8750000000,image230.jpg,46018.2558190000
4,50.8636190000,-0.0941725000,57.1000000000,6.6250000000,-4.3125000000,357.6250000000,image231.jpg,46218.2278520000
4,50.8636205000,-0.0941746667,57.1000000000,6.5000000000,-3.2500000000,355.5000000000,image232.jpg,46418.3801070000
4,50.8636216667,-0.0941771667,57.1000000000,5.5000000000,-4.1250000000,355.7500000000,image233.jpg,46618.4661850000
4,50.8636230000,-0.0941795000,57.1000000000,7.6875000000,-3.8750000000,356.1875000000,image234.jpg,46818.3435390000
4,50.8636243333,-0.0941818333,57.1000000000,6.2500000000,-4.1250000000,356.8125000000,image235.jpg,47018.3747600000
4,50.8636256667,-0.0941841667,57.1000000000,6.4375000000,-6.0000000000,358.5625000000,image236.jpg,47219.0406680000
4,50.8636270000,-0.0941863333,57.1000000000,8.5000000000,-4.6250000000,1.6250000000,image237.jpg,47418.7585820000
4,50.8636285000,-0.0941885000,57.1000000000,8.3750000000,-4.3750000000,5.2500000000,image238.jpg,47619.1667400000
4,50.8636301667,-0.0941903333,57.1000000000,8.0625000000,-3.9375000000,6.1875000000,image239.jpg,47819.2131440000
4,50.8636316667,-0.0941921667,57.1000000000,6.8750000000,-4.2500000000,5.9375000000,image240.jpg,48018.9452530000
4,50.8636330000,-0.0941941667,57.1000000000,6.3750000000,-3.6875000000,0.9375000000,image241.jpg,48219.1032290000
4,50.8636343333,-0.0941963333,57.1000000000,4.9375000000,-3.3750000000,355.0625000000,image242.jpg,48419.2488090000
4,50.8636355000,-0.0941986667,57.1000000000,6.7500000000,-2.1875000000,351.5000000000,image243.jpg,48619.1723750000
4,50.8636366667,-0.0942011667,57.1000000000,7.8750000000,-3.0000000000,351.9375000000,image244.jpg,48819.6803620000
4,50.8636378333,-0.0942036667,57.1000000000,5.7500000000,-3.8125000000,351.9375000000,image245.jpg,49020.2110590000
4,50.8636388333,-0.0942060000,57.1000000000,6.1250000000,-3.1250000000,352.5000000000,image246.jpg,49220.4264190000
4,50.8636401667,-0.0942083333,57.2000000000,5.3750000000,-3.9375000000,351.2500000000,image247.jpg,49420.4463460000
4,50.8636413333,-0.0942110000,57.2000000000,6.2500000000,-3.1250000000,350.3125000000,image248.jpg,49620.5416830000
4,50.8636425000,-0.0942136667,57.2000000000,4.5000000000,-3.9375000000,350.6250000000,image249.jpg,49820.2419420000
4,50.8636436667,-0.0942161667,57.2000000000,4.1875000000,-4.0000000000,350.5000000000,image250.jpg,50019.5317000000
4,50.8636448333,-0.0942186667,57.2000000000,4.7500000000,-4.2500000000,349.3750000000,image251.jpg,50219.6218850000
4,50.8636460000,-0.0942213333,57.2000000000,2.9375000000,-4.8750000000,345.6250000000,image252.jpg,50420.0751200000
4,50.8636468333,-0.0942240000,57.2000000000,3.3125000000,-4.3750000000,345.4375000000,image253.jpg,50620.7383620000
4,50.8636478333,-0.0942265000,57.2000000000,3.0625000000,-3.0000000000,343.8125000000,image254.jpg,50820.8409960000
4,50.8636488333,-0.0942291667,57.2000000000,2.3125000000,-3.3125000000,343.1250000000,image255.jpg,51020.9173780000
4,50.8636496667,-0.0942318333,57.2000000000,3.7500000000,-2.8125000000,343.5000000000,image256.jpg,51221.2003900000
4,50.8636505000,-0.0942345000,57.2000000000,2.7500000000,-3.3750000000,344.8750000000,image257.jpg,51421.0882170000
4,50.8636515000,-0.0942371667,57.2000000000,3.3125000000,-3.5625000000,345.3125000000,image258.jpg,51620.1358710000
4,50.8636525000,-0.0942398333,57.2000000000,1.8125000000,-4.3750000000,343.0625000000,image259.jpg,51820.2766410000
4,50.8636535000,-0.0942425000,57.2000000000,3.8125000000,-4.2500000000,342.3750000000,image260.jpg,52020.6130510000
4,50.8636543333,-0.0942451667,57.2000000000,2.3125000000,-5.1875000000,341.1250000000,image261.jpg,52221.2768300000
4,50.8636551667,-0.0942480000,57.2000000000,4.3750000000,-5.1875000000,340.5000000000,image262.jpg,52421.6249070000
4,50.8636560000,-0.0942505000,57.2000000000,2.3750000000,-2.1875000000,339.4375000000,image263.jpg,52621.6249900000
4,50.8636566667,-0.0942530000,57.2000000000,3.1875000000,-3.3750000000,336.1250000000,image264.jpg,52821.7725470000
4,50.8636571667,-0.0942558333,57.3000000000,0.6250000000,-3.9375000000,330.3125000000,image265.jpg,53021.4079320000
4,50.8636575000,-0.0942586667,57.2000000000,1.5000000000,-3.8125000000,323.8125000000,image266.jpg,53221.1831180000
4,50.8636578333,-0.0942613333,57.3000000000,1.9375000000,-3.1250000000,322.1250000000,image267.jpg,53421.3223420000
4,50.8636580000,-0.0942643333,57.3000000000,3.1875000000,-3.2500000000,322.2500000000,image268.jpg,53621.3365610000
4,50.8636581667,-0.0942673333,57.3000000000,2.4375000000,-3.0625000000,322.6250000000,image269.jpg,53821.8866200000
4,50.8636583333,-0.0942700000,57.3000000000,3.2500000000,-2.1250000000,323.6250000000,image270.jpg,54021.6024510000
4,50.8636588333,-0.0942730000,57.3000000000,4.0625000000,-3.4375000000,328.0000000000,image271.jpg,54222.7007790000
4,50.8636593333,-0.0942760000,57.3000000000,3.7500000000,-5.0625000000,330.8125000000,image272.jpg,54421.7353630000
4,50.8636598333,-0.0942786667,57.3000000000,3.6250000000,-4.7500000000,331.8125000000,image273.jpg,54622.4435190000
4,50.8636605000,-0.0942816667,57.3000000000,1.6875000000,-6.3125000000,332.5625000000,image274.jpg,54822.3853350000
4,50.8636611667,-0.0942846667,57.3000000000,1.3750000000,-5.9375000000,333.6875000000,image275.jpg,55022.3413720000
4,50.8636618333,-0.0942871667,57.3000000000,0.3750000000,-5.2500000000,334.7500000000,image276.jpg,55222.3000130000
4,50.8636623333,-0.0942898333,57.3000000000,0.9375000000,-4.1875000000,333.0000000000,image277.jpg,55422.6999350000
4,50.8636626667,-0.0942923333,57.3000000000,2.0625000000,-3.3750000000,331.8125000000,image278.jpg,55622.8357400000
4,50.8636631667,-0.0942950000,57.3000000000,2.6250000000,-2.0625000000,330.1250000000,image279.jpg,55823.0683970000
4,50.8636635000,-0.0942976667,57.3000000000,2.5625000000,-3.0625000000,327.5625000000,image280.jpg,56022.9565510000
4,50.8636638333,-0.0943001667,57.3000000000,0.6875000000,-3.5000000000,320.4375000000,image281.jpg,56222.8876760000
4,50.8636638333,-0.0943025000,57.3000000000,3.1875000000,-3.3125000000,314.5625000000,image282.jpg,56422.9421440000
4,50.8636636667,-0.0943046667,57.3000000000,4.3125000000,-5.3125000000,318.8125000000,image283.jpg,56623.0173620000
4,50.8636638333,-0.0943068333,57.3000000000,6.2500000000,-6.0000000000,325.1250000000,image284.jpg,56823.0321840000
4,50.8636643333,-0.0943091667,57.3000000000,5.7500000000,-3.3750000000,331.3125000000,image285.jpg,57023.6788740000
4,50.8636648333,-0.0943110000,57.3000000000,6.9375000000,-5.3125000000,337.1875000000,image286.jpg,57223.9645480000
4,50.8636655000,-0.0943133333,57.3000000000,5.7500000000,-7.0000000000,336.7500000000,image287.jpg,57424.4317980000
4,50.8636661667,-0.0943156667,57.3000000000,4.5625000000,-6.1250000000,331.2500000000,image288.jpg,57624.6255610000
4,50.8636663333,-0.0943180000,57.3000000000,2.5625000000,-5.3125000000,325.6250000000,image289.jpg,57824.6486140000
4,50.8636663333,-0.0943203333,57.3000000000,4.3125000000,-5.7500000000,322.3750000000,image290.jpg,58024.6601030000
4,50.8636663333,-0.0943226667,57.3000000000,4.0000000000,-6.1875000000,321.7500000000,image291.jpg,58223.5080220000
4,50.8636666667,-0.0943253333,57.3000000000,5.8125000000,-4.0625000000,322.2500000000,image292.jpg,58423.7576000000
4,50.8636668333,-0.0943278333,57.3000000000,5.1875000000,-2.5625000000,323.9375000000,image293.jpg,58623.8227150000
4,50.8636670000,-0.0943301667,57.3000000000,7.3750000000,-1.3750000000,325.9375000000,image294.jpg,58824.4368550000
4,50.8636673333,-0.0943326667,57.3000000000,6.9375000000,-3.3125000000,329.7500000000,image295.jpg,59026.2510240000
4,50.8636678333,-0.0943355000,57.4000000000,5.1250000000,-4.8125000000,330.1875000000,image296.jpg,59225.7128460000
4,50.8636683333,-0.0943378333,57.4000000000,6.1250000000,-3.4375000000,330.3125000000,image297.jpg,59425.9370120000
4,50.8636688333,-0.0943408333,57.4000000000,3.3125000000,-2.8750000000,326.1250000000,image298.jpg,59626.0249000000
4,50.8636691667,-0.0943443333,57.4000000000,5.1875000000,-5.0000000000,322.3750000000,image299.jpg,59825.6505500000
4,50.8636695000,-0.0943476667,57.4000000000,4.3125000000,-4.7500000000,323.8125000000,image300.jpg,60024.9254470000
4,50.8636696667,-0.0943511667,57.4000000000,5.7500000000,-4.3125000000,325.3750000000,image301.jpg,60225.0332110000
4,50.8636701667,-0.0943546667,57.4000000000,4.1250000000,-4.6875000000,327.2500000000,image302.jpg,60425.3572920000
4,50.8636706667,-0.0943580000,57.4000000000,5.1875000000,-4.0000000000,326.6250000000,image303.jpg,60625.9623670000
4,50.8636710000,-0.0943615000,57.4000000000,5.2500000000,-5.5000000000,326.5000000000,image304.jpg,60826.0605660000
4,50.8636715000,-0.0943650000,57.4000000000,5.1875000000,-5.8125000000,323.1875000000,image305.jpg,61026.1233980000
4,50.8636716667,-0.0943685000,57.4000000000,4.0625000000,-5.3125000000,323.5000000000,image306.jpg,61226.2073780000
4,50.8636720000,-0.0943718333,57.4000000000,4.0625000000,-5.8750000000,323.5625000000,image307.jpg,61426.0016510000
4,50.8636723333,-0.0943756667,57.4000000000,4.5000000000,-7.3750000000,323.6250000000,image308.jpg,61625.5047490000
4,50.8636728333,-0.0943791667,57.4000000000,4.9375000000,-7.4375000000,324.7500000000,image309.jpg,61826.2583280000
4,50.8636731667,-0.0943826667,57.4000000000,5.1875000000,-8.1250000000,325.6875000000,image310.jpg,62026.6649580000
4,50.8636735000,-0.0943865000,57.3000000000,4.0000000000,-8.0000000000,326.2500000000,image311.jpg,62225.7860350000
4,50.8636740000,-0.0943900000,57.3000000000,5.4375000000,-6.4375000000,327.1875000000,image312.jpg,62425.6360150000
4,50.8636745000,-0.0943936667,57.3000000000,6.5000000000,-6.1250000000,328.4375000000,image313.jpg,62626.1885310000
4,50.8636750000,-0.0943971667,57.3000000000,5.6875000000,-4.6875000000,329.5000000000,image314.jpg,62826.1088570000
4,50.8636755000,-0.0944006667,57.3000000000,6.0000000000,-5.2500000000,329.6250000000,image315.jpg,63026.1868510000
4,50.8636761667,-0.0944041667,57.3000000000,5.6250000000,-4.9375000000,330.5625000000,image316.jpg,63226.2608330000
4,50.8636766667,-0.0944076667,57.3000000000,6.8750000000,-5.8750000000,330.5000000000,image317.jpg,63426.4902420000
4,50.8636771667,-0.0944110000,57.3000000000,6.3750000000,-3.6250000000,330.1250000000,image318.jpg,63626.4442650000
4,50.8636778333,-0.0944143333,57.4000000000,2.8125000000,-5.0000000000,328.6875000000,image319.jpg,63827.2027530000
4,50.8636783333,-0.0944180000,57.4000000000,1.5000000000,-4.9375000000,324.0625000000,image320.jpg,64026.9023730000
4,50.8636786667,-0.0944213333,57.4000000000,2.0000000000,-4.7500000000,321.0000000000,image321.jpg,64227.7646710000
4,50.8636786667,-0.0944248333,57.4000000000,3.5000000000,-3.3125000000,321.3125000000,image322.jpg,64426.9329030000
4,50.8636791667,-0.0944283333,57.4000000000,4.6875000000,-3.1875000000,321.3125000000,image323.jpg,64627.1120310000
4,50.8636791667,-0.0944316667,57.4000000000,5.1250000000,-3.2500000000,322.9375000000,image324.jpg,64827.1088990000
4,50.8636795000,-0.0944351667,57.4000000000,5.5625000000,-3.9375000000,324.9375000000,image325.jpg,65027.3715120000
4,50.8636800000,-0.0944386667,57.4000000000,4.1250000000,-3.4375000000,327.0625000000,image326.jpg,65227.3441070000
4,50.8636805000,-0.0944421667,57.4000000000,4.1875000000,-4.4375000000,326.9375000000,image327.jpg,65428.0111730000
4,50.8636808333,-0.0944456667,57.4000000000,4.6250000000,-4.9375000000,328.0000000000,image328.jpg,65628.8735110000
4,50.8636813333,-0.0944491667,57.4000000000,5.0000000000,-5.0000000000,328.3125000000,image329.jpg,65828.5538430000
4,50.8636820000,-0.0944526667,57.4000000000,6.1250000000,-3.8125000000,329.1875000000,image330.jpg,66028.8637980000
4,50.8636825000,-0.0944563333,57.4000000000,6.2500000000,-4.6875000000,329.6250000000,image331.jpg,66229.9963030000
4,50.8636830000,-0.0944596667,57.4000000000,4.4375000000,-7.5000000000,330.6875000000,image332.jpg,66428.6785530000
4,50.8636836667,-0.0944630000,57.4000000000,1.2500000000,-3.0000000000,327.9375000000,image333.jpg,66628.4540510000
4,50.8636840000,-0.0944661667,57.4000000000,4.5000000000,-4.3125000000,325.6875000000,image334.jpg,66828.9630280000
4,50.8636845000,-0.0944696667,57.5000000000,3.5625000000,-4.8750000000,325.8125000000,image335.jpg,67028.9263460000
4,50.8636846667,-0.0944730000,57.5000000000,6.2500000000,-3.6250000000,326.5000000000,image336.jpg,67229.5403290000
4,50.8636851667,-0.0944763333,57.4000000000,6.6875000000,-4.2500000000,327.0000000000,image337.jpg,67430.0844110000
4,50.8636855000,-0.0944796667,57.5000000000,7.0000000000,-3.9375000000,328.8750000000,image338.jpg,67630.1058080000
4,50.8636860000,-0.0944830000,57.5000000000,5.4375000000,-5.0625000000,331.2500000000,image339.jpg,67830.1489270000
4,50.8636866667,-0.0944861667,57.5000000000,7.0000000000,-5.5000000000,331.1875000000,image340.jpg,68030.2680930000
4,50.8636871667,-0.0944896667,57.5000000000,6.8125000000,-4.9375000000,331.1250000000,image341.jpg,68229.4626200000
4,50.8636876667,-0.0944930000,57.5000000000,6.8750000000,-4.1875000000,331.6875000000,image342.jpg,68429.4860510000
4,50.8636883333,-0.0944965000,57.5000000000,6.5625000000,-5.3750000000,333.7500000000,image343.jpg,68629.5204770000
4,50.8636890000,-0.0944998333,57.5000000000,7.0625000000,-3.1250000000,336.1250000000,image344.jpg,68830.4511580000
4,50.8636898333,-0.0945030000,57.5000000000,6.8125000000,-3.6875000000,336.9375000000,image345.jpg,69031.2151100000
4,50.8636906667,-0.0945063333,57.5000000000,7.0000000000,-4.6250000000,336.3750000000,image346.jpg,69231.2009960000
4,50.8636915000,-0.0945098333,57.5000000000,7.2500000000,-5.0625000000,337.0625000000,image347.jpg,69431.2695950000
4,50.8636921667,-0.0945130000,57.5000000000,8.5625000000,-3.4375000000,341.0625000000,image348.jpg,69631.4399260000
4,50.8636933333,-0.0945161667,57.5000000000,8.5625000000,-4.1250000000,344.2500000000,image349.jpg,69830.7862050000
4,50.8636945000,-0.0945191667,57.5000000000,8.5625000000,-3.7500000000,345.8125000000,image350.jpg,70030.6484000000
4,50.8636956667,-0.0945221667,57.5000000000,5.7500000000,-5.0625000000,343.9375000000,image351.jpg,70230.8350410000
4,50.8636965000,-0.0945255000,57.5000000000,5.1250000000,-5.0000000000,340.6250000000,image352.jpg,70431.2551840000
4,50.8636975000,-0.0945285000,57.5000000000,7.5000000000,-5.2500000000,341.0000000000,image353.jpg,70631.8326910000
4,50.8636985000,-0.0945316667,57.6000000000,6.0625000000,-4.1875000000,342.1875000000,image354.jpg,70831.3614990000
4,50.8636995000,-0.0945348333,57.6000000000,7.7500000000,-6.1250000000,343.7500000000,image355.jpg,71031.3049670000
4,50.8637006667,-0.0945378333,57.6000000000,4.4375000000,-4.5000000000,343.8750000000,image356.jpg,71231.4789170000
4,50.8637015000,-0.0945408333,57.6000000000,7.2500000000,-5.9375000000,344.7500000000,image357.jpg,71431.4965030000
4,50.8637026667,-0.0945438333,57.6000000000,7.5625000000,-4.8750000000,346.6875000000,image358.jpg,71631.8173490000
4,50.8637038333,-0.0945466667,57.6000000000,6.9375000000,-5.3125000000,346.5625000000,image359.jpg,71831.9240260000
4,50.8637050000,-0.0945496667,57.6000000000,10.1250000000,-7.1875000000,349.0625000000,image360.jpg,72031.9244980000
4,50.8637061667,-0.0945521667,57.6000000000,7.8750000000,-3.8125000000,355.5000000000,image361.jpg,72232.3561940000
4,50.8637076667,-0.0945546667,57.6000000000,6.6250000000,-5.2500000000,2.7500000000,image362.jpg,72432.1837400000
4,50.8637095000,-0.0945566667,57.6000000000,8.3125000000,-3.8125000000,12.5000000000,image363.jpg,72632.2243860000
4,50.8637113333,-0.0945578333,57.6000000000,8.5000000000,-2.1875000000,21.6875000000,image364.jpg,72832.4416690000
4,50.8637133333,-0.0945590000,57.6000000000,9.5625000000,-2.1250000000,28.6250000000,image365.jpg,73032.3884160000
4,50.8637155000,-0.0945600000,57.6000000000,5.8125000000,-3.6250000000,26.1250000000,image366.jpg,73232.4663680000
4,50.8637173333,-0.0945611667,57.6000000000,6.6875000000,-2.5625000000,18.6875000000,image367.jpg,73432.9215280000
4,50.8637191667,-0.0945628333,57.6000000000,6.2500000000,-2.6250000000,11.2500000000,image368.jpg,73632.9764230000
4,50.8637208333,-0.0945648333,57.6000000000,4.8125000000,-5.5000000000,11.8750000000,image369.jpg,73833.5202650000
4,50.8637210000,-0.0945650000,57.6000000000,6.9375000000,-2.8750000000,11.8750000000,image370.jpg,74034.3997510000
4,50.8637206667,-0.0945648333,57.6000000000,7.5000000000,-1.8750000000,12.1875000000,image371.jpg,74234.1760500000
4,50.8637206667,-0.0945648333,57.6000000000,7.4375000000,-2.1250000000,12.0625000000,image372.jpg,74434.1842890000
4,50.8637206667,-0.0945648333,57.6000000000,7.4375000000,-1.8750000000,12.0625000000,image373.jpg,74634.2800520000
4,50.8637206667,-0.0945648333,57.6000000000,7.4375000000,-1.8125000000,12.0625000000,image374.jpg,74833.4979710000
4,50.8637206667,-0.0945650000,57.6000000000,7.4375000000,-1.8125000000,12.0625000000,image375.jpg,75033.3976970000
4,50.8637206667,-0.0945648333,57.6000000000,7.4375000000,-1.7500000000,12.0625000000,image376.jpg,75233.5493650000
4,50.8637206667,-0.0945648333,57.6000000000,7.4375000000,-1.7500000000,12.0625000000,image377.jpg,75433.9000540000
4,50.8637206667,-0.0945648333,57.6000000000,7.4375000000,-1.7500000000,12.0625000000,image378.jpg,75634.7436550000
4,50.8637206667,-0.0945650000,57.6000000000,7.4375000000,-1.7500000000,12.0625000000,image379.jpg,75834.9289570000
4,50.8637206667,-0.0945650000,57.6000000000,7.4375000000,-1.7500000000,12.0625000000,image380.jpg,76034.8145030000
4,50.8637206667,-0.0945650000,57.6000000000,7.4375000000,-1.7500000000,12.0625000000,image381.jpg,76235.1008520000
4,50.8637206667,-0.0945650000,57.6000000000,7.4375000000,-1.7500000000,12.0625000000,image382.jpg,76434.4730880000
4,50.8637206667,-0.0945650000,57.6000000000,7.4375000000,-1.7500000000,12.0625000000,image383.jpg,76634.0181210000
4,50.8637206667,-0.0945650000,57.6000000000,7.4375000000,-1.7500000000,12.0625000000,image384.jpg,76834.1287730000
4,50.8637206667,-0.0945650000,57.6000000000,7.4375000000,-1.7500000000,12.0625000000,image385.jpg,77034.5165760000
4,50.8637206667,-0.0945650000,57.6000000000,7.4375000000,-1.7500000000,12.0625000000,image386.jpg,77235.2802320000
4,50.8637206667,-0.0945650000,57.6000000000,7.4375000000,-1.7500000000,12.0625000000,image387.jpg,77435.3460910000
4,50.8637206667,-0.0945650000,57.6000000000,7.4375000000,-1.7500000000,12.0625000000,image388.jpg,77635.4714070000
4,50.8637206667,-0.0945650000,57.6000000000,7.4375000000,-1.7500000000,12.0625000000,image389.jpg,77835.5566350000
4,50.8637206667,-0.0945648333,57.6000000000,7.4375000000,-1.7500000000,12.0625000000,image390.jpg,78035.0111520000
4,50.8637206667,-0.0945648333,57.6000000000,7.4375000000,-1.7500000000,12.0625000000,image391.jpg,78234.7003180000
4,50.8637206667,-0.0945650000,57.6000000000,7.4375000000,-1.7500000000,12.0625000000,image392.jpg,78435.0415490000
4,50.8637206667,-0.0945648333,57.6000000000,7.4375000000,-1.7500000000,12.0625000000,image393.jpg,78635.1762370000
4,50.8637206667,-0.0945648333,57.6000000000,7.4375000000,-1.7500000000,12.0625000000,image394.jpg,78835.9026420000
4,50.8637206667,-0.0945648333,57.6000000000,7.4375000000,-1.7500000000,12.0625000000,image395.jpg,79036.0972480000
4,50.8637206667,-0.0945650000,57.6000000000,7.4375000000,-1.7500000000,12.0625000000,image396.jpg,79235.9575130000
4,50.8637206667,-0.0945650000,57.6000000000,7.4375000000,-1.7500000000,12.0625000000,image397.jpg,79436.1002410000
4,50.8637206667,-0.0945650000,57.6000000000,7.4375000000,-1.7500000000,12.0625000000,image398.jpg,79635.4711900000
4,50.8637206667,-0.0945650000,57.6000000000,7.4375000000,-1.7500000000,12.0625000000,image399.jpg,79835.2610880000
4,50.8637206667,-0.0945650000,57.6000000000,7.4375000000,-1.7500000000,12.0625000000,image400.jpg,80035.5088750000
4,50.8637206667,-0.0945648333,57.6000000000,7.4375000000,-1.7500000000,12.0625000000,image401.jpg,80235.6984290000
4,50.8637206667,-0.0945648333,57.6000000000,7.4375000000,-1.7500000000,12.0625000000,image402.jpg,80436.3884780000
4,50.8637206667,-0.0945650000,57.6000000000,7.4375000000,-1.7500000000,12.0625000000,image403.jpg,80636.4893640000
4,50.8637206667,-0.0945650000,57.6000000000,7.4375000000,-1.7500000000,12.0625000000,image404.jpg,80835.5500610000
4,50.8637206667,-0.0945650000,57.6000000000,7.4375000000,-1.7500000000,12.0625000000,image405.jpg,81035.7933200000
4,50.8637206667,-0.0945650000,57.6000000000,7.4375000000,-1.7500000000,12.0625000000,image406.jpg,81235.7877110000
4,50.8637206667,-0.0945650000,57.6000000000,7.4375000000,-1.7500000000,12.0625000000,image407.jpg,81435.9474240000
4,50.8637206667,-0.0945650000,57.6000000000,7.4375000000,-1.7500000000,12.0625000000,image408.jpg,81635.9520080000
4,50.8637206667,-0.0945650000,57.6000000000,7.4375000000,-1.7500000000,12.0625000000,image409.jpg,81836.5534690000
4,50.8637206667,-0.0945648333,57.6000000000,7.4375000000,-1.7500000000,12.0625000000,image410.jpg,82037.2406110000
4,50.8637206667,-0.0945648333,57.6000000000,7.4375000000,-1.7500000000,12.0625000000,image411.jpg,82237.2493330000
4,50.8637206667,-0.0945650000,57.6000000000,7.4375000000,-1.7500000000,12.0625000000,image412.jpg,82437.4398360000
4,50.8637206667,-0.0945650000,57.6000000000,7.4375000000,-1.7500000000,12.0625000000,image413.jpg,82637.4632830000
4,50.8637206667,-0.0945648333,57.6000000000,7.4375000000,-1.7500000000,12.0625000000,image414.jpg,82836.9021430000
4,50.8637206667,-0.0945650000,57.6000000000,7.4375000000,-1.7500000000,12.0625000000,image415.jpg,83036.6430490000
4,50.8637206667,-0.0945650000,57.6000000000,7.4375000000,-1.7500000000,12.0625000000,image416.jpg,83236.6405830000
4,50.8637206667,-0.0945648333,57.6000000000,7.4375000000,-1.7500000000,12.0625000000,image417.jpg,83436.9614660000
4,50.8637206667,-0.0945648333,57.6000000000,7.4375000000,-1.7500000000,12.0625000000,image418.jpg,83637.6666790000
4,50.8637206667,-0.0945650000,57.6000000000,7.4375000000,-1.7500000000,12.0625000000,image419.jpg,83837.8830390000
4,50.8637206667,-0.0945648333,57.6000000000,7.4375000000,-1.7500000000,12.0625000000,image420.jpg,84037.9156910000
4,50.8637206667,-0.0945650000,57.6000000000,7.4375000000,-1.7500000000,12.0625000000,image421.jpg,84237.8540680000
4,50.8637206667,-0.0945648333,57.6000000000,7.4375000000,-1.7500000000,12.0625000000,image422.jpg,84437.7926530000
4,50.8637206667,-0.0945648333,57.6000000000,7.4375000000,-1.7500000000,12.0625000000,image423.jpg,84637.2113580000
4,50.8637206667,-0.0945648333,57.6000000000,7.4375000000,-1.7500000000,12.0625000000,image424.jpg,84837.2366300000
4,50.8637206667,-0.0945650000,57.6000000000,7.4375000000,-1.7500000000,12.0625000000,image425.jpg,85037.5223320000
4,50.8637206667,-0.0945650000,57.6000000000,7.4375000000,-1.7500000000,12.0625000000,image426.jpg,85238.2314400000
4,50.8637206667,-0.0945650000,57.6000000000,7.4375000000,-1.7500000000,12.0625000000,image427.jpg,85438.4613580000
4,50.8637206667,-0.0945648333,57.6000000000,7.4375000000,-1.7500000000,12.0625000000,image428.jpg,85638.4579220000
4,50.8637206667,-0.0945648333,57.6000000000,7.4375000000,-1.7500000000,12.0625000000,image429.jpg,85838.4771180000
4,50.8637206667,-0.0945650000,57.6000000000,7.4375000000,-1.7500000000,12.0625000000,image430.jpg,86038.5914750000
4,50.8637206667,-0.0945648333,57.6000000000,7.4375000000,-1.7500000000,12.0625000000,image431.jpg,86237.7281800000
4,50.8637206667,-0.0945648333,57.6000000000,7.4375000000,-1.7500000000,12.0625000000,image432.jpg,86437.7992020000
4,50.8637206667,-0.0945648333,57.6000000000,7.4375000000,-1.7500000000,12.0625000000,image433.jpg,86638.0003800000
4,50.8637206667,-0.0945648333,57.6000000000,7.4375000000,-1.7500000000,12.0625000000,image434.jpg,86838.6799430000
4,50.8637206667,-0.0945650000,57.6000000000,7.4375000000,-1.7500000000,12.0625000000,image435.jpg,87039.0306870000
4,50.8637206667,-0.0945650000,57.6000000000,7.4375000000,-1.7500000000,12.0625000000,image436.jpg,87239.0633430000
4,50.8637206667,-0.0945648333,57.6000000000,7.4375000000,-1.7500000000,12.0625000000,image437.jpg,87439.1410010000
4,50.8637206667,-0.0945650000,57.6000000000,7.4375000000,-1.7500000000,12.0625000000,image438.jpg,87639.5675770000
4,50.8637206667,-0.0945650000,57.6000000000,7.4375000000,-1.7500000000,12.0625000000,image439.jpg,87838.3230070000
4,50.8637206667,-0.0945648333,57.6000000000,7.4375000000,-1.7500000000,12.0625000000,image440.jpg,88038.5982500000
4,50.8637206667,-0.0945648333,57.6000000000,7.4375000000,-1.7500000000,12.0625000000,image441.jpg,88238.6976000000
4,50.8637206667,-0.0945648333,57.6000000000,7.4375000000,-1.7500000000,12.0625000000,image442.jpg,88439.3779670000
4,50.8637206667,-0.0945648333,57.6000000000,7.4375000000,-1.7500000000,12.0625000000,image443.jpg,88639.8691550000
4,50.8637206667,-0.0945648333,57.6000000000,7.4375000000,-1.7500000000,12.0625000000,image444.jpg,88839.6499730000
4,50.8637206667,-0.0945648333,57.6000000000,7.4375000000,-1.7500000000,12.0625000000,image445.jpg,89039.0061880000
4,50.8637206667,-0.0945648333,57.6000000000,7.4375000000,-1.7500000000,12.0625000000,image446.jpg,89239.0872300000
4,50.8637206667,-0.0945648333,57.6000000000,7.4375000000,-1.7500000000,12.0625000000,image447.jpg,89439.1538440000
4,50.8637206667,-0.0945648333,57.6000000000,7.4375000000,-1.7500000000,12.0625000000,image448.jpg,89639.2063400000
4,50.8637205000,-0.0945650000,57.6000000000,7.4375000000,-1.7500000000,12.0625000000,image449.jpg,89839.2785560000
4,50.8637205000,-0.0945651667,57.6000000000,7.4375000000,-1.7500000000,12.0625000000,image450.jpg,90039.9144440000
4,50.8637206667,-0.0945648333,57.6000000000,7.4375000000,-1.7500000000,12.0625000000,image451.jpg,90240.3696470000
4,50.8637205000,-0.0945650000,57.5000000000,7.4375000000,-1.7500000000,12.0625000000,image452.jpg,90440.3585250000
4,50.8637206667,-0.0945648333,57.5000000000,7.4375000000,-1.7500000000,12.0625000000,image453.jpg,90640.5536100000
4,50.8637205000,-0.0945648333,57.6000000000,7.6875000000,-1.8125000000,12.1250000000,image454.jpg,90840.4410050000
4,50.8637206667,-0.0945648333,57.6000000000,7.6250000000,-1.8125000000,12.1875000000,image455.jpg,91040.1339110000
4,50.8637205000,-0.0945648333,57.6000000000,7.6250000000,-1.8125000000,12.1250000000,image456.jpg,91239.7317080000
4,50.8637206667,-0.0945648333,57.6000000000,7.6875000000,-1.8125000000,12.1250000000,image457.jpg,91439.8272890000
4,50.8637206667,-0.0945648333,57.6000000000,7.6875000000,-1.8125000000,12.1250000000,image458.jpg,91640.0977230000
4,50.8637206667,-0.0945648333,57.6000000000,7.6250000000,-1.7500000000,12.1250000000,image459.jpg,91841.0394710000
4,50.8637206667,-0.0945648333,57.6000000000,7.6250000000,-1.7500000000,12.1250000000,image460.jpg,92041.0251850000
4,50.8637206667,-0.0945648333,57.6000000000,7.1250000000,-1.5000000000,12.1250000000,image461.jpg,92241.0639740000
4,50.8637206667,-0.0945648333,57.6000000000,11.4375000000,0.0625000000,11.6875000000,image462.jpg,92441.1293790000
4,50.8637206667,-0.0945645000,57.6000000000,10.1250000000,1.1250000000,4.4375000000,image463.jpg,92640.6874700000
4,50.8637210000,-0.0945625000,57.8000000000,7.1875000000,1.1875000000,351.0000000000,image464.jpg,92840.2639810000
4,50.8637211667,-0.0945603333,58.1000000000,2.2500000000,-3.1250000000,338.4375000000,image465.jpg,93040.3880180000
4,50.8637213333,-0.0945571667,58.3000000000,-1.1875000000,-7.0000000000,328.0000000000,image466.jpg,93240.7266490000
4,50.8637215000,-0.0945541667,58.5000000000,-4.1250000000,-9.0000000000,316.2500000000,image467.jpg,93441.3920130000
5,50.8637216667,-0.0945506667,58.5000000000,-8.7500000000,-11.0625000000,303.7500000000,image468.jpg,93641.7635120000
5,50.8637218333,-0.0945475000,58.6000000000,-8.2500000000,-13.5625000000,293.3125000000,image469.jpg,93841.5825730000
5,50.8637221667,-0.0945446667,58.5000000000,-7.2500000000,-13.6875000000,283.8750000000,image470.jpg,94040.6864960000
4,50.8637218333,-0.0945415000,58.5000000000,-12.4375000000,-13.8750000000,279.9375000000,image471.jpg,94240.7792670000
4,50.8637215000,-0.0945380000,58.5000000000,-16.7500000000,-15.3750000000,278.5625000000,image472.jpg,94440.8975600000
4,50.8637210000,-0.0945343333,58.5000000000,-18.4375000000,-17.0000000000,275.5000000000,image473.jpg,94640.9724700000
4,50.8637203333,-0.0945306667,58.5000000000,-21.6250000000,-17.0000000000,272.0000000000,image474.jpg,94841.3240430000
4,50.8637200000,-0.0945273333,58.5000000000,-20.1875000000,-11.8125000000,263.6250000000,image475.jpg,95041.1387680000
4,50.8637195000,-0.0945231667,58.6000000000,-22.7500000000,-9.6250000000,256.6875000000,image476.jpg,95241.1267830000
4,50.8637190000,-0.0945190000,58.5000000000,-28.1875000000,-5.5625000000,254.2500000000,image477.jpg,95441.2254270000
4,50.8637185000,-0.0945146667,58.5000000000,-26.5000000000,-2.0000000000,249.3750000000,image478.jpg,95641.3588190000
4,50.8637180000,-0.0945105000,58.5000000000,-30.1250000000,-0.6250000000,243.5000000000,image479.jpg,95841.3991170000
4,50.8637173333,-0.0945070000,58.5000000000,-28.0625000000,1.1250000000,237.8750000000,image480.jpg,96041.4496760000
4,50.8637166667,-0.0945028333,58.5000000000,-28.3750000000,-3.3125000000,235.6250000000,image481.jpg,96241.5274760000
4,50.8637158333,-0.0944983333,58.5000000000,-30.2500000000,-7.8125000000,236.6875000000,image482.jpg,96441.6735600000
4,50.8637150000,-0.0944936667,58.5000000000,-26.6875000000,-7.7500000000,234.3125000000,image483.jpg,96641.6943850000
4,50.8637143333,-0.0944891667,58.5000000000,-26.9375000000,-7.6875000000,231.6875000000,image484.jpg,96841.7004550000
4,50.8637135000,-0.0944853333,58.5000000000,-21.5625000000,-4.5000000000,228.0000000000,image485.jpg,97041.7940800000
4,50.8637128333,-0.0944811667,58.5000000000,-23.2500000000,-5.0625000000,229.0000000000,image486.jpg,97241.8648400000
4,50.8637120000,-0.0944768333,58.5000000000,-26.0625000000,-4.6875000000,232.0000000000,image487.jpg,97441.9235680000
4,50.8637111667,-0.0944721667,58.5000000000,-25.6875000000,-2.7500000000,235.1250000000,image488.jpg,97642.0470490000
4,50.8637103333,-0.0944676667,58.4000000000,-25.5625000000,-3.4375000000,236.1875000000,image489.jpg,97842.0562890000
4,50.8637095000,-0.0944633333,58.4000000000,-18.5625000000,-1.9375000000,232.2500000000,image490.jpg,98042.3449170000
4,50.8637086667,-0.0944590000,58.5000000000,-20.8750000000,-2.4375000000,232.9375000000,image491.jpg,98243.0125730000
4,50.8637081667,-0.0944543333,58.4000000000,-23.2500000000,-2.5000000000,236.8125000000,image492.jpg,98443.3186490000
4,50.8637071667,-0.0944493333,58.4000000000,-20.8125000000,-0.9375000000,239.6875000000,image493.jpg,98643.3376920000
4,50.8637066667,-0.0944445000,58.4000000000,-25.3125000000,-3.6875000000,240.6250000000,image494.jpg,98843.3691170000
4,50.8637056667,-0.0944403333,58.4000000000,-22.4375000000,-2.9375000000,237.3125000000,image495.jpg,99043.3656430000
4,50.8637050000,-0.0944356667,58.4000000000,-22.0625000000,-5.5000000000,238.4375000000,image496.jpg,99242.6181260000
4,50.8637040000,-0.0944311667,58.4000000000,-23.5625000000,-5.5625000000,239.3125000000,image497.jpg,99442.6693430000
4,50.8637028333,-0.0944255000,58.4000000000,-17.6250000000,-1.4375000000,238.8750000000,image498.jpg,99642.7597400000
4,50.8637018333,-0.0944210000,58.4000000000,-23.2500000000,-1.7500000000,234.6250000000,image499.jpg,99843.3524890000
4,50.8637011667,-0.0944166667,58.4000000000,-19.8750000000,-2.0000000000,234.8125000000,image500.jpg,100043.8238780000
4,50.8637001667,-0.0944123333,58.4000000000,-21.9375000000,-6.1250000000,237.3750000000,image501.jpg,100243.9166560000
4,50.8636993333,-0.0944073333,58.4000000000,-26.6875000000,-8.6875000000,244.3750000000,image502.jpg,100444.0774060000
4,50.8636983333,-0.0944025000,58.4000000000,-27.8125000000,-6.3750000000,248.1875000000,image503.jpg,100644.0103990000
4,50.8636976667,-0.0943976667,58.4000000000,-30.3750000000,-7.5000000000,249.3750000000,image504.jpg,100843.1309450000
4,50.8636966667,-0.0943935000,58.4000000000,-22.2500000000,-5.6250000000,242.6250000000,image505.jpg,101043.2282020000
4,50.8636960000,-0.0943893333,58.4000000000,-23.2500000000,-8.8750000000,242.2500000000,image506.jpg,101243.2909260000
4,50.8636951667,-0.0943843333,58.4000000000,-24.5625000000,-6.5625000000,242.7500000000,image507.jpg,101443.9964900000
4,50.8636945000,-0.0943791667,58.4000000000,-26.5625000000,-1.4375000000,243.6875000000,image508.jpg,101644.3832010000
4,50.8636936667,-0.0943745000,58.4000000000,-29.8750000000,-2.1875000000,243.1250000000,image509.jpg,101844.4050900000
4,50.8636926667,-0.0943698333,58.4000000000,-24.0625000000,-3.5625000000,240.0625000000,image510.jpg,102044.5270350000
4,50.8636915000,-0.0943643333,58.4000000000,-17.8750000000,-2.8750000000,237.6250000000,image511.jpg,102244.4645460000
4,50.8636901667,-0.0943585000,58.4000000000,-26.4375000000,-2.1875000000,236.6875000000,image512.jpg,102443.6802530000
4,50.8636891667,-0.0943520000,58.3000000000,-24.0625000000,1.1250000000,236.1875000000,image513.jpg,102643.7727860000
4,50.8636881667,-0.0943455000,58.4000000000,-22.3125000000,2.3125000000,231.6875000000,image514.jpg,102843.9813520000
4,50.8636871667,-0.0943396667,58.4000000000,-20.1250000000,2.3750000000,232.5625000000,image515.jpg,103044.5247760000
4,50.8636860000,-0.0943335000,58.4000000000,-34.4375000000,-0.8125000000,236.4375000000,image516.jpg,103243.9662250000
4,50.8636848333,-0.0943278333,58.4000000000,-33.9375000000,-2.1875000000,232.9375000000,image517.jpg,103444.0429630000
4,50.8636836667,-0.0943230000,58.4000000000,-35.4375000000,-9.9375000000,233.4375000000,image518.jpg,103644.0933090000
