speed,steering angle,gps quality,lat,lon,altitude,roll,pitch,yaw,image name,timestamp
0.0470588244,0.0000000000,5,50.8680441667,-0.0981958333,71.2000000000,8.6875000000,6.0625000000,0.0000000000,image0.jpg,103.9097920000
0.0313725509,0.0000000000,nan,nan,nan,nan,8.6875000000,6.0625000000,0.0000000000,image1.jpg,169.7502600000
0.0313725509,1.0000000000,5,50.8680441667,-0.0981960000,71.2000000000,8.6875000000,6.0625000000,0.0000000000,image2.jpg,238.0416670000
0.0392156877,2.0000000000,5,50.8680441667,-0.0981960000,71.2000000000,8.6875000000,6.0625000000,0.0000000000,image3.jpg,370.0883330000
-0.0549019612,0.0000000000,nan,nan,nan,nan,8.6875000000,6.0625000000,0.0000000000,image4.jpg,437.5670310000
0.0470588244,0.0000000000,5,50.8680441667,-0.0981960000,71.2000000000,8.6875000000,6.0625000000,0.0000000000,image5.jpg,502.9892190000
0.0549019612,0.0000000000,5,50.8680443333,-0.0981963333,71.2000000000,8.6875000000,6.0625000000,0.0000000000,image6.jpg,638.8309370000
-0.0392156877,1.0000000000,5,50.8680441667,-0.0981960000,71.2000000000,8.6875000000,6.0625000000,0.0000000000,image7.jpg,703.4868230000
0.0470588244,0.0000000000,5,50.8680441667,-0.0981960000,71.2000000000,8.6875000000,6.0625000000,0.0000000000,image8.jpg,836.1632290000
0.0470588244,0.0000000000,5,50.8680441667,-0.0981961667,71.2000000000,8.6875000000,6.0625000000,0.0000000000,image9.jpg,904.3034370000
0.0549019612,0.0000000000,5,50.8680441667,-0.0981961667,71.2000000000,8.6875000000,6.1250000000,0.0625000000,image10.jpg,1046.2641660000
0.0784313753,0.0000000000,5,50.8680441667,-0.0981960000,71.2000000000,8.6250000000,6.0625000000,0.0000000000,image11.jpg,1105.2956770000
0.0941176489,0.0000000000,5,50.8680441667,-0.0981960000,71.2000000000,8.6875000000,6.0625000000,0.0000000000,image12.jpg,1238.2333850000
0.0862745121,0.0000000000,5,50.8680441667,-0.0981960000,71.2000000000,8.6875000000,6.0625000000,0.0000000000,image13.jpg,1304.3134370000
0.1019607857,1.0000000000,5,50.8680443333,-0.0981960000,71.2000000000,8.6875000000,6.0625000000,0.0000000000,image14.jpg,1437.3506250000
0.1176470593,0.0000000000,5,50.8680443333,-0.0981961667,71.2000000000,8.6875000000,6.0625000000,0.0000000000,image15.jpg,1505.2433330000
0.1019607857,0.0000000000,5,50.8680443333,-0.0981960000,71.2000000000,8.6875000000,6.0625000000,0.0000000000,image16.jpg,1637.7214580000
0.1333333403,0.0000000000,5,50.8680441667,-0.0981960000,71.2000000000,8.6875000000,6.0625000000,0.0000000000,image17.jpg,1703.1206770000
0.1803921610,0.0000000000,5,50.8680443333,-0.0981960000,71.2000000000,8.6875000000,6.0625000000,0.0000000000,image18.jpg,1837.4452080000
0.1568627506,1.0000000000,5,50.8680441667,-0.0981960000,71.2000000000,8.7500000000,6.0625000000,0.0000000000,image19.jpg,1904.0271350000
0.2117647082,0.0000000000,5,50.8680441667,-0.0981960000,71.2000000000,8.7500000000,6.0625000000,0.0000000000,image20.jpg,2041.5624470000
0.2431372553,0.0000000000,5,50.8680443333,-0.0981960000,71.2000000000,8.7500000000,6.0000000000,0.0000000000,image21.jpg,2102.9961970000
0.2588235438,0.0000000000,5,50.8680443333,-0.0981960000,71.2000000000,8.8125000000,6.0625000000,359.9375000000,image22.jpg,2239.8976030000
0.4000000060,0.0000000000,5,50.8680441667,-0.0981960000,71.2000000000,9.2500000000,5.8750000000,359.7500000000,image23.jpg,2304.0670830000
0.4941176474,0.0000000000,5,50.8680441667,-0.0981960000,71.2000000000,9.5000000000,5.4375000000,359.8125000000,image24.jpg,2441.6126550000
0.4627451003,0.0000000000,5,50.8680440000,-0.0981960000,71.2000000000,9.5000000000,5.0000000000,359.8750000000,image25.jpg,2503.9876030000
0.4705882370,2.0000000000,5,50.8680440000,-0.0981961667,71.2000000000,9.8125000000,4.2500000000,0.0000000000,image26.jpg,2640.3851030000
0.4392156899,0.0000000000,5,50.8680438333,-0.0981963333,71.2000000000,9.6250000000,3.8125000000,359.8750000000,image27.jpg,2704.4185410000
0.5098039508,0.0000000000,5,50.8680438333,-0.0981963333,71.2000000000,9.5625000000,3.2500000000,359.8750000000,image28.jpg,2836.7338530000
0.5647059083,0.0000000000,5,50.8680436667,-0.0981963333,71.2000000000,9.6250000000,3.0000000000,359.8750000000,image29.jpg,2904.4336970000
0.5490196347,3.0000000000,5,50.8680436667,-0.0981963333,71.2000000000,9.5000000000,1.9375000000,359.8750000000,image30.jpg,3040.4912490000
0.5176470876,6.0000000000,2,50.8680435000,-0.0981963333,71.2000000000,9.5625000000,1.1250000000,359.8750000000,image31.jpg,3104.4120300000
0.5490196347,4.0000000000,2,50.8680431667,-0.0981966667,71.2000000000,11.5625000000,0.1875000000,359.8750000000,image32.jpg,3240.9697380000
0.5490196347,3.0000000000,2,50.8680430000,-0.0981968333,71.2000000000,12.3125000000,0.6875000000,359.9375000000,image33.jpg,3303.7317180000
0.5254902244,2.0000000000,2,50.8680426667,-0.0981970000,71.2000000000,14.7500000000,0.4375000000,0.0000000000,image34.jpg,3440.7342700000
0.5490196347,1.0000000000,2,50.8680423333,-0.0981975000,71.2000000000,15.1875000000,-0.1875000000,359.7500000000,image35.jpg,3503.2935400000
0.5490196347,1.0000000000,2,50.8680418333,-0.0981976667,71.2000000000,13.0625000000,-1.0000000000,359.4375000000,image36.jpg,3641.2637490000
0.5411764979,0.0000000000,2,50.8680416667,-0.0981980000,71.2000000000,13.0000000000,-1.8125000000,359.5000000000,image37.jpg,3703.3428110000
0.5254902244,3.0000000000,2,50.8680415000,-0.0981985000,71.3000000000,14.4375000000,-1.6250000000,359.4375000000,image38.jpg,3842.2113010000
0.4941176474,2.0000000000,2,50.8680411667,-0.0981988333,71.3000000000,16.2500000000,-1.8125000000,359.4375000000,image39.jpg,3909.5501030000
0.5411764979,3.0000000000,2,50.8680408333,-0.0981991667,71.2000000000,19.5625000000,-0.6250000000,359.3750000000,image40.jpg,4043.5335400000
0.5333333611,3.0000000000,2,50.8680408333,-0.0981991667,71.3000000000,19.8750000000,0.0625000000,358.8125000000,image41.jpg,4106.6285920000
0.6039215922,4.0000000000,2,50.8680403333,-0.0981986667,71.2000000000,21.4375000000,-0.3125000000,358.3125000000,image42.jpg,4240.9802070000
0.6039215922,7.0000000000,2,50.8680398333,-0.0981986667,71.2000000000,22.5625000000,-0.6250000000,357.7500000000,image43.jpg,4307.7677590000
0.5568627715,8.0000000000,2,50.8680395000,-0.0981988333,71.2000000000,21.8125000000,-0.6875000000,358.1250000000,image44.jpg,4440.9677590000
0.5568627715,10.0000000000,2,50.8680391667,-0.0981993333,71.2000000000,19.9375000000,-1.0000000000,359.2500000000,image45.jpg,4508.9878630000
0.4784313738,13.0000000000,2,50.8680388333,-0.0981996667,71.2000000000,18.1875000000,-3.3750000000,0.2500000000,image46.jpg,4640.6705710000
0.5568627715,11.0000000000,2,50.8680385000,-0.0982000000,71.2000000000,18.3750000000,-3.1875000000,359.6250000000,image47.jpg,4708.4522380000
0.5568627715,3.0000000000,2,50.8680381667,-0.0982005000,71.2000000000,18.1250000000,-0.8750000000,359.5625000000,image48.jpg,4840.2507790000
0.5568627715,1.0000000000,2,50.8680381667,-0.0982001667,71.2000000000,17.3125000000,-0.4375000000,0.2500000000,image49.jpg,4908.9166130000
0.5568627715,1.0000000000,2,50.8680380000,-0.0981998333,71.2000000000,17.8125000000,0.0625000000,1.0625000000,image50.jpg,5042.1212480000
0.5176470876,0.0000000000,2,50.8680378333,-0.0982001667,71.2000000000,17.9375000000,0.0000000000,1.1875000000,image51.jpg,5108.6838520000
0.5647059083,0.0000000000,2,50.8680375000,-0.0982003333,71.2000000000,17.6875000000,-0.1250000000,1.2500000000,image52.jpg,5239.9788520000
0.5803921819,0.0000000000,2,50.8680373333,-0.0982006667,71.2000000000,18.0000000000,-0.5000000000,1.1875000000,image53.jpg,5308.9005190000
0.5725490451,0.0000000000,2,50.8680370000,-0.0982011667,71.2000000000,17.1875000000,-2.5625000000,1.0000000000,image54.jpg,5442.0752060000
0.5725490451,1.0000000000,2,50.8680366667,-0.0982013333,71.3000000000,15.8750000000,-2.8750000000,0.1875000000,image55.jpg,5509.7159880000
0.5803921819,0.0000000000,2,50.8680361667,-0.0982020000,71.3000000000,14.7500000000,-2.1250000000,359.8750000000,image56.jpg,5640.6998940000
0.5960784554,0.0000000000,2,50.8680360000,-0.0982023333,71.3000000000,18.1250000000,-3.2500000000,359.2500000000,image57.jpg,5709.4655190000
0.5254902244,1.0000000000,2,50.8680355000,-0.0982020000,71.2000000000,20.0000000000,-5.8750000000,358.6250000000,image58.jpg,5839.9157790000
0.5803921819,0.0000000000,nan,nan,nan,nan,18.5000000000,-5.7500000000,358.6875000000,image59.jpg,5907.4880190000
0.5803921819,0.0000000000,5,50.8680351667,-0.0982051667,71.3000000000,16.6250000000,-6.2500000000,358.8125000000,image60.jpg,5976.2705190000
0.5882353187,0.0000000000,5,50.8680350000,-0.0982058333,71.3000000000,15.0625000000,-6.6250000000,359.0000000000,image61.jpg,6113.8096330000
0.5882353187,0.0000000000,5,50.8680346667,-0.0982065000,71.3000000000,14.1250000000,-6.1250000000,358.6875000000,image62.jpg,6176.0583310000
0.5333333611,1.0000000000,5,50.8680343333,-0.0982073333,71.3000000000,12.5000000000,-5.8750000000,356.9375000000,image63.jpg,6308.6310390000
0.5803921819,0.0000000000,2,50.8680341667,-0.0982076667,71.3000000000,10.6875000000,-6.7500000000,357.1250000000,image64.jpg,6375.9499980000
0.5803921819,4.0000000000,2,50.8680338333,-0.0982081667,71.3000000000,13.3750000000,-3.2500000000,358.7500000000,image65.jpg,6509.5621850000
0.5803921819,10.0000000000,2,50.8680336667,-0.0982076667,71.3000000000,15.8125000000,-3.7500000000,357.7500000000,image66.jpg,6575.9618730000
0.5725490451,19.0000000000,2,50.8680331667,-0.0982078333,71.3000000000,15.6875000000,-4.3750000000,356.6875000000,image67.jpg,6709.3079660000
0.5019608140,22.0000000000,2,50.8680328333,-0.0982085000,71.3000000000,13.2500000000,-3.8125000000,357.1875000000,image68.jpg,6777.2430180000
0.5725490451,21.0000000000,5,50.8680326667,-0.0982093333,71.3000000000,9.8125000000,-4.6875000000,359.4375000000,image69.jpg,6908.2871330000
0.5803921819,19.0000000000,5,50.8680326667,-0.0982100000,71.3000000000,10.5625000000,-5.0000000000,1.2500000000,image70.jpg,6975.0672370000
0.5803921819,20.0000000000,5,50.8680320000,-0.0982106667,71.2000000000,10.5625000000,-3.1250000000,2.6250000000,image71.jpg,7107.6550490000
0.5803921819,23.0000000000,5,50.8680316667,-0.0982110000,71.2000000000,10.1250000000,-3.5000000000,2.8125000000,image72.jpg,7175.1816640000
0.5647059083,22.0000000000,5,50.8680316667,-0.0982115000,71.2000000000,9.2500000000,-3.1875000000,4.5625000000,image73.jpg,7308.8500490000
0.5803921819,23.0000000000,5,50.8680316667,-0.0982116667,71.2000000000,10.0625000000,-3.0000000000,5.3750000000,image74.jpg,7375.1857790000
0.5254902244,35.0000000000,5,50.8680313333,-0.0982118333,71.2000000000,13.4375000000,-2.0625000000,6.8750000000,image75.jpg,7509.1712990000
0.5647059083,33.0000000000,5,50.8680310000,-0.0982120000,71.2000000000,14.6875000000,-2.9375000000,7.6250000000,image76.jpg,7576.2428620000
0.5647059083,34.0000000000,5,50.8680308333,-0.0982128333,71.2000000000,10.6875000000,-2.4375000000,8.4375000000,image77.jpg,7707.8961950000
0.5333333611,33.0000000000,5,50.8680308333,-0.0982140000,71.2000000000,11.5000000000,-0.6875000000,10.6875000000,image78.jpg,7776.8999970000
0.5568627715,33.0000000000,5,50.8680306667,-0.0982141667,71.2000000000,11.6250000000,-0.6875000000,12.2500000000,image79.jpg,7907.4809870000
0.5254902244,33.0000000000,5,50.8680305000,-0.0982146667,71.2000000000,11.1250000000,-0.7500000000,11.3750000000,image80.jpg,7976.6744760000
0.5254902244,34.0000000000,5,50.8680305000,-0.0982148333,71.2000000000,11.6250000000,-0.4375000000,12.3125000000,image81.jpg,8107.6562470000
0.5882353187,33.0000000000,5,50.8680303333,-0.0982150000,71.2000000000,11.8125000000,-0.3125000000,13.3125000000,image82.jpg,8176.6837470000
0.6352941394,33.0000000000,5,50.8680303333,-0.0982156667,71.2000000000,12.4375000000,-0.5625000000,14.9375000000,image83.jpg,8307.5296840000
0.6509804130,34.0000000000,5,50.8680303333,-0.0982161667,71.2000000000,12.0000000000,-1.2500000000,16.3750000000,image84.jpg,8377.2891110000
0.6509804130,33.0000000000,5,50.8680301667,-0.0982168333,71.2000000000,11.9375000000,-3.3750000000,19.6875000000,image85.jpg,8512.1095280000
0.5960784554,34.0000000000,5,50.8680298333,-0.0982173333,71.3000000000,10.3750000000,-3.3750000000,20.5000000000,image86.jpg,8575.2067160000
0.6352941394,34.0000000000,5,50.8680300000,-0.0982176667,71.3000000000,11.2500000000,-0.5000000000,23.8125000000,image87.jpg,8712.5173410000
0.6431372762,33.0000000000,2,50.8680300000,-0.0982178333,71.3000000000,12.8125000000,0.5625000000,25.0000000000,image88.jpg,8776.3089550000
0.6431372762,34.0000000000,5,50.8680298333,-0.0982185000,71.3000000000,11.9375000000,-1.9375000000,27.3125000000,image89.jpg,8914.3556740000
0.6509804130,35.0000000000,5,50.8680296667,-0.0982193333,71.2000000000,9.3125000000,-2.6250000000,28.9375000000,image90.jpg,8976.4109860000
0.6666666865,33.0000000000,5,50.8680300000,-0.0982200000,71.2000000000,9.0000000000,-0.5000000000,32.1875000000,image91.jpg,9111.9826530000
0.6509804130,34.0000000000,5,50.8680298333,-0.0982203333,71.2000000000,9.7500000000,-0.1875000000,33.9375000000,image92.jpg,9175.7816110000
0.6196078658,34.0000000000,5,50.8680293333,-0.0982210000,71.2000000000,9.0625000000,0.7500000000,36.1250000000,image93.jpg,9312.3026530000
0.6509804130,34.0000000000,5,50.8680295000,-0.0982213333,71.2000000000,7.9375000000,0.9375000000,37.3750000000,image94.jpg,9376.6974970000
0.6196078658,33.0000000000,2,50.8680295000,-0.0982218333,71.2000000000,9.6250000000,1.2500000000,40.5000000000,image95.jpg,9513.2589030000
0.6509804130,34.0000000000,2,50.8680293333,-0.0982225000,71.2000000000,10.5625000000,1.3750000000,41.2500000000,image96.jpg,9580.2541630000
0.6509804130,35.0000000000,2,50.8680291667,-0.0982231667,71.2000000000,12.4375000000,2.0625000000,44.5000000000,image97.jpg,9712.3697360000
0.6196078658,34.0000000000,2,50.8680293333,-0.0982238333,71.2000000000,10.6250000000,2.8125000000,44.6875000000,image98.jpg,9780.3846320000
0.6509804130,35.0000000000,5,50.8680295000,-0.0982243333,71.2000000000,9.3125000000,4.0625000000,48.8125000000,image99.jpg,9911.7767670000
0.6509804130,33.0000000000,5,50.8680295000,-0.0982248333,71.2000000000,11.1875000000,2.7500000000,49.6250000000,image100.jpg,9981.0458300000
0.6588235497,34.0000000000,5,50.8680293333,-0.0982255000,71.2000000000,9.3750000000,1.9375000000,51.6875000000,image101.jpg,10112.2917670000
0.6588235497,35.0000000000,5,50.8680295000,-0.0982261667,71.2000000000,9.5625000000,2.3750000000,53.4375000000,image102.jpg,10179.2481210000
0.6588235497,34.0000000000,5,50.8680296667,-0.0982266667,71.2000000000,9.0000000000,1.6250000000,56.4375000000,image103.jpg,10313.3300480000
0.6588235497,34.0000000000,5,50.8680296667,-0.0982271667,71.2000000000,8.2500000000,2.1250000000,57.9375000000,image104.jpg,10379.3208290000
0.5725490451,34.0000000000,5,50.8680298333,-0.0982278333,71.2000000000,9.3750000000,1.8125000000,61.8750000000,image105.jpg,10514.2254130000
0.6588235497,34.0000000000,2,50.8680300000,-0.0982286667,71.2000000000,8.3750000000,1.5625000000,63.8125000000,image106.jpg,10579.3163500000
0.6196078658,34.0000000000,2,50.8680300000,-0.0982293333,71.2000000000,8.6250000000,0.3750000000,66.3750000000,image107.jpg,10715.0588500000
0.6666666865,33.0000000000,2,50.8680301667,-0.0982298333,71.2000000000,7.8750000000,-0.5625000000,67.5625000000,image108.jpg,10780.4126000000
0.6588235497,23.0000000000,5,50.8680303333,-0.0982305000,71.2000000000,5.7500000000,-0.8125000000,70.6250000000,image109.jpg,10913.2245270000
0.6039215922,14.0000000000,2,50.8680305000,-0.0982313333,71.2000000000,4.6875000000,0.3125000000,72.1250000000,image110.jpg,10979.4075480000
0.6588235497,10.0000000000,2,50.8680306667,-0.0982316667,71.2000000000,7.5000000000,0.2500000000,75.6250000000,image111.jpg,11118.5500480000
0.6588235497,8.0000000000,2,50.8680306667,-0.0982321667,71.2000000000,8.1250000000,-0.5625000000,75.5000000000,image112.jpg,11182.1170790000
0.6745098233,10.0000000000,2,50.8680310000,-0.0982328333,71.2000000000,3.3750000000,-0.4375000000,74.9375000000,image113.jpg,11316.9352560000
0.6588235497,10.0000000000,2,50.8680313333,-0.0982335000,71.2000000000,2.8750000000,0.2500000000,75.8125000000,image114.jpg,11379.8642670000
0.6588235497,4.0000000000,2,50.8680318333,-0.0982341667,71.2000000000,3.7500000000,-2.0000000000,76.4375000000,image115.jpg,11512.9952560000
0.6588235497,1.0000000000,2,50.8680320000,-0.0982348333,71.2000000000,2.4375000000,-1.3750000000,76.8125000000,image116.jpg,11581.6260370000
0.6039215922,1.0000000000,2,50.8680321667,-0.0982348333,71.2000000000,4.3750000000,0.0000000000,77.9375000000,image117.jpg,11714.5799440000
0.6509804130,0.0000000000,2,50.8680323333,-0.0982355000,71.2000000000,7.2500000000,-1.8750000000,78.0000000000,image118.jpg,11780.5810370000
0.6039215922,0.0000000000,2,50.8680325000,-0.0982366667,71.2000000000,3.2500000000,-1.0625000000,74.8750000000,image119.jpg,11915.0152560000
0.6509804130,0.0000000000,2,50.8680330000,-0.0982371667,71.1000000000,2.8750000000,-1.8125000000,75.0625000000,image120.jpg,11980.5522870000
0.6509804130,1.0000000000,2,50.8680331667,-0.0982378333,71.1000000000,5.6250000000,-4.6875000000,73.9375000000,image121.jpg,12114.7182250000
0.5960784554,2.0000000000,2,50.8680335000,-0.0982388333,71.1000000000,2.5000000000,-5.0625000000,74.1250000000,image122.jpg,12180.3849950000
0.6509804130,2.0000000000,2,50.8680340000,-0.0982393333,71.1000000000,-3.1250000000,-0.4375000000,74.6875000000,image123.jpg,12319.0391100000
0.6509804130,2.0000000000,2,50.8680338333,-0.0982401667,71.1000000000,-2.8750000000,0.2500000000,74.7500000000,image124.jpg,12381.7136410000
0.6509804130,6.0000000000,2,50.8680340000,-0.0982406667,71.1000000000,-0.6250000000,0.1875000000,74.9375000000,image125.jpg,12516.7671310000
0.6509804130,7.0000000000,2,50.8680345000,-0.0982411667,71.1000000000,1.5000000000,2.6875000000,75.0625000000,image126.jpg,12581.3792140000
0.6509804130,18.0000000000,2,50.8680346667,-0.0982418333,71.1000000000,1.5625000000,4.7500000000,73.5000000000,image127.jpg,12718.8409850000
0.6509804130,26.0000000000,2,50.8680350000,-0.0982426667,71.1000000000,-0.8125000000,6.4375000000,74.0625000000,image128.jpg,12780.9787970000
0.6509804130,35.0000000000,5,50.8680351667,-0.0982431667,71.2000000000,-1.9375000000,6.8750000000,74.5000000000,image129.jpg,12919.3164010000
0.6666666865,33.0000000000,5,50.8680355000,-0.0982438333,71.2000000000,-2.2500000000,5.8125000000,76.4375000000,image130.jpg,12982.2819740000
0.5647059083,33.0000000000,5,50.8680358333,-0.0982445000,71.2000000000,-1.6875000000,8.2500000000,79.1250000000,image131.jpg,13117.0778080000
0.6509804130,34.0000000000,5,50.8680358333,-0.0982448333,71.2000000000,0.5625000000,9.0000000000,80.1250000000,image132.jpg,13180.7211410000
0.6588235497,34.0000000000,2,50.8680358333,-0.0982455000,71.2000000000,6.9375000000,9.8750000000,84.6250000000,image133.jpg,13320.7492140000
0.6274510026,35.0000000000,2,50.8680360000,-0.0982460000,71.2000000000,9.3750000000,10.2500000000,85.6250000000,image134.jpg,13380.2811410000
0.6823529601,34.0000000000,2,50.8680361667,-0.0982466667,71.2000000000,8.3125000000,10.4375000000,87.8125000000,image135.jpg,13522.4982240000
0.6980392337,33.0000000000,2,50.8680365000,-0.0982466667,71.2000000000,5.6250000000,9.6250000000,87.9375000000,image136.jpg,13582.0241090000
0.6823529601,34.0000000000,2,50.8680370000,-0.0982468333,71.3000000000,-0.4375000000,8.8125000000,90.3125000000,image137.jpg,13720.4810890000
0.7215686440,33.0000000000,2,50.8680371667,-0.0982471667,71.2000000000,-1.9375000000,8.0625000000,92.7500000000,image138.jpg,13785.1479640000
0.7294117808,33.0000000000,5,50.8680376667,-0.0982476667,71.2000000000,3.0625000000,6.4375000000,96.0625000000,image139.jpg,13916.3369220000
0.7294117808,34.0000000000,5,50.8680376667,-0.0982480000,71.2000000000,3.5000000000,7.0000000000,97.8125000000,image140.jpg,13985.6129630000
0.6980392337,34.0000000000,2,50.8680380000,-0.0982486667,71.2000000000,3.5625000000,7.5000000000,101.5000000000,image141.jpg,14118.7308800000
0.6980392337,33.0000000000,2,50.8680383333,-0.0982488333,71.2000000000,3.6250000000,6.0000000000,102.8750000000,image142.jpg,14185.6202550000
0.6980392337,34.0000000000,2,50.8680386667,-0.0982491667,71.2000000000,6.3125000000,4.8750000000,105.2500000000,image143.jpg,14318.5881720000
0.7372549176,33.0000000000,2,50.8680388333,-0.0982498333,71.3000000000,6.9375000000,4.4375000000,106.3125000000,image144.jpg,14385.4487970000
0.7372549176,34.0000000000,2,50.8680393333,-0.0982501667,71.2000000000,4.1875000000,5.8750000000,109.3750000000,image145.jpg,14518.9807240000
0.7215686440,34.0000000000,2,50.8680400000,-0.0982503333,71.3000000000,2.6250000000,4.2500000000,112.8125000000,image146.jpg,14583.9718170000
0.7372549176,34.0000000000,2,50.8680405000,-0.0982510000,71.3000000000,3.2500000000,1.5000000000,116.5625000000,image147.jpg,14717.2810880000
0.7372549176,34.0000000000,2,50.8680410000,-0.0982513333,71.3000000000,1.0000000000,-0.6250000000,120.0000000000,image148.jpg,14784.4582760000
0.6980392337,34.0000000000,5,50.8680416667,-0.0982510000,71.2000000000,2.3750000000,0.3125000000,125.4375000000,image149.jpg,14917.8434320000
0.7372549176,34.0000000000,5,50.8680420000,-0.0982513333,71.2000000000,4.3750000000,0.3750000000,126.5000000000,image150.jpg,14984.2839010000
0.7372549176,14.0000000000,5,50.8680423333,-0.0982515000,71.3000000000,4.1250000000,1.3750000000,130.3125000000,image151.jpg,15117.5091610000
0.7294117808,7.0000000000,5,50.8680428333,-0.0982516667,71.3000000000,3.8125000000,2.1875000000,131.9375000000,image152.jpg,15184.4272340000
0.7372549176,2.0000000000,5,50.8680431667,-0.0982515000,71.3000000000,2.0625000000,2.3750000000,135.5625000000,image153.jpg,15317.4766090000
0.6980392337,0.0000000000,5,50.8680436667,-0.0982511667,71.3000000000,3.2500000000,2.5000000000,135.7500000000,image154.jpg,15384.2340570000
0.7294117808,0.0000000000,5,50.8680441667,-0.0982513333,71.3000000000,-4.9375000000,4.6875000000,134.0000000000,image155.jpg,15516.0628590000
0.7372549176,0.0000000000,2,50.8680450000,-0.0982510000,71.2000000000,-7.6250000000,3.3750000000,134.6875000000,image156.jpg,15585.4354110000
0.7372549176,0.0000000000,2,50.8680456667,-0.0982515000,71.3000000000,-8.3125000000,1.6250000000,135.0625000000,image157.jpg,15721.9668690000
0.7294117808,2.0000000000,2,50.8680460000,-0.0982510000,71.3000000000,-8.6875000000,1.5625000000,134.6250000000,image158.jpg,15785.0106190000
0.7294117808,0.0000000000,5,50.8680468333,-0.0982511667,71.3000000000,-4.8750000000,3.7500000000,134.6875000000,image159.jpg,15917.3478070000
0.7372549176,0.0000000000,5,50.8680471667,-0.0982515000,71.3000000000,-4.2500000000,3.3750000000,134.1250000000,image160.jpg,15984.6784310000
0.6980392337,0.0000000000,5,50.8680475000,-0.0982515000,71.3000000000,-7.1250000000,6.6875000000,133.3750000000,image161.jpg,16116.0132230000
0.7294117808,0.0000000000,5,50.8680481667,-0.0982511667,71.3000000000,-8.8125000000,10.6875000000,133.4375000000,image162.jpg,16183.6312960000
0.7372549176,2.0000000000,5,50.8680485000,-0.0982508333,71.3000000000,-5.6250000000,11.0000000000,134.6875000000,image163.jpg,16317.5055670000
0.7294117808,3.0000000000,5,50.8680490000,-0.0982510000,71.3000000000,-2.9375000000,8.4375000000,134.8125000000,image164.jpg,16384.4529630000
0.7372549176,15.0000000000,2,50.8680496667,-0.0982511667,71.3000000000,-2.1875000000,7.9375000000,134.5000000000,image165.jpg,16521.7534310000
0.6823529601,16.0000000000,2,50.8680501667,-0.0982511667,71.3000000000,-2.0000000000,8.8125000000,134.8125000000,image166.jpg,16583.1756190000
0.7372549176,3.0000000000,2,50.8680506667,-0.0982513333,71.3000000000,-2.1875000000,7.8125000000,135.6250000000,image167.jpg,16721.8919210000
0.7372549176,-1.0000000000,2,50.8680510000,-0.0982515000,71.3000000000,-2.5000000000,7.4375000000,136.1875000000,image168.jpg,16783.7698370000
0.7450980544,-7.0000000000,5,50.8680515000,-0.0982515000,71.3000000000,0.0000000000,6.5625000000,136.9375000000,image169.jpg,16921.6102540000
0.7294117808,-6.0000000000,5,50.8680523333,-0.0982516667,71.3000000000,1.0625000000,6.1875000000,136.6875000000,image170.jpg,16984.6344730000
0.7372549176,-6.0000000000,5,50.8680528333,-0.0982520000,71.3000000000,1.6875000000,4.5000000000,134.9375000000,image171.jpg,17121.2691080000
0.7372549176,-6.0000000000,5,50.8680535000,-0.0982523333,71.3000000000,-1.8750000000,3.3125000000,133.6875000000,image172.jpg,17184.4454620000
0.6745098233,-2.0000000000,2,50.8680541667,-0.0982525000,71.3000000000,-4.5000000000,4.1250000000,133.1875000000,image173.jpg,17321.6526500000
0.7372549176,-4.0000000000,2,50.8680545000,-0.0982523333,71.3000000000,-0.5625000000,2.4375000000,133.5625000000,image174.jpg,17385.0953060000
0.7450980544,-12.0000000000,2,50.8680551667,-0.0982528333,71.3000000000,3.1250000000,1.9375000000,132.2500000000,image175.jpg,17520.7380140000
0.7372549176,-12.0000000000,2,50.8680560000,-0.0982535000,71.3000000000,2.6250000000,2.5625000000,132.8125000000,image176.jpg,17584.8292120000
0.7372549176,-14.0000000000,2,50.8680565000,-0.0982536667,71.3000000000,-1.4375000000,3.5625000000,127.5000000000,image177.jpg,17720.9753060000
0.6823529601,-10.0000000000,2,50.8680575000,-0.0982535000,71.3000000000,-0.4375000000,3.8750000000,128.3750000000,image178.jpg,17788.6571290000
0.7372549176,-5.0000000000,5,50.8680573333,-0.0982538333,71.3000000000,4.3125000000,3.6875000000,128.3125000000,image179.jpg,17920.6707740000
0.7372549176,-7.0000000000,5,50.8680580000,-0.0982541667,71.3000000000,4.1875000000,3.3125000000,127.1875000000,image180.jpg,17990.4298370000
0.7372549176,-7.0000000000,5,50.8680588333,-0.0982546667,71.3000000000,1.5625000000,3.2500000000,126.4375000000,image181.jpg,18120.0217640000
0.7372549176,-7.0000000000,5,50.8680593333,-0.0982546667,71.3000000000,-1.5000000000,5.8750000000,125.2500000000,image182.jpg,18188.0360350000
0.7294117808,-7.0000000000,5,50.8680598333,-0.0982545000,71.3000000000,-2.5625000000,3.8750000000,125.3750000000,image183.jpg,18321.3166600000
0.7294117808,-6.0000000000,5,50.8680603333,-0.0982548333,71.3000000000,0.5625000000,3.1250000000,124.5625000000,image184.jpg,18389.3044720000
0.6431372762,-3.0000000000,5,50.8680610000,-0.0982558333,71.3000000000,4.5000000000,4.5000000000,121.4375000000,image185.jpg,18520.1698890000
0.7372549176,-4.0000000000,2,50.8680615000,-0.0982558333,71.3000000000,3.0000000000,5.3750000000,120.5625000000,image186.jpg,18587.0494720000
0.7372549176,-4.0000000000,2,50.8680621667,-0.0982558333,71.3000000000,-1.5000000000,2.8750000000,118.5625000000,image187.jpg,18721.0877010000
0.7372549176,-4.0000000000,2,50.8680626667,-0.0982565000,71.3000000000,-4.0625000000,3.2500000000,118.3750000000,image188.jpg,18787.1725970000
0.7294117808,-7.0000000000,5,50.8680631667,-0.0982566667,71.3000000000,-4.9375000000,6.0000000000,120.1250000000,image189.jpg,18921.0821280000
0.6431372762,-8.0000000000,5,50.8680633333,-0.0982566667,71.3000000000,-0.7500000000,7.1250000000,120.2500000000,image190.jpg,18987.4728050000
0.7294117808,-14.0000000000,5,50.8680635000,-0.0982576667,71.3000000000,2.2500000000,5.4375000000,118.5000000000,image191.jpg,19121.4794200000
0.7372549176,-15.0000000000,5,50.8680641667,-0.0982581667,71.3000000000,-1.5625000000,4.6875000000,118.6250000000,image192.jpg,19188.7030660000
0.7372549176,-14.0000000000,5,50.8680650000,-0.0982580000,71.3000000000,-5.0625000000,4.7500000000,116.7500000000,image193.jpg,19325.4122840000
0.7372549176,-14.0000000000,5,50.8680655000,-0.0982583333,71.3000000000,-4.7500000000,2.9375000000,114.3125000000,image194.jpg,19387.2972840000
0.7372549176,-14.0000000000,5,50.8680663333,-0.0982591667,71.3000000000,-4.4375000000,1.4375000000,114.6250000000,image195.jpg,19520.9192630000
0.6980392337,-13.0000000000,5,50.8680665000,-0.0982596667,71.3000000000,-1.4375000000,2.1250000000,114.1250000000,image196.jpg,19587.2118160000
0.7137255073,-17.0000000000,5,50.8680666667,-0.0982601667,71.3000000000,-3.5625000000,5.0625000000,109.8125000000,image197.jpg,19721.7238990000
0.7294117808,-18.0000000000,5,50.8680675000,-0.0982601667,71.2000000000,-5.6250000000,3.3750000000,109.2500000000,image198.jpg,19787.1672840000
0.7372549176,-7.0000000000,5,50.8680680000,-0.0982608333,71.2000000000,-5.1875000000,7.8125000000,106.1875000000,image199.jpg,19925.0885340000
0.7372549176,2.0000000000,5,50.8680683333,-0.0982611667,71.3000000000,-7.1875000000,7.6250000000,106.0000000000,image200.jpg,19988.0288470000
0.7372549176,15.0000000000,5,50.8680686667,-0.0982610000,71.3000000000,-1.5625000000,4.2500000000,105.0000000000,image201.jpg,20125.1882740000
0.6980392337,17.0000000000,5,50.8680688333,-0.0982616667,71.3000000000,-1.2500000000,4.6250000000,104.8750000000,image202.jpg,20187.1460860000
0.7372549176,22.0000000000,2,50.8680691667,-0.0982620000,71.3000000000,-1.6875000000,3.8750000000,107.2500000000,image203.jpg,20321.7604090000
0.7372549176,20.0000000000,2,50.8680696667,-0.0982623333,71.3000000000,0.3125000000,3.4375000000,109.3750000000,image204.jpg,20387.3027530000
0.6980392337,8.0000000000,2,50.8680700000,-0.0982631667,71.3000000000,-0.8750000000,3.9375000000,108.9375000000,image205.jpg,20525.8508260000
0.7372549176,2.0000000000,2,50.8680705000,-0.0982631667,71.3000000000,-2.0000000000,4.8125000000,110.3750000000,image206.jpg,20587.8497840000
0.7372549176,4.0000000000,2,50.8680705000,-0.0982635000,71.4000000000,1.6875000000,4.4375000000,111.1250000000,image207.jpg,20726.3410860000
0.6980392337,7.0000000000,2,50.8680710000,-0.0982643333,71.4000000000,0.8750000000,4.1875000000,111.0625000000,image208.jpg,20787.4310860000
0.7372549176,18.0000000000,5,50.8680715000,-0.0982643333,71.4000000000,-0.6250000000,6.5000000000,111.7500000000,image209.jpg,20925.6534300000
0.7372549176,18.0000000000,5,50.8680723333,-0.0982650000,71.4000000000,0.0000000000,5.4375000000,112.0000000000,image210.jpg,20987.4818670000
0.7372549176,19.0000000000,5,50.8680728333,-0.0982656667,71.4000000000,3.1250000000,4.6250000000,113.1875000000,image211.jpg,21127.0654610000
0.7372549176,21.0000000000,5,50.8680731667,-0.0982653333,71.4000000000,4.6875000000,5.5625000000,114.6250000000,image212.jpg,21188.0932210000
0.7372549176,19.0000000000,5,50.8680736667,-0.0982660000,71.3000000000,6.6875000000,6.0000000000,115.8750000000,image213.jpg,21324.0174400000
0.7450980544,18.0000000000,5,50.8680741667,-0.0982663333,71.4000000000,4.9375000000,4.4375000000,117.3750000000,image214.jpg,21387.1827520000
0.7372549176,8.0000000000,5,50.8680750000,-0.0982663333,71.4000000000,4.7500000000,6.2500000000,120.3125000000,image215.jpg,21524.7957730000
0.7372549176,4.0000000000,5,50.8680753333,-0.0982666667,71.4000000000,5.1875000000,4.5625000000,121.4375000000,image216.jpg,21587.7437940000
0.6980392337,6.0000000000,2,50.8680758333,-0.0982671667,71.4000000000,2.4375000000,3.1875000000,122.9375000000,image217.jpg,21724.6108250000
0.7372549176,11.0000000000,2,50.8680765000,-0.0982673333,71.4000000000,4.5625000000,3.0000000000,123.5000000000,image218.jpg,21791.4194710000
0.7372549176,3.0000000000,5,50.8680770000,-0.0982678333,71.4000000000,3.6875000000,3.0000000000,122.5625000000,image219.jpg,21925.5303040000
0.7137255073,2.0000000000,5,50.8680775000,-0.0982676667,71.4000000000,3.2500000000,2.8125000000,123.3125000000,image220.jpg,21991.9610330000
0.7372549176,2.0000000000,5,50.8680781667,-0.0982681667,71.4000000000,2.1250000000,2.2500000000,124.0625000000,image221.jpg,22126.6917100000
0.7372549176,1.0000000000,5,50.8680786667,-0.0982683333,71.4000000000,-0.0625000000,4.0000000000,123.7500000000,image222.jpg,22191.2892620000
0.7372549176,0.0000000000,5,50.8680793333,-0.0982685000,71.4000000000,1.5625000000,4.4375000000,124.4375000000,image223.jpg,22326.9477520000
0.7372549176,1.0000000000,5,50.8680798333,-0.0982688333,71.4000000000,2.7500000000,6.6250000000,124.3125000000,image224.jpg,22391.1805120000
0.7372549176,0.0000000000,5,50.8680801667,-0.0982691667,71.4000000000,-2.5000000000,5.0000000000,124.6250000000,image225.jpg,22526.4765020000
0.7372549176,1.0000000000,5,50.8680806667,-0.0982690000,71.4000000000,-2.9375000000,4.3125000000,125.0000000000,image226.jpg,22591.8441060000
0.7372549176,1.0000000000,5,50.8680813333,-0.0982691667,71.4000000000,-0.1875000000,6.6875000000,124.6875000000,image227.jpg,22726.4577000000
0.7372549176,1.0000000000,5,50.8680818333,-0.0982696667,71.4000000000,-1.4375000000,5.9375000000,124.8750000000,image228.jpg,22791.5665540000
0.6823529601,1.0000000000,5,50.8680825000,-0.0982700000,71.4000000000,0.1875000000,3.8125000000,125.0000000000,image229.jpg,22925.2012930000
0.7372549176,0.0000000000,5,50.8680830000,-0.0982701667,71.4000000000,-0.1250000000,4.4375000000,124.6250000000,image230.jpg,22992.3358250000
0.7372549176,0.0000000000,5,50.8680835000,-0.0982703333,71.4000000000,-7.3750000000,7.8125000000,125.0625000000,image231.jpg,23125.1998350000
0.6823529601,1.0000000000,5,50.8680840000,-0.0982703333,71.4000000000,-7.1875000000,6.6250000000,125.3125000000,image232.jpg,23193.4715020000
0.7372549176,1.0000000000,5,50.8680845000,-0.0982708333,71.4000000000,-1.2500000000,3.5625000000,124.7500000000,image233.jpg,23324.8409290000
0.7372549176,0.0000000000,5,50.8680851667,-0.0982711667,71.4000000000,-1.5625000000,3.7500000000,124.3750000000,image234.jpg,23392.1606680000
0.7372549176,-1.0000000000,5,50.8680858333,-0.0982713333,71.4000000000,0.3125000000,5.3750000000,124.2500000000,image235.jpg,23525.5023870000
0.7372549176,0.0000000000,5,50.8680858333,-0.0982716667,71.5000000000,1.4375000000,4.4375000000,124.2500000000,image236.jpg,23593.2378040000
0.7372549176,-4.0000000000,2,50.8680863333,-0.0982720000,71.5000000000,-0.6875000000,5.1250000000,123.0625000000,image237.jpg,23725.8868140000
0.7372549176,-4.0000000000,2,50.8680868333,-0.0982721667,71.5000000000,-1.1250000000,6.1250000000,123.1250000000,image238.jpg,23793.1792100000
0.7372549176,-1.0000000000,5,50.8680875000,-0.0982723333,71.5000000000,-0.7500000000,6.9375000000,122.5625000000,image239.jpg,23926.0232720000
0.7372549176,0.0000000000,5,50.8680880000,-0.0982728333,71.5000000000,-0.0625000000,6.4375000000,122.2500000000,image240.jpg,23993.0173870000
0.6823529601,0.0000000000,5,50.8680888333,-0.0982730000,71.5000000000,2.7500000000,5.1250000000,122.3125000000,image241.jpg,24126.6091050000
0.7450980544,0.0000000000,5,50.8680890000,-0.0982731667,71.5000000000,3.4375000000,5.9375000000,121.6875000000,image242.jpg,24191.3985850000
0.7294117808,-1.0000000000,5,50.8680898333,-0.0982736667,71.5000000000,1.5625000000,6.5000000000,121.5000000000,image243.jpg,24326.2210320000
0.6431372762,0.0000000000,5,50.8680901667,-0.0982741667,71.5000000000,-1.4375000000,7.4375000000,120.6875000000,image244.jpg,24391.3555640000
0.7294117808,-2.0000000000,5,50.8680908333,-0.0982740000,71.5000000000,0.0625000000,5.3125000000,120.9375000000,image245.jpg,24530.9174910000
0.7215686440,-5.0000000000,5,50.8680915000,-0.0982741667,71.5000000000,1.6250000000,6.6250000000,121.0625000000,image246.jpg,24592.3107200000
0.7294117808,-11.0000000000,5,50.8680918333,-0.0982746667,71.5000000000,0.1875000000,6.8750000000,120.6875000000,image247.jpg,24729.4111360000
0.7294117808,-11.0000000000,5,50.8680925000,-0.0982746667,71.5000000000,0.6875000000,5.5000000000,120.4375000000,image248.jpg,24795.2005640000
0.7294117808,-13.0000000000,5,50.8680930000,-0.0982750000,71.5000000000,0.5000000000,8.8125000000,117.8125000000,image249.jpg,24930.7520220000
0.7372549176,-17.0000000000,5,50.8680935000,-0.0982753333,71.5000000000,-1.1250000000,8.4375000000,117.3125000000,image250.jpg,24993.1945740000
0.7294117808,-18.0000000000,5,50.8680940000,-0.0982755000,71.5000000000,-0.2500000000,7.7500000000,116.7500000000,image251.jpg,25128.6248860000
0.7294117808,-21.0000000000,5,50.8680943333,-0.0982760000,71.5000000000,0.4375000000,6.8125000000,115.5625000000,image252.jpg,25195.8349380000
0.7058823705,-22.0000000000,5,50.8680948333,-0.0982760000,71.5000000000,-2.9375000000,7.6250000000,113.3750000000,image253.jpg,25329.5360840000
0.7372549176,-22.0000000000,5,50.8680953333,-0.0982760000,71.5000000000,-3.5000000000,8.4375000000,111.6875000000,image254.jpg,25392.4836880000
0.7450980544,-22.0000000000,5,50.8680960000,-0.0982761667,71.5000000000,-0.5625000000,6.3125000000,110.3750000000,image255.jpg,25528.9619700000
0.7137255073,-22.0000000000,5,50.8680963333,-0.0982766667,71.5000000000,1.8125000000,5.0000000000,109.0625000000,image256.jpg,25596.3947300000
0.7372549176,-34.0000000000,5,50.8680966667,-0.0982775000,71.5000000000,4.4375000000,7.4375000000,105.0625000000,image257.jpg,25729.6061880000
0.7450980544,-35.0000000000,5,50.8680966667,-0.0982778333,71.5000000000,3.6250000000,6.6250000000,104.0625000000,image258.jpg,25796.2955630000
0.7058823705,-35.0000000000,5,50.8680971667,-0.0982785000,71.5000000000,2.9375000000,5.9375000000,100.9375000000,image259.jpg,25929.1584280000
0.7372549176,-35.0000000000,5,50.8680976667,-0.0982790000,71.5000000000,0.8125000000,5.6250000000,98.3750000000,image260.jpg,25996.6133760000
0.7372549176,-35.0000000000,5,50.8680980000,-0.0982798333,71.5000000000,-0.9375000000,7.7500000000,96.2500000000,image261.jpg,26130.2082710000
0.7372549176,-35.0000000000,5,50.8680983333,-0.0982800000,71.5000000000,-2.8750000000,8.1250000000,92.9375000000,image262.jpg,26195.5441570000
0.7607843280,-28.0000000000,5,50.8680986667,-0.0982805000,71.5000000000,-4.0625000000,7.9375000000,91.6250000000,image263.jpg,26328.2902500000
0.7294117808,-34.0000000000,5,50.8680986667,-0.0982806667,71.5000000000,-2.6250000000,6.7500000000,89.1875000000,image264.jpg,26395.4987400000
0.7215686440,-34.0000000000,5,50.8680988333,-0.0982813333,71.5000000000,-0.7500000000,6.1250000000,86.5000000000,image265.jpg,26528.0983230000
0.7529411912,-33.0000000000,5,50.8680991667,-0.0982823333,71.5000000000,-1.1250000000,6.5000000000,84.5625000000,image266.jpg,26596.0272820000
0.7529411912,-4.0000000000,5,50.8680996667,-0.0982830000,71.5000000000,-2.1875000000,4.4375000000,79.8750000000,image267.jpg,26729.4076980000
0.7215686440,3.0000000000,5,50.8680998333,-0.0982835000,71.5000000000,1.4375000000,4.1250000000,80.0000000000,image268.jpg,26795.9321250000
0.7686274648,14.0000000000,5,50.8680998333,-0.0982840000,71.5000000000,4.6250000000,4.0000000000,77.4375000000,image269.jpg,26929.6467610000
0.7686274648,14.0000000000,5,50.8681000000,-0.0982846667,71.5000000000,4.2500000000,4.7500000000,76.4375000000,image270.jpg,26997.0139480000
0.7215686440,23.0000000000,5,50.8681003333,-0.0982856667,71.4000000000,1.5000000000,2.8125000000,76.9375000000,image271.jpg,27128.9808750000
0.7450980544,25.0000000000,5,50.8681006667,-0.0982866667,71.4000000000,1.1250000000,3.5625000000,76.9375000000,image272.jpg,27196.7235310000
0.7450980544,19.0000000000,5,50.8681008333,-0.0982865000,71.4000000000,2.5000000000,3.0625000000,79.3125000000,image273.jpg,27328.6528020000
0.7450980544,16.0000000000,5,50.8681011667,-0.0982871667,71.4000000000,5.4375000000,1.7500000000,82.0625000000,image274.jpg,27397.4436880000
0.7529411912,-1.0000000000,5,50.8681015000,-0.0982886667,71.4000000000,8.3750000000,5.2500000000,216.7500000000,image275.jpg,27533.7897290000
0.7215686440,-6.0000000000,5,50.8681016667,-0.0982890000,71.4000000000,8.0000000000,5.5625000000,216.3125000000,image276.jpg,27596.6371770000
0.7529411912,-7.0000000000,5,50.8681020000,-0.0982895000,71.4000000000,5.1250000000,3.3125000000,216.6875000000,image277.jpg,27732.5284270000
0.7529411912,-4.0000000000,5,50.8681023333,-0.0982903333,71.4000000000,6.7500000000,3.4375000000,216.3750000000,image278.jpg,27795.3012390000
0.7529411912,4.0000000000,5,50.8681025000,-0.0982906667,71.4000000000,12.4375000000,6.8125000000,215.6250000000,image279.jpg,27933.3563960000
0.7450980544,16.0000000000,5,50.8681026667,-0.0982918333,71.4000000000,13.5000000000,5.9375000000,214.4375000000,image280.jpg,27996.1053540000
0.7686274648,34.0000000000,5,50.8681028333,-0.0982921667,71.4000000000,10.8125000000,4.7500000000,214.8750000000,image281.jpg,28134.0308750000
0.7529411912,33.0000000000,5,50.8681030000,-0.0982928333,71.4000000000,11.3750000000,4.3125000000,215.8750000000,image282.jpg,28195.7825410000
0.6823529601,33.0000000000,5,50.8681035000,-0.0982936667,71.4000000000,11.3125000000,5.4375000000,218.5625000000,image283.jpg,28332.9540520000
0.7529411912,33.0000000000,5,50.8681038333,-0.0982945000,71.4000000000,10.0625000000,4.5000000000,220.5000000000,image284.jpg,28396.2856660000
0.7529411912,34.0000000000,5,50.8681043333,-0.0982953333,71.4000000000,12.8125000000,2.8125000000,224.9375000000,image285.jpg,28533.0829060000
0.7529411912,34.0000000000,5,50.8681046667,-0.0982961667,71.4000000000,11.5000000000,2.4375000000,225.6250000000,image286.jpg,28597.1548330000
0.7529411912,35.0000000000,5,50.8681050000,-0.0982966667,71.4000000000,8.6875000000,3.0625000000,230.1250000000,image287.jpg,28733.7201450000
0.7058823705,34.0000000000,5,50.8681055000,-0.0982968333,71.4000000000,9.4375000000,4.5625000000,233.8750000000,image288.jpg,28800.4662390000
0.7607843280,34.0000000000,5,50.8681056667,-0.0982971667,71.4000000000,10.6875000000,3.0625000000,237.4375000000,image289.jpg,28933.3146770000
0.7529411912,26.0000000000,5,50.8681058333,-0.0982978333,71.4000000000,9.1250000000,3.1250000000,239.3750000000,image290.jpg,28999.5734270000
0.7686274648,7.0000000000,5,50.8681061667,-0.0982980000,71.4000000000,9.8750000000,3.5625000000,246.0000000000,image291.jpg,29133.6675930000
0.7686274648,7.0000000000,5,50.8681068333,-0.0982983333,71.4000000000,8.6875000000,4.6250000000,246.8750000000,image292.jpg,29200.7919160000
0.8784313798,0.0000000000,5,50.8681073333,-0.0982988333,71.4000000000,7.8125000000,4.0000000000,249.1250000000,image293.jpg,29333.5238950000
0.8627451062,0.0000000000,5,50.8681078333,-0.0982993333,71.4000000000,10.0000000000,4.7500000000,250.0625000000,image294.jpg,29403.5187910000
0.8078431487,1.0000000000,5,50.8681083333,-0.0982996667,71.4000000000,5.8125000000,5.8125000000,247.4375000000,image295.jpg,29535.7070720000
0.8549019694,0.0000000000,5,50.8681091667,-0.0982998333,71.4000000000,4.5000000000,5.1250000000,248.4375000000,image296.jpg,29601.9191550000
0.8549019694,3.0000000000,2,50.8681096667,-0.0983003333,71.4000000000,9.2500000000,5.1250000000,247.5000000000,image297.jpg,29735.1659260000
0.8549019694,5.0000000000,2,50.8681103333,-0.0983010000,71.4000000000,8.3750000000,5.9375000000,247.3750000000,image298.jpg,29802.2195720000
0.8549019694,7.0000000000,2,50.8681110000,-0.0983011667,71.4000000000,4.7500000000,5.1250000000,246.9375000000,image299.jpg,29935.6229050000
0.7607843280,14.0000000000,2,50.8681115000,-0.0983018333,71.4000000000,5.0625000000,3.8125000000,247.4375000000,image300.jpg,30002.0636870000
0.8313725591,21.0000000000,2,50.8681125000,-0.0983028333,71.4000000000,6.7500000000,3.7500000000,249.6250000000,image301.jpg,30135.0726970000
0.8392156959,21.0000000000,2,50.8681130000,-0.0983030000,71.4000000000,6.8750000000,4.0625000000,249.0625000000,image302.jpg,30202.2761860000
0.8392156959,15.0000000000,2,50.8681135000,-0.0983033333,71.4000000000,2.5625000000,7.2500000000,250.7500000000,image303.jpg,30334.4513950000
0.8549019694,12.0000000000,2,50.8681140000,-0.0983031667,71.4000000000,3.6875000000,5.5625000000,253.3750000000,image304.jpg,30399.3513430000
0.8392156959,6.0000000000,2,50.8681146667,-0.0983038333,71.4000000000,6.8125000000,6.1250000000,255.1875000000,image305.jpg,30532.5514470000
0.8392156959,5.0000000000,2,50.8681148333,-0.0983038333,71.4000000000,7.2500000000,6.0625000000,256.5625000000,image306.jpg,30600.4198840000
0.7686274648,1.0000000000,2,50.8681155000,-0.0983043333,71.5000000000,6.5000000000,6.1875000000,256.1875000000,image307.jpg,30733.2576970000
0.8627451062,0.0000000000,2,50.8681160000,-0.0983043333,71.5000000000,5.4375000000,5.8750000000,256.6875000000,image308.jpg,30799.3332170000
0.9411764741,0.0000000000,2,50.8681161667,-0.0983045000,71.5000000000,7.6250000000,5.6250000000,256.6250000000,image309.jpg,30933.2605610000
1.0039216280,2.0000000000,2,50.8681166667,-0.0983045000,71.5000000000,8.1875000000,5.6875000000,256.6875000000,image310.jpg,30999.5360300000
1.0039216280,0.0000000000,2,50.8681173333,-0.0983045000,71.5000000000,4.5625000000,6.2500000000,255.6875000000,image311.jpg,31139.0598840000
1.0039216280,0.0000000000,2,50.8681181667,-0.0983041667,71.5000000000,3.8750000000,6.3750000000,255.4375000000,image312.jpg,31199.2421760000
1.0039216280,0.0000000000,2,50.8681195000,-0.0983045000,71.5000000000,5.5625000000,6.7500000000,256.4375000000,image313.jpg,31333.8447280000
1.0039216280,-2.0000000000,2,50.8681200000,-0.0983050000,71.5000000000,7.3125000000,5.3750000000,255.6250000000,image314.jpg,31399.5773840000
1.0039216280,-8.0000000000,2,50.8681208333,-0.0983058333,71.5000000000,1.6250000000,6.1875000000,253.8750000000,image315.jpg,31544.8685820000
1.0039216280,-8.0000000000,2,50.8681216667,-0.0983060000,71.5000000000,1.7500000000,6.5000000000,252.8750000000,image316.jpg,31599.1004570000
1.0039216280,-10.0000000000,2,50.8681221667,-0.0983058333,71.6000000000,2.3125000000,5.8125000000,251.3125000000,image317.jpg,31739.4810300000
1.0039216280,-11.0000000000,2,50.8681220000,-0.0983061667,71.7000000000,1.3125000000,3.3750000000,251.0625000000,image318.jpg,31800.1606130000
1.0039216280,-7.0000000000,2,50.8681221667,-0.0983065000,71.6000000000,4.3125000000,6.1250000000,249.1250000000,image319.jpg,31937.1282690000
1.0039216280,-9.0000000000,2,50.8681223333,-0.0983073333,71.6000000000,2.9375000000,3.9375000000,247.6250000000,image320.jpg,31999.5277480000
1.0039216280,-12.0000000000,2,50.8681231667,-0.0983075000,71.7000000000,0.1875000000,7.3750000000,244.3750000000,image321.jpg,32137.4244670000
1.0039216280,-12.0000000000,2,50.8681241667,-0.0983085000,71.7000000000,3.3125000000,7.0625000000,244.1250000000,image322.jpg,32200.1544670000
1.0039216280,-8.0000000000,2,50.8681248333,-0.0983090000,71.7000000000,5.1875000000,7.1250000000,239.3125000000,image323.jpg,32337.9728520000
1.0039216280,-2.0000000000,2,50.8681250000,-0.0983100000,71.7000000000,1.1250000000,6.8125000000,238.4375000000,image324.jpg,32400.5564460000
1.0039216280,2.0000000000,2,50.8681258333,-0.0983103333,71.7000000000,0.8750000000,6.1875000000,237.7500000000,image325.jpg,32538.0396750000
1.0039216280,8.0000000000,2,50.8681270000,-0.0983110000,71.7000000000,5.5625000000,10.2500000000,237.7500000000,image326.jpg,32600.5120190000
1.0039216280,9.0000000000,2,50.8681273333,-0.0983118333,71.7000000000,1.6875000000,7.4375000000,236.0625000000,image327.jpg,32737.3599360000
1.0039216280,7.0000000000,2,50.8681281667,-0.0983133333,71.7000000000,0.5000000000,7.4375000000,236.9375000000,image328.jpg,32803.6565500000
1.0039216280,4.0000000000,5,50.8681288333,-0.0983131667,71.7000000000,5.1875000000,7.4375000000,238.8125000000,image329.jpg,32939.1016020000
1.0039216280,2.0000000000,2,50.8681291667,-0.0983136667,71.7000000000,7.8125000000,7.5625000000,240.5625000000,image330.jpg,33000.3451440000
1.0039216280,2.0000000000,2,50.8681295000,-0.0983150000,71.7000000000,0.6250000000,11.0625000000,241.8125000000,image331.jpg,33139.4092580000
1.0039216280,1.0000000000,2,50.8681305000,-0.0983158333,71.7000000000,1.1250000000,12.6250000000,241.8125000000,image332.jpg,33205.2492060000
1.0039216280,3.0000000000,2,50.8681308333,-0.0983160000,71.7000000000,4.7500000000,6.7500000000,245.1250000000,image333.jpg,33337.5567580000
1.0039216280,4.0000000000,2,50.8681313333,-0.0983173333,71.7000000000,6.8125000000,8.0625000000,244.0625000000,image334.jpg,33404.4859770000
1.0039216280,0.0000000000,2,50.8681320000,-0.0983173333,71.7000000000,3.8125000000,7.5625000000,243.6875000000,image335.jpg,33539.2112890000
1.0039216280,5.0000000000,2,50.8681328333,-0.0983180000,71.8000000000,4.8750000000,12.1875000000,244.0000000000,image336.jpg,33605.6072270000
1.0039216280,4.0000000000,2,50.8681333333,-0.0983188333,71.8000000000,0.0625000000,12.0625000000,243.7500000000,image337.jpg,33739.5522270000
1.0039216280,-1.0000000000,2,50.8681336667,-0.0983183333,71.7000000000,-0.5000000000,13.8750000000,243.4375000000,image338.jpg,33804.8698830000
0.9960784316,-4.0000000000,5,50.8681343333,-0.0983188333,71.9000000000,-0.0625000000,10.0625000000,243.3750000000,image339.jpg,33938.6563930000
1.0039216280,-6.0000000000,5,50.8681350000,-0.0983196667,71.9000000000,3.3125000000,4.6875000000,243.1250000000,image340.jpg,34003.3150390000
1.0039216280,-13.0000000000,2,50.8681358333,-0.0983205000,71.9000000000,7.0000000000,6.3750000000,240.9375000000,image341.jpg,34137.3899350000
0.9254902005,-13.0000000000,2,50.8681363333,-0.0983211667,71.9000000000,4.8125000000,6.6875000000,240.4375000000,image342.jpg,34203.5076430000
1.0039216280,-11.0000000000,2,50.8681366667,-0.0983220000,72.0000000000,3.1875000000,8.1250000000,237.6875000000,image343.jpg,34338.0401430000
0.9568627477,-6.0000000000,2,50.8681373333,-0.0983218333,72.0000000000,3.4375000000,7.0000000000,235.1875000000,image344.jpg,34403.9285290000
1.0039216280,0.0000000000,2,50.8681376667,-0.0983220000,72.1000000000,3.8125000000,6.5625000000,230.4375000000,image345.jpg,34538.1351430000
0.9960784316,3.0000000000,2,50.8681380000,-0.0983221667,72.1000000000,3.6250000000,3.5625000000,229.6250000000,image346.jpg,34603.7750390000
0.9882352948,10.0000000000,2,50.8681383333,-0.0983231667,72.1000000000,3.0625000000,6.4375000000,229.6250000000,image347.jpg,34737.2995700000
0.9882352948,16.0000000000,2,50.8681385000,-0.0983233333,72.1000000000,3.1250000000,7.5625000000,230.1875000000,image348.jpg,34806.5583200000
0.9960784316,15.0000000000,5,50.8681386667,-0.0983238333,72.2000000000,7.5625000000,7.3750000000,232.3750000000,image349.jpg,34938.5512370000
0.9882352948,10.0000000000,2,50.8681393333,-0.0983243333,72.2000000000,6.8750000000,6.8125000000,234.1250000000,image350.jpg,35006.6848300000
0.9411764741,2.0000000000,2,50.8681400000,-0.0983255000,72.2000000000,2.9375000000,5.2500000000,234.9375000000,image351.jpg,35138.9345700000
0.9960784316,3.0000000000,2,50.8681406667,-0.0983261667,72.3000000000,3.0625000000,5.3750000000,235.0625000000,image352.jpg,35206.9218100000
0.9960784316,3.0000000000,2,50.8681413333,-0.0983263333,72.3000000000,8.0000000000,7.7500000000,235.0625000000,image353.jpg,35338.6417570000
1.0039216280,4.0000000000,2,50.8681418333,-0.0983273333,72.3000000000,6.5000000000,8.6875000000,235.1875000000,image354.jpg,35407.3376950000
1.0039216280,3.0000000000,2,50.8681421667,-0.0983280000,72.3000000000,5.3750000000,7.7500000000,234.8125000000,image355.jpg,35541.2226950000
0.9568627477,3.0000000000,2,50.8681430000,-0.0983285000,72.3000000000,2.2500000000,9.5000000000,233.6250000000,image356.jpg,35602.6256640000
1.0039216280,9.0000000000,2,50.8681436667,-0.0983293333,72.2000000000,5.2500000000,7.0625000000,233.9375000000,image357.jpg,35739.6468610000
1.0039216280,10.0000000000,2,50.8681448333,-0.0983300000,72.1000000000,3.3750000000,7.3125000000,233.6875000000,image358.jpg,35803.2853510000
1.0039216280,3.0000000000,5,50.8681458333,-0.0983310000,72.0000000000,7.2500000000,6.9375000000,233.8125000000,image359.jpg,35942.1071740000
0.9960784316,0.0000000000,5,50.8681466667,-0.0983320000,72.0000000000,4.6875000000,8.6875000000,232.6875000000,image360.jpg,36003.4268610000
0.9960784316,0.0000000000,5,50.8681496667,-0.0983355000,71.9000000000,8.2500000000,9.0625000000,226.1875000000,image361.jpg,36773.7423300000
0.9960784316,-2.0000000000,5,50.8681521667,-0.0983395000,71.9000000000,7.5000000000,6.2500000000,226.6875000000,image362.jpg,36874.9475380000
0.9882352948,-4.0000000000,5,50.8681530000,-0.0983410000,72.0000000000,6.8750000000,7.1250000000,225.8125000000,image363.jpg,36945.3484760000
0.9568627477,-6.0000000000,5,50.8681543333,-0.0983436667,72.0000000000,8.7500000000,7.8750000000,225.0625000000,image364.jpg,37074.0807670000
0.9568627477,-7.0000000000,nan,nan,nan,nan,8.7500000000,4.3750000000,224.5000000000,image365.jpg,37143.3227980000
0.9568627477,-8.0000000000,5,50.8681548333,-0.0983450000,72.1000000000,8.6875000000,6.1875000000,222.5625000000,image366.jpg,37208.5446730000
0.8392156959,-8.0000000000,5,50.8681551667,-0.0983461667,72.1000000000,6.8750000000,5.1875000000,222.4375000000,image367.jpg,37340.5419650000
0.7843137383,-8.0000000000,5,50.8681560000,-0.0983473333,72.1000000000,7.5625000000,3.6250000000,221.1250000000,image368.jpg,37410.4874340000
0.7607843280,-11.0000000000,5,50.8681565000,-0.0983485000,72.1000000000,6.3750000000,4.3750000000,219.5000000000,image369.jpg,37541.3317050000
0.7921568751,-13.0000000000,5,50.8681568333,-0.0983496667,72.1000000000,7.0000000000,4.4375000000,216.7500000000,image370.jpg,37608.6568090000
0.8235294223,-14.0000000000,5,50.8681570000,-0.0983506667,72.1000000000,5.0625000000,2.5000000000,214.7500000000,image371.jpg,37740.4930590000
0.8000000119,-12.0000000000,5,50.8681576667,-0.0983513333,72.1000000000,6.7500000000,2.8125000000,213.9375000000,image372.jpg,37808.7788400000
0.8235294223,-14.0000000000,5,50.8681580000,-0.0983531667,72.1000000000,4.5000000000,3.8750000000,209.7500000000,image373.jpg,37941.7301420000
0.7921568751,-12.0000000000,5,50.8681583333,-0.0983541667,72.1000000000,3.5625000000,2.1250000000,210.2500000000,image374.jpg,38007.5852460000
0.7921568751,0.0000000000,5,50.8681586667,-0.0983551667,72.2000000000,6.5000000000,-1.0000000000,208.4375000000,image375.jpg,38140.6766520000
0.8392156959,4.0000000000,5,50.8681588333,-0.0983566667,72.1000000000,7.0625000000,0.1250000000,206.8125000000,image376.jpg,38207.9233710000
0.8000000119,19.0000000000,5,50.8681593333,-0.0983575000,72.1000000000,7.8125000000,-0.1250000000,205.6875000000,image377.jpg,38341.4387880000
0.8392156959,28.0000000000,5,50.8681596667,-0.0983581667,72.1000000000,6.3750000000,-0.1250000000,205.6250000000,image378.jpg,38408.0438400000
0.8392156959,35.0000000000,2,50.8681598333,-0.0983591667,72.1000000000,7.7500000000,3.1250000000,209.4375000000,image379.jpg,38539.3025900000
0.8078431487,33.0000000000,2,50.8681601667,-0.0983598333,72.2000000000,8.9375000000,5.1250000000,210.6250000000,image380.jpg,38607.5121730000
0.8549019694,21.0000000000,2,50.8681603333,-0.0983605000,72.2000000000,14.3125000000,8.4375000000,215.8750000000,image381.jpg,38741.2396210000
0.8627451062,12.0000000000,2,50.8681605000,-0.0983606667,72.2000000000,14.3125000000,7.4375000000,217.0625000000,image382.jpg,38807.7848290000
0.8549019694,-2.0000000000,5,50.8681608333,-0.0983608333,72.2000000000,12.0625000000,6.2500000000,222.1875000000,image383.jpg,38941.7769120000
0.8156862855,-1.0000000000,5,50.8681615000,-0.0983613333,72.2000000000,11.5625000000,6.5625000000,221.8125000000,image384.jpg,39007.7433710000
0.8470588326,-4.0000000000,5,50.8681621667,-0.0983626667,72.2000000000,9.2500000000,5.4375000000,222.0625000000,image385.jpg,39142.0736310000
0.8549019694,-4.0000000000,2,50.8681625000,-0.0983630000,72.2000000000,10.0000000000,3.0000000000,222.0000000000,image386.jpg,39207.5361830000
0.8156862855,-9.0000000000,2,50.8681628333,-0.0983643333,72.2000000000,11.2500000000,1.0000000000,219.6875000000,image387.jpg,39342.3049330000
0.8549019694,-8.0000000000,2,50.8681635000,-0.0983651667,72.2000000000,9.6250000000,2.5625000000,218.2500000000,image388.jpg,39407.8760790000
0.8156862855,-12.0000000000,2,50.8681640000,-0.0983658333,72.2000000000,6.5000000000,4.0000000000,217.0625000000,image389.jpg,39545.4372250000
0.8470588326,-10.0000000000,2,50.8681646667,-0.0983665000,72.2000000000,9.1250000000,5.0000000000,217.1250000000,image390.jpg,39607.6701930000
0.8470588326,-5.0000000000,2,50.8681650000,-0.0983675000,72.2000000000,10.4375000000,5.8750000000,213.5000000000,image391.jpg,39745.4992560000
0.8156862855,-11.0000000000,2,50.8681651667,-0.0983680000,72.2000000000,9.1875000000,8.9375000000,213.2500000000,image392.jpg,39807.8560790000
0.8549019694,-11.0000000000,5,50.8681653333,-0.0983685000,72.2000000000,11.5625000000,10.6250000000,212.1250000000,image393.jpg,39945.7294120000
0.8549019694,-12.0000000000,2,50.8681656667,-0.0983686667,72.2000000000,13.6250000000,7.6875000000,211.0000000000,image394.jpg,40007.8426930000
0.8549019694,-12.0000000000,2,50.8681660000,-0.0983698333,72.2000000000,12.5625000000,9.1250000000,209.1250000000,image395.jpg,40145.5895160000
0.8549019694,-10.0000000000,2,50.8681661667,-0.0983706667,72.2000000000,12.5000000000,5.1250000000,208.3750000000,image396.jpg,40208.4984740000
0.8627451062,-8.0000000000,2,50.8681663333,-0.0983713333,72.2000000000,9.6875000000,3.3125000000,206.7500000000,image397.jpg,40344.9124330000
0.8549019694,-8.0000000000,2,50.8681666667,-0.0983725000,72.2000000000,10.5000000000,4.9375000000,206.3750000000,image398.jpg,40408.2719640000
0.8000000119,-7.0000000000,2,50.8681666667,-0.0983723333,72.2000000000,16.0625000000,5.5625000000,205.5000000000,image399.jpg,40543.6337870000
0.8549019694,-7.0000000000,2,50.8681668333,-0.0983738333,72.2000000000,14.7500000000,4.0000000000,204.3750000000,image400.jpg,40607.9045680000
0.8000000119,-10.0000000000,2,50.8681666667,-0.0983753333,72.2000000000,10.8750000000,8.7500000000,200.4375000000,image401.jpg,40744.0305050000
0.8549019694,-13.0000000000,2,50.8681670000,-0.0983751667,72.2000000000,11.3125000000,6.3125000000,200.4375000000,image402.jpg,40812.2446720000
0.8705882430,-10.0000000000,5,50.8681671667,-0.0983763333,72.2000000000,9.5000000000,7.8750000000,199.2500000000,image403.jpg,40945.0328490000
0.8156862855,-7.0000000000,5,50.8681671667,-0.0983771667,72.2000000000,9.2500000000,7.3750000000,198.4375000000,image404.jpg,41013.2030050000
0.8627451062,-7.0000000000,2,50.8681673333,-0.0983773333,72.3000000000,11.0000000000,5.5000000000,196.3750000000,image405.jpg,41149.9152450000
0.8549019694,-9.0000000000,2,50.8681676667,-0.0983786667,72.2000000000,13.9375000000,5.3125000000,195.6875000000,image406.jpg,41212.8155570000
0.8549019694,-8.0000000000,2,50.8681675000,-0.0983796667,72.2000000000,14.0000000000,5.8750000000,193.5000000000,image407.jpg,41345.7806090000
0.8627451062,-7.0000000000,2,50.8681676667,-0.0983803333,72.2000000000,13.7500000000,3.8125000000,192.0000000000,image408.jpg,41411.9631610000
0.8627451062,-8.0000000000,2,50.8681680000,-0.0983815000,72.2000000000,14.6875000000,4.6875000000,189.6875000000,image409.jpg,41545.0826930000
0.8549019694,-8.0000000000,2,50.8681676667,-0.0983820000,72.2000000000,15.3750000000,3.5000000000,189.6250000000,image410.jpg,41611.8730050000
0.8156862855,-10.0000000000,2,50.8681678333,-0.0983833333,72.2000000000,11.8750000000,0.0625000000,188.5625000000,image411.jpg,41745.6917550000
0.8705882430,-11.0000000000,2,50.8681680000,-0.0983843333,72.2000000000,8.0625000000,-1.4375000000,187.9375000000,image412.jpg,41812.1458700000
0.8156862855,-10.0000000000,2,50.8681681667,-0.0983853333,72.3000000000,8.6875000000,-2.6250000000,187.0000000000,image413.jpg,41945.8636300000
0.8705882430,-9.0000000000,2,50.8681680000,-0.0983861667,72.3000000000,11.8750000000,-4.0625000000,186.3750000000,image414.jpg,42012.0269630000
0.8705882430,-9.0000000000,2,50.8681680000,-0.0983868333,72.3000000000,17.1250000000,-0.4375000000,182.0625000000,image415.jpg,42143.9149320000
0.7921568751,-7.0000000000,2,50.8681683333,-0.0983885000,72.3000000000,14.2500000000,0.0000000000,179.9375000000,image416.jpg,42211.9705570000
0.8784313798,-7.0000000000,2,50.8681685000,-0.0983898333,72.3000000000,14.3750000000,-2.0625000000,178.6250000000,image417.jpg,42344.2654530000
0.8862745166,-5.0000000000,2,50.8681685000,-0.0983908333,72.3000000000,12.6875000000,-2.0000000000,177.9375000000,image418.jpg,42412.5040980000
0.8627451062,-5.0000000000,2,50.8681685000,-0.0983918333,72.3000000000,13.9375000000,-4.0625000000,176.9375000000,image419.jpg,42544.9774840000
0.8627451062,-5.0000000000,2,50.8681686667,-0.0983926667,72.2000000000,15.1875000000,-5.5625000000,176.5000000000,image420.jpg,42613.7885780000
0.8627451062,-5.0000000000,2,50.8681686667,-0.0983941667,72.2000000000,14.9375000000,3.0625000000,173.4375000000,image421.jpg,42744.4447230000
0.8705882430,-5.0000000000,2,50.8681688333,-0.0983955000,72.2000000000,15.1250000000,3.5625000000,172.1250000000,image422.jpg,42814.8191500000
0.8313725591,-4.0000000000,2,50.8681688333,-0.0983963333,72.3000000000,11.5000000000,-0.1875000000,171.7500000000,image423.jpg,42944.9907650000
