speed,steering angle,gps quality,lat,lon,altitude,roll,pitch,yaw,image name,timestamp
0.0549019612,0.0000000000,4,50.8680296667,-0.0981945000,69.3000000000,-4.6875000000,-7.9375000000,0.0000000000,image0.jpg,108.3762500000
0.0549019612,1.0000000000,4,50.8680296667,-0.0981943333,69.2000000000,-4.6875000000,-7.9375000000,0.0000000000,image1.jpg,172.4277090000
0.0392156877,0.0000000000,4,50.8680296667,-0.0981943333,69.2000000000,-4.6875000000,-7.9375000000,0.0000000000,image2.jpg,303.7989070000
-0.0470588244,0.0000000000,4,50.8680296667,-0.0981943333,69.2000000000,-4.6875000000,-7.9375000000,0.0000000000,image3.jpg,372.1605730000
0.0392156877,0.0000000000,4,50.8680296667,-0.0981943333,69.2000000000,-4.6875000000,-7.9375000000,0.0000000000,image4.jpg,504.8465110000
0.0392156877,0.0000000000,4,50.8680296667,-0.0981943333,69.2000000000,-4.6875000000,-7.9375000000,0.0000000000,image5.jpg,571.5743230000
0.0549019612,0.0000000000,4,50.8680296667,-0.0981943333,69.3000000000,-4.6875000000,-7.9375000000,0.0000000000,image6.jpg,707.6511980000
0.0549019612,0.0000000000,4,50.8680296667,-0.0981943333,69.3000000000,-4.6875000000,-7.9375000000,0.0000000000,image7.jpg,771.3514060000
0.0549019612,0.0000000000,4,50.8680296667,-0.0981943333,69.2000000000,-4.6875000000,-7.9375000000,0.0000000000,image8.jpg,904.4832290000
0.0627451017,0.0000000000,4,50.8680296667,-0.0981943333,69.2000000000,-4.6875000000,-7.9375000000,0.0000000000,image9.jpg,971.5365100000
0.1960784346,1.0000000000,4,50.8680296667,-0.0981943333,69.2000000000,-4.6875000000,-7.9375000000,0.0000000000,image10.jpg,1105.0151560000
0.2274509817,0.0000000000,4,50.8680296667,-0.0981943333,69.2000000000,-4.6875000000,-7.9375000000,0.0000000000,image11.jpg,1171.1719790000
0.2274509817,0.0000000000,4,50.8680296667,-0.0981943333,69.3000000000,-4.6875000000,-7.9375000000,359.8750000000,image12.jpg,1305.2968230000
0.2274509817,1.0000000000,4,50.8680296667,-0.0981943333,69.2000000000,-4.6875000000,-7.9375000000,359.8750000000,image13.jpg,1370.4848440000
0.2196078449,0.0000000000,4,50.8680296667,-0.0981943333,69.2000000000,-4.6875000000,-8.0000000000,359.8750000000,image14.jpg,1504.8756250000
0.1882352978,0.0000000000,4,50.8680296667,-0.0981943333,69.2000000000,-4.6250000000,-8.0000000000,359.8750000000,image15.jpg,1570.5787500000
0.2039215714,0.0000000000,4,50.8680296667,-0.0981945000,69.2000000000,-4.6875000000,-8.0625000000,359.7500000000,image16.jpg,1703.4993750000
0.2431372553,0.0000000000,4,50.8680296667,-0.0981945000,69.2000000000,-4.6875000000,-8.1250000000,359.7500000000,image17.jpg,1771.1745310000
0.2745098174,0.0000000000,4,50.8680296667,-0.0981945000,69.2000000000,-4.6875000000,-8.2500000000,359.7500000000,image18.jpg,1903.8610930000
0.2745098174,0.0000000000,4,50.8680295000,-0.0981945000,69.2000000000,-4.6875000000,-8.2500000000,359.8125000000,image19.jpg,1971.7412500000
0.2588235438,1.0000000000,4,50.8680295000,-0.0981946667,69.2000000000,-4.4375000000,-8.3750000000,359.6250000000,image20.jpg,2104.0731250000
0.2274509817,0.0000000000,4,50.8680295000,-0.0981948333,69.2000000000,-4.2500000000,-8.5625000000,359.5625000000,image21.jpg,2171.4891140000
0.2431372553,2.0000000000,4,50.8680293333,-0.0981950000,69.2000000000,-3.8750000000,-8.5625000000,359.3750000000,image22.jpg,2303.8247910000
0.2980392277,0.0000000000,4,50.8680291667,-0.0981950000,69.2000000000,-3.8750000000,-8.5000000000,359.1250000000,image23.jpg,2371.6575520000
0.3137255013,0.0000000000,4,50.8680291667,-0.0981951667,69.2000000000,-3.9375000000,-8.5625000000,358.6875000000,image24.jpg,2503.6889060000
0.2980392277,-1.0000000000,4,50.8680290000,-0.0981953333,69.2000000000,-4.1250000000,-8.6250000000,358.6875000000,image25.jpg,2571.5147390000
0.2901960909,-12.0000000000,4,50.8680288333,-0.0981955000,69.2000000000,-4.4375000000,-8.9375000000,358.3750000000,image26.jpg,2704.5121870000
0.2588235438,-14.0000000000,4,50.8680286667,-0.0981958333,69.2000000000,-4.9375000000,-9.1250000000,358.1875000000,image27.jpg,2770.9406240000
0.3294117749,-17.0000000000,4,50.8680285000,-0.0981960000,69.2000000000,-5.5000000000,-9.4375000000,358.3750000000,image28.jpg,2908.0738010000
0.3529411852,-17.0000000000,4,50.8680285000,-0.0981961667,69.2000000000,-5.5000000000,-9.5000000000,358.5625000000,image29.jpg,2970.9810930000
0.3450980484,-20.0000000000,4,50.8680285000,-0.0981961667,69.2000000000,-5.4375000000,-9.2500000000,358.6250000000,image30.jpg,3108.9374990000
0.3843137324,-21.0000000000,4,50.8680285000,-0.0981961667,69.2000000000,-5.4375000000,-9.0625000000,358.5000000000,image31.jpg,3170.4330200000
0.5725490451,-20.0000000000,4,50.8680283333,-0.0981963333,69.3000000000,-4.5000000000,-8.7500000000,358.0625000000,image32.jpg,3308.1982280000
0.5098039508,-18.0000000000,4,50.8680281667,-0.0981963333,69.2000000000,-3.1875000000,-8.6875000000,357.5000000000,image33.jpg,3370.9289570000
0.5333333611,-15.0000000000,4,50.8680278333,-0.0981965000,69.2000000000,-3.5000000000,-7.4375000000,355.3125000000,image34.jpg,3508.3527070000
0.5490196347,-16.0000000000,4,50.8680275000,-0.0981968333,69.2000000000,-4.2500000000,-7.6875000000,354.6875000000,image35.jpg,3571.5667700000
0.5490196347,-13.0000000000,4,50.8680271667,-0.0981976667,69.2000000000,-1.8125000000,-6.9375000000,353.4375000000,image36.jpg,3708.8177590000
0.5490196347,-11.0000000000,4,50.8680266667,-0.0981975000,69.2000000000,-1.0625000000,-5.5625000000,352.8125000000,image37.jpg,3771.6783320000
0.5333333611,-10.0000000000,4,50.8680263333,-0.0981976667,69.2000000000,-0.0625000000,-4.2500000000,352.2500000000,image38.jpg,3907.7426030000
0.5098039508,0.0000000000,4,50.8680260000,-0.0981980000,69.2000000000,0.3125000000,-5.3125000000,352.3750000000,image39.jpg,3971.6266130000
0.5176470876,0.0000000000,4,50.8680256667,-0.0981983333,69.2000000000,-3.5000000000,-5.6250000000,351.1250000000,image40.jpg,4108.5019780000
0.5176470876,0.0000000000,4,50.8680253333,-0.0981988333,69.2000000000,-4.8125000000,-5.8750000000,351.8750000000,image41.jpg,4175.1145300000
0.4627451003,-3.0000000000,4,50.8680250000,-0.0981995000,69.2000000000,-5.5000000000,-4.8125000000,352.0625000000,image42.jpg,4307.7714570000
0.5098039508,-5.0000000000,4,50.8680246667,-0.0981998333,69.2000000000,-5.4375000000,-4.1250000000,352.3125000000,image43.jpg,4375.4764050000
0.5647059083,-8.0000000000,4,50.8680243333,-0.0982001667,69.2000000000,-4.1875000000,-3.2500000000,352.8750000000,image44.jpg,4507.7697380000
0.5019608140,-11.0000000000,4,50.8680241667,-0.0982003333,69.2000000000,-3.8125000000,-4.1250000000,352.5625000000,image45.jpg,4575.3840090000
0.5333333611,-14.0000000000,4,50.8680238333,-0.0982005000,69.2000000000,-4.5000000000,-5.1875000000,352.0625000000,image46.jpg,4708.0784360000
0.5176470876,-18.0000000000,4,50.8680235000,-0.0982008333,69.2000000000,-4.3750000000,-4.0000000000,351.0000000000,image47.jpg,4775.8332280000
0.5254902244,-21.0000000000,4,50.8680231667,-0.0982011667,69.2000000000,-3.8125000000,-2.7500000000,348.9375000000,image48.jpg,4907.9869260000
0.5254902244,-20.0000000000,4,50.8680228333,-0.0982013333,69.2000000000,-1.7500000000,-3.4375000000,348.3125000000,image49.jpg,4975.6338010000
0.5411764979,-20.0000000000,4,50.8680225000,-0.0982015000,69.2000000000,-1.7500000000,-5.1875000000,346.0000000000,image50.jpg,5114.9549980000
0.5490196347,-17.0000000000,4,50.8680221667,-0.0982020000,69.2000000000,-1.7500000000,-6.1875000000,345.1875000000,image51.jpg,5176.8574460000
0.5254902244,1.0000000000,4,50.8680216667,-0.0982021667,69.2000000000,-1.7500000000,-6.6875000000,343.5625000000,image52.jpg,5312.5098940000
0.5254902244,5.0000000000,4,50.8680213333,-0.0982021667,69.2000000000,-2.3750000000,-6.8750000000,342.7500000000,image53.jpg,5376.0960920000
0.4705882370,9.0000000000,5,50.8680210000,-0.0982020000,69.2000000000,-4.3750000000,-6.0625000000,342.3750000000,image54.jpg,5511.0185920000
0.5333333611,6.0000000000,5,50.8680206667,-0.0982025000,69.2000000000,-5.4375000000,-6.6250000000,342.6250000000,image55.jpg,5575.7515610000
0.5254902244,0.0000000000,5,50.8680203333,-0.0982030000,69.2000000000,-5.6250000000,-6.3750000000,343.8125000000,image56.jpg,5711.7143210000
0.4705882370,1.0000000000,5,50.8680198333,-0.0982033333,69.2000000000,-3.5625000000,-6.1250000000,343.9375000000,image57.jpg,5775.8080190000
0.5568627715,1.0000000000,5,50.8680195000,-0.0982031667,69.2000000000,-0.3125000000,-5.1250000000,344.4375000000,image58.jpg,5908.8545290000
0.5882353187,0.0000000000,5,50.8680190000,-0.0982031667,69.1000000000,-1.0625000000,-4.6250000000,343.8125000000,image59.jpg,5976.8991130000
0.5882353187,3.0000000000,5,50.8680186667,-0.0982036667,69.1000000000,-2.8125000000,-4.3125000000,344.1250000000,image60.jpg,6111.7060920000
0.5882353187,5.0000000000,5,50.8680183333,-0.0982040000,69.1000000000,-3.6250000000,-3.9375000000,344.1875000000,image61.jpg,6177.2769770000
0.6431372762,8.0000000000,5,50.8680180000,-0.0982043333,69.1000000000,-3.0000000000,-4.5625000000,344.0000000000,image62.jpg,6309.7457270000
0.6745098233,9.0000000000,5,50.8680175000,-0.0982048333,69.1000000000,-2.2500000000,-5.1875000000,344.2500000000,image63.jpg,6374.8168730000
0.6509804130,19.0000000000,5,50.8680170000,-0.0982050000,69.1000000000,-1.2500000000,-3.8750000000,345.6250000000,image64.jpg,6509.6362480000
0.6431372762,20.0000000000,5,50.8680166667,-0.0982053333,69.1000000000,0.6875000000,-3.3750000000,345.8750000000,image65.jpg,6574.9746330000
0.5490196347,19.0000000000,5,50.8680163333,-0.0982055000,69.1000000000,2.4375000000,-2.5625000000,346.1250000000,image66.jpg,6709.9714040000
0.6352941394,17.0000000000,5,50.8680158333,-0.0982056667,69.1000000000,1.1875000000,-0.8750000000,346.7500000000,image67.jpg,6774.9789560000
0.6431372762,19.0000000000,5,50.8680155000,-0.0982063333,69.1000000000,-0.7500000000,2.3750000000,349.5000000000,image68.jpg,6911.9444250000
0.6196078658,20.0000000000,5,50.8680151667,-0.0982068333,69.1000000000,0.2500000000,2.1250000000,350.7500000000,image69.jpg,6974.9353100000
0.5725490451,19.0000000000,5,50.8680150000,-0.0982070000,69.1000000000,-0.5625000000,2.7500000000,351.4375000000,image70.jpg,7112.9905190000
0.5725490451,18.0000000000,5,50.8680146667,-0.0982073333,69.1000000000,-2.2500000000,3.5625000000,352.1875000000,image71.jpg,7174.8349460000
0.5803921819,10.0000000000,5,50.8680145000,-0.0982080000,69.1000000000,-0.1250000000,5.0000000000,354.6875000000,image72.jpg,7312.2833830000
0.6196078658,10.0000000000,5,50.8680140000,-0.0982081667,69.1000000000,0.5000000000,4.5000000000,353.5625000000,image73.jpg,7374.9906750000
0.6352941394,14.0000000000,5,50.8680136667,-0.0982083333,69.1000000000,0.5000000000,3.8125000000,354.1250000000,image74.jpg,7512.6836950000
0.6274510026,16.0000000000,5,50.8680135000,-0.0982086667,69.1000000000,1.6250000000,2.6875000000,354.2500000000,image75.jpg,7574.8588520000
0.6588235497,20.0000000000,5,50.8680130000,-0.0982090000,69.1000000000,5.1250000000,2.0000000000,353.6250000000,image76.jpg,7713.5171330000
0.6274510026,20.0000000000,5,50.8680126667,-0.0982090000,69.1000000000,5.3125000000,2.3125000000,354.0625000000,image77.jpg,7775.9796850000
0.6431372762,20.0000000000,5,50.8680125000,-0.0982091667,69.1000000000,7.8750000000,3.5000000000,355.5000000000,image78.jpg,7912.7599450000
0.6745098233,21.0000000000,5,50.8680121667,-0.0982096667,69.1000000000,8.0625000000,4.3125000000,355.8125000000,image79.jpg,7975.1207790000
0.6666666865,23.0000000000,5,50.8680118333,-0.0982100000,69.1000000000,4.4375000000,3.8750000000,357.4375000000,image80.jpg,8110.9813510000
0.6352941394,24.0000000000,5,50.8680115000,-0.0982106667,69.1000000000,4.1250000000,4.1875000000,358.4375000000,image81.jpg,8179.0799450000
0.6666666865,16.0000000000,5,50.8680111667,-0.0982113333,69.1000000000,5.8750000000,6.3750000000,1.5625000000,image82.jpg,8311.6785390000
0.6745098233,13.0000000000,2,50.8680108333,-0.0982113333,69.1000000000,4.9375000000,5.3125000000,3.6250000000,image83.jpg,8379.2296850000
0.6509804130,10.0000000000,5,50.8680106667,-0.0982125000,69.1000000000,3.3125000000,2.9375000000,5.3750000000,image84.jpg,8511.6640600000
0.6823529601,12.0000000000,5,50.8680101667,-0.0982130000,69.1000000000,4.7500000000,2.6875000000,6.3750000000,image85.jpg,8579.4485390000
0.6666666865,12.0000000000,5,50.8680098333,-0.0982131667,69.1000000000,6.6250000000,3.8125000000,6.4375000000,image86.jpg,8713.6717160000
0.6666666865,9.0000000000,2,50.8680095000,-0.0982133333,69.2000000000,6.3750000000,3.7500000000,6.9375000000,image87.jpg,8778.7128620000
0.6745098233,9.0000000000,2,50.8680093333,-0.0982140000,69.2000000000,5.3125000000,3.5625000000,7.6250000000,image88.jpg,8913.6189030000
0.6431372762,5.0000000000,2,50.8680090000,-0.0982148333,69.2000000000,5.0625000000,2.3750000000,7.6875000000,image89.jpg,8979.1342680000
0.6823529601,-7.0000000000,2,50.8680086667,-0.0982153333,69.2000000000,0.0000000000,2.1875000000,8.3125000000,image90.jpg,9113.2295800000
0.6980392337,-7.0000000000,2,50.8680085000,-0.0982160000,69.2000000000,0.7500000000,2.8125000000,8.4375000000,image91.jpg,9180.2007260000
0.6901960969,1.0000000000,2,50.8680081667,-0.0982163333,69.1000000000,2.5000000000,3.4375000000,8.1875000000,image92.jpg,9312.4958300000
0.6745098233,20.0000000000,2,50.8680078333,-0.0982168333,69.2000000000,4.1875000000,3.4375000000,7.6875000000,image93.jpg,9380.4736430000
0.6509804130,34.0000000000,5,50.8680080000,-0.0982173333,69.2000000000,7.0000000000,4.9375000000,6.1250000000,image94.jpg,9513.6843720000
0.6509804130,33.0000000000,5,50.8680078333,-0.0982173333,69.2000000000,8.0625000000,5.4375000000,6.8125000000,image95.jpg,9579.7686950000
0.6274510026,33.0000000000,5,50.8680076667,-0.0982178333,69.2000000000,5.6250000000,2.8750000000,10.0000000000,image96.jpg,9710.3137990000
0.6588235497,33.0000000000,5,50.8680073333,-0.0982186667,69.2000000000,2.1875000000,0.0000000000,11.3125000000,image97.jpg,9779.8486430000
0.6588235497,22.0000000000,5,50.8680070000,-0.0982198333,69.2000000000,-0.6875000000,2.7500000000,14.5000000000,image98.jpg,9912.6856740000
0.6588235497,21.0000000000,5,50.8680071667,-0.0982203333,69.2000000000,1.0000000000,2.5000000000,16.1875000000,image99.jpg,9980.7701010000
0.6666666865,19.0000000000,5,50.8680068333,-0.0982206667,69.2000000000,2.0000000000,1.5000000000,18.3750000000,image100.jpg,10121.3746320000
0.6117647290,16.0000000000,5,50.8680066667,-0.0982211667,69.2000000000,2.5000000000,1.8125000000,18.8125000000,image101.jpg,10180.8765070000
0.6901960969,11.0000000000,5,50.8680063333,-0.0982216667,69.2000000000,3.5625000000,1.1875000000,20.0625000000,image102.jpg,10317.7655170000
0.6745098233,3.0000000000,2,50.8680061667,-0.0982220000,69.2000000000,2.5000000000,1.5000000000,21.3125000000,image103.jpg,10380.3084860000
0.7215686440,0.0000000000,5,50.8680063333,-0.0982226667,69.2000000000,1.0625000000,3.0625000000,24.3750000000,image104.jpg,10513.3963510000
0.7843137383,1.0000000000,5,50.8680063333,-0.0982230000,69.2000000000,0.0000000000,5.3125000000,24.1875000000,image105.jpg,10581.3917670000
0.7764706016,0.0000000000,5,50.8680063333,-0.0982236667,69.2000000000,-0.4375000000,5.9375000000,24.5625000000,image106.jpg,10714.8593190000
0.7764706016,1.0000000000,5,50.8680063333,-0.0982245000,69.2000000000,1.8750000000,4.5000000000,24.6875000000,image107.jpg,10783.5171320000
0.7294117808,2.0000000000,5,50.8680056667,-0.0982248333,69.2000000000,5.4375000000,7.4375000000,25.3125000000,image108.jpg,10916.9184340000
0.7764706016,1.0000000000,5,50.8680055000,-0.0982253333,69.2000000000,4.3125000000,7.3750000000,25.3125000000,image109.jpg,10979.5672880000
0.7686274648,1.0000000000,5,50.8680053333,-0.0982261667,69.2000000000,-3.4375000000,3.6250000000,22.8750000000,image110.jpg,11118.8863500000
0.7764706016,2.0000000000,5,50.8680051667,-0.0982271667,69.2000000000,-8.1875000000,5.8750000000,22.6875000000,image111.jpg,11185.1598400000
0.7686274648,2.0000000000,5,50.8680053333,-0.0982276667,69.2000000000,-12.5625000000,9.8125000000,19.9375000000,image112.jpg,11318.7385900000
0.7215686440,2.0000000000,5,50.8680053333,-0.0982276667,69.2000000000,-14.1250000000,12.0625000000,19.0000000000,image113.jpg,11379.9771840000
0.7764706016,1.0000000000,5,50.8680053333,-0.0982283333,69.2000000000,-8.7500000000,10.4375000000,18.6250000000,image114.jpg,11518.0853610000
0.7764706016,1.0000000000,5,50.8680051667,-0.0982288333,69.2000000000,-1.2500000000,4.3750000000,19.1250000000,image115.jpg,11580.1022360000
0.7843137383,3.0000000000,5,50.8680043333,-0.0982295000,69.2000000000,4.1250000000,-0.2500000000,18.8125000000,image116.jpg,11718.2532250000
0.7843137383,5.0000000000,5,50.8680036667,-0.0982303333,69.2000000000,3.0000000000,2.6875000000,17.7500000000,image117.jpg,11781.0966100000
0.7843137383,7.0000000000,5,50.8680036667,-0.0982315000,69.2000000000,2.0625000000,2.0000000000,15.1250000000,image118.jpg,11916.7568710000
0.7843137383,9.0000000000,5,50.8680033333,-0.0982321667,69.2000000000,0.7500000000,-0.3125000000,13.5625000000,image119.jpg,11984.8048920000
0.6980392337,15.0000000000,5,50.8680033333,-0.0982323333,69.2000000000,-1.7500000000,-2.9375000000,9.1875000000,image120.jpg,12115.0430690000
0.7843137383,15.0000000000,5,50.8680033333,-0.0982326667,69.2000000000,-2.5000000000,-4.4375000000,8.5000000000,image121.jpg,12184.2130170000
0.7843137383,18.0000000000,2,50.8680031667,-0.0982330000,69.2000000000,-4.5000000000,-4.8125000000,7.5625000000,image122.jpg,12315.3790580000
0.7843137383,21.0000000000,2,50.8680030000,-0.0982335000,69.2000000000,-6.1250000000,-3.3125000000,7.7500000000,image123.jpg,12384.5151000000
0.7843137383,22.0000000000,5,50.8680028333,-0.0982343333,69.2000000000,-0.7500000000,5.3125000000,15.5000000000,image124.jpg,12515.8968710000
0.7058823705,24.0000000000,5,50.8680025000,-0.0982350000,69.2000000000,3.6875000000,3.4375000000,14.7500000000,image125.jpg,12584.9824440000
0.8000000119,25.0000000000,5,50.8680021667,-0.0982353333,69.2000000000,-0.1250000000,4.8750000000,16.6250000000,image126.jpg,12717.1817140000
0.8000000119,25.0000000000,5,50.8680021667,-0.0982356667,69.2000000000,-0.4375000000,6.9375000000,18.5625000000,image127.jpg,12784.3773910000
0.8000000119,25.0000000000,5,50.8680020000,-0.0982365000,69.2000000000,3.8125000000,9.3750000000,20.5625000000,image128.jpg,12915.1067140000
0.8000000119,26.0000000000,5,50.8680016667,-0.0982370000,69.2000000000,6.6250000000,8.8750000000,21.9375000000,image129.jpg,12984.1405160000
0.7921568751,29.0000000000,5,50.8680013333,-0.0982376667,69.2000000000,7.6250000000,9.5000000000,24.4375000000,image130.jpg,13115.4931720000
0.7686274648,30.0000000000,5,50.8680010000,-0.0982381667,69.1000000000,5.4375000000,7.8125000000,25.5000000000,image131.jpg,13183.3091620000
0.7607843280,30.0000000000,5,50.8680008333,-0.0982385000,69.2000000000,2.1875000000,5.0000000000,29.8750000000,image132.jpg,13314.9728600000
0.7607843280,30.0000000000,5,50.8680006667,-0.0982396667,69.2000000000,2.1250000000,4.6250000000,31.7500000000,image133.jpg,13383.4417660000
0.8000000119,26.0000000000,5,50.8680005000,-0.0982405000,69.2000000000,1.1250000000,3.4375000000,35.9375000000,image134.jpg,13515.9962450000
0.8000000119,17.0000000000,5,50.8680003333,-0.0982411667,69.2000000000,1.5625000000,3.3750000000,37.6250000000,image135.jpg,13583.3027040000
0.8156862855,2.0000000000,5,50.8680001667,-0.0982416667,69.2000000000,1.6875000000,3.3125000000,40.5000000000,image136.jpg,13714.6879120000
0.7686274648,0.0000000000,5,50.8680001667,-0.0982420000,69.2000000000,-0.5625000000,4.3125000000,41.0625000000,image137.jpg,13783.7780160000
0.8000000119,-2.0000000000,5,50.8680001667,-0.0982426667,69.2000000000,-3.7500000000,5.2500000000,41.5625000000,image138.jpg,13915.2218700000
0.8078431487,-2.0000000000,5,50.8680003333,-0.0982440000,69.2000000000,-3.8750000000,5.0625000000,41.6875000000,image139.jpg,13985.0365050000
0.7686274648,-2.0000000000,5,50.8680001667,-0.0982450000,69.2000000000,-2.8750000000,0.1250000000,40.3750000000,image140.jpg,14115.7371300000
0.8000000119,-2.0000000000,5,50.8680000000,-0.0982458333,69.2000000000,-2.0625000000,0.6250000000,40.2500000000,image141.jpg,14188.5510370000
0.8000000119,-1.0000000000,5,50.8679996667,-0.0982468333,69.2000000000,-3.1250000000,-0.8125000000,37.7500000000,image142.jpg,14315.8375990000
0.7686274648,0.0000000000,5,50.8679996667,-0.0982478333,69.2000000000,-6.5000000000,0.6875000000,37.6875000000,image143.jpg,14384.4539010000
0.7686274648,5.0000000000,5,50.8679996667,-0.0982490000,69.2000000000,-3.5625000000,3.3750000000,37.8125000000,image144.jpg,14515.5416620000
0.7686274648,4.0000000000,5,50.8679993333,-0.0982498333,69.2000000000,-0.5000000000,3.1875000000,37.3750000000,image145.jpg,14584.2866090000
0.8000000119,4.0000000000,5,50.8679990000,-0.0982506667,69.2000000000,2.1875000000,2.7500000000,37.3750000000,image146.jpg,14716.1267660000
0.8078431487,5.0000000000,5,50.8679986667,-0.0982516667,69.2000000000,2.1875000000,3.3750000000,37.8125000000,image147.jpg,14783.1110890000
0.8000000119,0.0000000000,5,50.8679986667,-0.0982525000,69.2000000000,-1.7500000000,2.0625000000,36.8125000000,image148.jpg,14920.1463490000
0.8000000119,0.0000000000,5,50.8679986667,-0.0982538333,69.2000000000,-3.8750000000,3.0625000000,37.8750000000,image149.jpg,14983.5108800000
0.8000000119,0.0000000000,5,50.8679985000,-0.0982548333,69.2000000000,1.2500000000,3.9375000000,38.6875000000,image150.jpg,15124.6874950000
0.8000000119,1.0000000000,5,50.8679981667,-0.0982558333,69.2000000000,5.0625000000,4.4375000000,38.2500000000,image151.jpg,15183.6961930000
0.7686274648,3.0000000000,5,50.8679978333,-0.0982566667,69.2000000000,1.8750000000,4.7500000000,37.6250000000,image152.jpg,15322.0290050000
0.8156862855,4.0000000000,5,50.8679978333,-0.0982578333,69.2000000000,1.4375000000,5.1250000000,37.3750000000,image153.jpg,15384.0241090000
0.8000000119,9.0000000000,5,50.8679980000,-0.0982598333,69.2000000000,0.9375000000,3.6875000000,36.8750000000,image154.jpg,15519.0875990000
0.7764706016,12.0000000000,5,50.8679978333,-0.0982600000,69.3000000000,0.9375000000,2.4375000000,37.1250000000,image155.jpg,15583.0980150000
0.8000000119,19.0000000000,5,50.8679975000,-0.0982611667,69.2000000000,3.2500000000,1.8125000000,38.0625000000,image156.jpg,15722.4972340000
0.7058823705,19.0000000000,5,50.8679973333,-0.0982621667,69.2000000000,2.8125000000,0.9375000000,38.4375000000,image157.jpg,15784.2914010000
0.8000000119,17.0000000000,5,50.8679973333,-0.0982631667,69.3000000000,3.3750000000,1.0625000000,40.1875000000,image158.jpg,15919.0246300000
0.7921568751,17.0000000000,5,50.8679971667,-0.0982640000,69.2000000000,3.8750000000,2.1250000000,40.6875000000,image159.jpg,15983.2212440000
0.8000000119,15.0000000000,5,50.8679971667,-0.0982648333,69.2000000000,1.3750000000,4.9375000000,42.3750000000,image160.jpg,16120.8380670000
0.8000000119,17.0000000000,5,50.8679971667,-0.0982656667,69.3000000000,0.3750000000,4.5000000000,43.5000000000,image161.jpg,16187.8879110000
0.7843137383,22.0000000000,5,50.8679973333,-0.0982670000,69.3000000000,4.0000000000,4.3750000000,45.8750000000,image162.jpg,16319.5645780000
0.7843137383,23.0000000000,5,50.8679971667,-0.0982678333,69.3000000000,6.3125000000,3.3750000000,47.1250000000,image163.jpg,16387.3371300000
0.7215686440,23.0000000000,5,50.8679968333,-0.0982690000,69.3000000000,4.7500000000,1.1250000000,49.6875000000,image164.jpg,16520.2430670000
0.7686274648,23.0000000000,5,50.8679968333,-0.0982698333,69.3000000000,5.0625000000,1.5625000000,51.1875000000,image165.jpg,16587.3693170000
0.7764706016,24.0000000000,5,50.8679968333,-0.0982710000,69.3000000000,4.5000000000,4.8125000000,54.0000000000,image166.jpg,16720.0317130000
0.7215686440,23.0000000000,5,50.8679970000,-0.0982718333,69.3000000000,6.2500000000,4.0000000000,56.2500000000,image167.jpg,16787.5122340000
0.7843137383,26.0000000000,5,50.8679971667,-0.0982726667,69.3000000000,5.8125000000,4.6250000000,58.6875000000,image168.jpg,16921.1584310000
0.7372549176,25.0000000000,5,50.8679970000,-0.0982735000,69.3000000000,4.8750000000,3.5625000000,60.2500000000,image169.jpg,16988.5792130000
0.7843137383,24.0000000000,5,50.8679973333,-0.0982748333,69.3000000000,4.4375000000,4.4375000000,63.1875000000,image170.jpg,17120.1343170000
0.7843137383,25.0000000000,5,50.8679975000,-0.0982760000,69.3000000000,1.9375000000,3.3750000000,64.5000000000,image171.jpg,17187.2987440000
0.7843137383,20.0000000000,5,50.8679978333,-0.0982761667,69.3000000000,1.5625000000,3.6250000000,69.1250000000,image172.jpg,17319.8051500000
0.7843137383,18.0000000000,5,50.8679980000,-0.0982770000,69.3000000000,0.5625000000,3.0000000000,70.2500000000,image173.jpg,17387.3703580000
0.7843137383,10.0000000000,5,50.8679981667,-0.0982778333,69.4000000000,-1.5625000000,2.0625000000,72.7500000000,image174.jpg,17519.0520250000
0.7921568751,3.0000000000,5,50.8679986667,-0.0982786667,69.4000000000,0.1250000000,1.9375000000,74.1250000000,image175.jpg,17587.3192650000
0.7450980544,2.0000000000,5,50.8679986667,-0.0982790000,69.4000000000,0.6250000000,5.1250000000,73.7500000000,image176.jpg,17718.3556710000
0.7921568751,4.0000000000,5,50.8679988333,-0.0982793333,69.4000000000,-0.8125000000,5.1875000000,73.2500000000,image177.jpg,17787.1678580000
0.7843137383,13.0000000000,5,50.8679991667,-0.0982798333,69.4000000000,-1.7500000000,6.9375000000,73.4375000000,image178.jpg,17924.3278060000
0.6980392337,17.0000000000,5,50.8679993333,-0.0982808333,69.4000000000,-1.2500000000,5.8750000000,73.5625000000,image179.jpg,17988.5580140000
0.7764706016,21.0000000000,5,50.8679998333,-0.0982816667,69.4000000000,0.1875000000,4.4375000000,74.3125000000,image180.jpg,18123.4362430000
0.6901960969,22.0000000000,5,50.8680000000,-0.0982826667,69.4000000000,-0.3125000000,3.4375000000,75.5625000000,image181.jpg,18186.9768680000
0.7764706016,24.0000000000,5,50.8680001667,-0.0982831667,69.4000000000,0.5000000000,2.9375000000,77.9375000000,image182.jpg,18319.9960870000
0.7764706016,24.0000000000,2,50.8680005000,-0.0982835000,69.4000000000,0.1875000000,3.5000000000,78.9375000000,image183.jpg,18387.1389520000
0.7764706016,26.0000000000,5,50.8680010000,-0.0982843333,69.4000000000,3.5000000000,3.6250000000,82.3125000000,image184.jpg,18520.1435870000
0.7764706016,28.0000000000,5,50.8680010000,-0.0982848333,69.4000000000,3.5625000000,3.0000000000,84.6250000000,image185.jpg,18588.8069200000
0.7843137383,30.0000000000,5,50.8680013333,-0.0982855000,69.4000000000,0.0625000000,1.8125000000,88.6875000000,image186.jpg,18723.1880140000
0.7686274648,28.0000000000,5,50.8680020000,-0.0982863333,69.4000000000,1.0000000000,-0.0625000000,90.3125000000,image187.jpg,18787.2323370000
0.7294117808,25.0000000000,5,50.8680020000,-0.0982865000,69.4000000000,-0.3750000000,-0.5625000000,93.3750000000,image188.jpg,18924.5508270000
0.7686274648,16.0000000000,2,50.8680025000,-0.0982871667,69.4000000000,2.3750000000,-0.1250000000,96.3750000000,image189.jpg,18987.0684310000
0.7686274648,0.0000000000,2,50.8680028333,-0.0982873333,69.4000000000,2.0000000000,0.6875000000,99.6250000000,image190.jpg,19124.4956700000
0.7372549176,0.0000000000,2,50.8680033333,-0.0982876667,69.4000000000,2.5625000000,1.0625000000,100.7500000000,image191.jpg,19190.9836390000
0.7686274648,2.0000000000,2,50.8680035000,-0.0982883333,69.4000000000,4.6875000000,2.1250000000,99.3125000000,image192.jpg,19323.5837430000
0.7372549176,2.0000000000,2,50.8680040000,-0.0982891667,69.5000000000,3.3125000000,3.3750000000,98.6875000000,image193.jpg,19392.0663990000
0.7372549176,0.0000000000,5,50.8680045000,-0.0982898333,69.4000000000,2.4375000000,1.8125000000,99.0625000000,image194.jpg,19524.3111390000
0.7686274648,0.0000000000,5,50.8680050000,-0.0982901667,69.4000000000,3.1250000000,2.0625000000,98.6875000000,image195.jpg,19591.1390030000
0.7372549176,2.0000000000,2,50.8680055000,-0.0982910000,69.4000000000,-0.3750000000,1.5625000000,98.7500000000,image196.jpg,19724.5108260000
0.7686274648,5.0000000000,2,50.8680061667,-0.0982916667,69.4000000000,-0.3125000000,3.2500000000,98.7500000000,image197.jpg,19791.0910870000
0.7686274648,11.0000000000,2,50.8680063333,-0.0982916667,69.5000000000,0.0625000000,0.2500000000,97.8750000000,image198.jpg,19923.8671280000
0.7372549176,12.0000000000,2,50.8680068333,-0.0982923333,69.4000000000,-1.2500000000,-0.5625000000,99.3750000000,image199.jpg,19990.4776490000
0.7294117808,17.0000000000,2,50.8680073333,-0.0982930000,69.5000000000,2.6875000000,-0.6250000000,99.7500000000,image200.jpg,20125.7105140000
0.7686274648,16.0000000000,2,50.8680078333,-0.0982940000,69.4000000000,0.6250000000,-0.3125000000,99.2500000000,image201.jpg,20192.6036390000
0.7529411912,17.0000000000,2,50.8680085000,-0.0982941667,69.5000000000,0.4375000000,0.4375000000,102.3125000000,image202.jpg,20326.5150450000
0.7215686440,18.0000000000,2,50.8680090000,-0.0982945000,69.5000000000,2.1250000000,3.4375000000,103.8750000000,image203.jpg,20392.4836910000
0.7607843280,17.0000000000,5,50.8680090000,-0.0982956667,69.5000000000,2.7500000000,3.0000000000,105.5000000000,image204.jpg,20525.4314510000
0.7607843280,17.0000000000,5,50.8680095000,-0.0982960000,69.5000000000,2.7500000000,3.1875000000,107.5000000000,image205.jpg,20592.2500970000
0.7215686440,16.0000000000,5,50.8680100000,-0.0982971667,69.5000000000,3.8125000000,3.9375000000,108.4375000000,image206.jpg,20726.7708260000
0.7607843280,17.0000000000,5,50.8680103333,-0.0982976667,69.5000000000,2.3750000000,2.5000000000,109.9375000000,image207.jpg,20792.5736900000
0.7607843280,16.0000000000,5,50.8680108333,-0.0982983333,69.5000000000,3.8125000000,3.2500000000,111.8750000000,image208.jpg,20924.0935860000
0.7607843280,15.0000000000,5,50.8680113333,-0.0982986667,69.5000000000,5.5625000000,4.4375000000,113.3125000000,image209.jpg,20991.4725970000
0.7607843280,10.0000000000,5,50.8680118333,-0.0982995000,69.5000000000,4.8750000000,4.2500000000,113.8125000000,image210.jpg,21123.9792110000
0.7294117808,4.0000000000,5,50.8680125000,-0.0982998333,69.5000000000,2.6875000000,4.3125000000,114.4375000000,image211.jpg,21191.1800960000
0.7686274648,-1.0000000000,5,50.8680128333,-0.0982998333,69.6000000000,2.3750000000,5.0625000000,114.8750000000,image212.jpg,21322.4205130000
0.7686274648,-9.0000000000,5,50.8680133333,-0.0982998333,69.5000000000,4.2500000000,4.8750000000,114.6875000000,image213.jpg,21391.0581170000
0.7843137383,-17.0000000000,5,50.8680138333,-0.0983006667,69.5000000000,2.9375000000,5.1875000000,114.3750000000,image214.jpg,21523.1590550000
0.7686274648,-15.0000000000,5,50.8680143333,-0.0983010000,69.5000000000,2.0625000000,4.8125000000,113.6250000000,image215.jpg,21591.5524920000
0.7686274648,-12.0000000000,5,50.8680150000,-0.0983015000,69.5000000000,-1.1875000000,7.0000000000,110.9375000000,image216.jpg,21722.9904090000
0.7686274648,-7.0000000000,5,50.8680155000,-0.0983018333,69.5000000000,-0.3750000000,6.0000000000,109.6875000000,image217.jpg,21792.1027530000
0.6823529601,1.0000000000,5,50.8680158333,-0.0983021667,69.5000000000,3.0625000000,3.1250000000,107.8750000000,image218.jpg,21929.7679610000
0.7686274648,0.0000000000,5,50.8680165000,-0.0983028333,69.5000000000,3.1250000000,1.1250000000,106.5625000000,image219.jpg,21991.9687420000
0.7137255073,0.0000000000,5,50.8680171667,-0.0983036667,69.5000000000,-5.3750000000,4.4375000000,234.0625000000,image220.jpg,22127.2771270000
0.7686274648,0.0000000000,5,50.8680176667,-0.0983033333,69.5000000000,-4.8750000000,3.0000000000,234.5000000000,image221.jpg,22193.5520230000
0.7686274648,1.0000000000,2,50.8680183333,-0.0983038333,69.6000000000,3.3750000000,2.0625000000,233.8125000000,image222.jpg,22327.2830650000
0.7215686440,0.0000000000,2,50.8680185000,-0.0983046667,69.6000000000,0.2500000000,4.0000000000,232.8750000000,image223.jpg,22392.0422840000
0.7686274648,1.0000000000,5,50.8680191667,-0.0983048333,69.6000000000,-2.8750000000,3.0000000000,233.1875000000,image224.jpg,22527.3727000000
0.7764706016,2.0000000000,5,50.8680198333,-0.0983053333,69.5000000000,-0.7500000000,2.8750000000,231.6875000000,image225.jpg,22592.7938460000
0.7686274648,12.0000000000,5,50.8680201667,-0.0983061667,69.6000000000,0.7500000000,2.5625000000,232.6250000000,image226.jpg,22727.8972310000
0.7764706016,14.0000000000,5,50.8680206667,-0.0983066667,69.6000000000,3.8125000000,2.6875000000,233.8125000000,image227.jpg,22791.3143670000
0.7686274648,15.0000000000,5,50.8680210000,-0.0983075000,69.6000000000,2.5000000000,3.7500000000,233.0000000000,image228.jpg,22927.2153040000
0.7764706016,16.0000000000,5,50.8680215000,-0.0983078333,69.6000000000,0.8125000000,3.4375000000,233.8125000000,image229.jpg,22991.5757730000
0.7215686440,17.0000000000,5,50.8680223333,-0.0983081667,69.6000000000,2.6875000000,1.8125000000,237.8750000000,image230.jpg,23127.4292100000
0.7843137383,13.0000000000,5,50.8680226667,-0.0983086667,69.6000000000,3.3125000000,0.6875000000,240.0000000000,image231.jpg,23195.7266060000
0.7686274648,4.0000000000,5,50.8680231667,-0.0983093333,69.6000000000,-2.3750000000,-0.5000000000,242.6250000000,image232.jpg,23327.4718670000
0.7764706016,3.0000000000,5,50.8680241667,-0.0983095000,69.6000000000,-3.4375000000,0.8750000000,243.2500000000,image233.jpg,23398.0033250000
0.7686274648,4.0000000000,5,50.8680248333,-0.0983095000,69.6000000000,-2.5000000000,1.5000000000,244.3750000000,image234.jpg,23527.1479600000
0.7215686440,4.0000000000,5,50.8680253333,-0.0983103333,69.6000000000,-0.6250000000,0.5625000000,243.8750000000,image235.jpg,23594.9928560000
0.7686274648,3.0000000000,5,50.8680260000,-0.0983111667,69.6000000000,-7.2500000000,1.1875000000,242.6250000000,image236.jpg,23727.8810330000
0.7686274648,2.0000000000,5,50.8680268333,-0.0983110000,69.6000000000,-6.7500000000,0.0000000000,242.8750000000,image237.jpg,23795.3332730000
0.7686274648,2.0000000000,5,50.8680273333,-0.0983111667,69.6000000000,-5.5625000000,0.2500000000,243.0000000000,image238.jpg,23927.4400950000
0.7686274648,2.0000000000,5,50.8680278333,-0.0983110000,69.6000000000,-4.1250000000,1.0625000000,243.1250000000,image239.jpg,23995.8280120000
0.7686274648,2.0000000000,5,50.8680281667,-0.0983113333,69.6000000000,-7.1250000000,5.3125000000,242.6875000000,image240.jpg,24127.6338970000
0.7686274648,1.0000000000,2,50.8680288333,-0.0983113333,69.6000000000,-7.4375000000,4.0625000000,242.6875000000,image241.jpg,24195.9262930000
0.6980392337,2.0000000000,2,50.8680293333,-0.0983116667,69.6000000000,-5.5000000000,5.5625000000,242.8750000000,image242.jpg,24327.5990540000
0.7686274648,0.0000000000,2,50.8680296667,-0.0983120000,69.6000000000,-4.1875000000,4.4375000000,243.3750000000,image243.jpg,24396.1734290000
0.7764706016,0.0000000000,5,50.8680303333,-0.0983121667,69.6000000000,-4.1250000000,2.8125000000,242.1250000000,image244.jpg,24527.5955640000
0.7686274648,0.0000000000,5,50.8680310000,-0.0983128333,69.6000000000,-3.6875000000,2.0000000000,241.4375000000,image245.jpg,24597.3608760000
0.7686274648,1.0000000000,5,50.8680315000,-0.0983135000,69.6000000000,-3.5000000000,3.3125000000,242.0625000000,image246.jpg,24727.1393140000
0.7372549176,2.0000000000,5,50.8680320000,-0.0983136667,69.5000000000,-2.8125000000,0.8125000000,241.1875000000,image247.jpg,24795.8578030000
0.7764706016,1.0000000000,5,50.8680325000,-0.0983143333,69.5000000000,-5.0000000000,-0.4375000000,240.8125000000,image248.jpg,24928.5120220000
0.7764706016,0.0000000000,5,50.8680333333,-0.0983151667,69.5000000000,-6.1875000000,-1.2500000000,241.8125000000,image249.jpg,24996.1543660000
0.7372549176,0.0000000000,5,50.8680338333,-0.0983153333,69.5000000000,-4.5625000000,-3.3125000000,241.4375000000,image250.jpg,25131.6789490000
0.7686274648,0.0000000000,5,50.8680346667,-0.0983163333,69.5000000000,-5.5000000000,-3.2500000000,241.4375000000,image251.jpg,25195.1584280000
0.7686274648,0.0000000000,5,50.8680353333,-0.0983168333,69.5000000000,-5.3125000000,-1.3125000000,241.1250000000,image252.jpg,25327.5720740000
0.7686274648,0.0000000000,5,50.8680356667,-0.0983171667,69.5000000000,-8.1875000000,0.8750000000,240.7500000000,image253.jpg,25396.1096260000
0.7372549176,2.0000000000,nan,nan,nan,nan,-7.5000000000,1.5625000000,241.8125000000,image254.jpg,25527.3469180000
0.7372549176,0.0000000000,5,50.8680370000,-0.0983175000,69.5000000000,-8.5000000000,1.8750000000,241.8750000000,image255.jpg,25596.3221260000
0.7372549176,11.0000000000,5,50.8680375000,-0.0983181667,69.4000000000,-8.9375000000,1.9375000000,242.8125000000,image256.jpg,25732.3108760000
0.7686274648,23.0000000000,5,50.8680385000,-0.0983181667,69.4000000000,-8.6875000000,3.0000000000,242.3750000000,image257.jpg,25797.1551990000
0.7686274648,27.0000000000,5,50.8680390000,-0.0983183333,69.4000000000,-9.6250000000,-0.3125000000,243.4375000000,image258.jpg,25931.3244700000
0.7450980544,30.0000000000,5,50.8680396667,-0.0983186667,69.4000000000,-6.4375000000,0.2500000000,245.2500000000,image259.jpg,25996.3984280000
0.7686274648,27.0000000000,5,50.8680403333,-0.0983191667,69.4000000000,-4.9375000000,2.2500000000,248.8125000000,image260.jpg,26131.0436360000
0.7764706016,25.0000000000,5,50.8680408333,-0.0983198333,69.4000000000,-5.1875000000,1.3125000000,250.8125000000,image261.jpg,26194.8894170000
0.7372549176,21.0000000000,5,50.8680415000,-0.0983203333,69.4000000000,-4.1875000000,4.5625000000,254.5000000000,image262.jpg,26330.9829070000
0.7686274648,21.0000000000,2,50.8680421667,-0.0983206667,69.4000000000,-3.4375000000,3.9375000000,256.5000000000,image263.jpg,26395.5388970000
0.7686274648,15.0000000000,5,50.8680428333,-0.0983208333,69.4000000000,-1.1250000000,3.0625000000,259.3750000000,image264.jpg,26531.7851990000
0.7686274648,15.0000000000,5,50.8680435000,-0.0983211667,69.4000000000,-3.6875000000,3.7500000000,261.0000000000,image265.jpg,26595.2008240000
0.7764706016,20.0000000000,5,50.8680441667,-0.0983211667,69.4000000000,-2.9375000000,1.9375000000,263.9375000000,image266.jpg,26731.2238960000
0.7372549176,20.0000000000,5,50.8680446667,-0.0983208333,69.4000000000,-0.7500000000,0.1875000000,265.1875000000,image267.jpg,26795.3194690000
0.7764706016,21.0000000000,5,50.8680453333,-0.0983210000,69.4000000000,-2.6250000000,2.4375000000,268.0625000000,image268.jpg,26931.8117090000
0.7686274648,21.0000000000,5,50.8680460000,-0.0983213333,69.4000000000,-1.4375000000,2.0000000000,270.4375000000,image269.jpg,26996.6886880000
0.7607843280,21.0000000000,5,50.8680466667,-0.0983213333,69.4000000000,-2.3125000000,1.2500000000,273.6875000000,image270.jpg,27131.8779590000
0.7607843280,20.0000000000,5,50.8680471667,-0.0983215000,69.4000000000,-1.1250000000,1.1875000000,275.0000000000,image271.jpg,27198.9751460000
0.7686274648,-4.0000000000,5,50.8680480000,-0.0983210000,69.4000000000,-3.3125000000,2.3750000000,276.7500000000,image272.jpg,27333.3784270000
0.7686274648,-12.0000000000,5,50.8680485000,-0.0983206667,69.4000000000,-4.6250000000,1.8750000000,278.1875000000,image273.jpg,27399.2733230000
0.7294117808,-17.0000000000,5,50.8680493333,-0.0983203333,69.4000000000,-2.0625000000,-1.1875000000,276.3125000000,image274.jpg,27531.2388440000
0.7686274648,-17.0000000000,5,50.8680498333,-0.0983211667,69.4000000000,-1.1250000000,1.3125000000,275.9375000000,image275.jpg,27599.1594170000
0.7686274648,-14.0000000000,5,50.8680506667,-0.0983218333,69.4000000000,-0.9375000000,2.5000000000,273.8750000000,image276.jpg,27731.2442090000
0.7686274648,-11.0000000000,5,50.8680510000,-0.0983218333,69.4000000000,-2.5625000000,3.3750000000,273.1875000000,image277.jpg,27799.2191040000
0.7686274648,0.0000000000,5,50.8680516667,-0.0983218333,69.4000000000,-5.5625000000,2.8125000000,272.2500000000,image278.jpg,27931.4015520000
0.7137255073,1.0000000000,5,50.8680523333,-0.0983213333,69.4000000000,-4.0625000000,2.6875000000,271.4375000000,image279.jpg,27998.8723330000
0.7686274648,6.0000000000,5,50.8680530000,-0.0983216667,69.4000000000,-2.0000000000,2.5000000000,272.5625000000,image280.jpg,28131.5847810000
0.7686274648,1.0000000000,5,50.8680535000,-0.0983221667,69.3000000000,0.0000000000,2.7500000000,272.0000000000,image281.jpg,28199.2143650000
0.7686274648,-5.0000000000,5,50.8680540000,-0.0983228333,69.4000000000,-1.9375000000,0.7500000000,272.1250000000,image282.jpg,28332.2640000000
0.7686274648,-11.0000000000,5,50.8680545000,-0.0983228333,69.4000000000,-2.3750000000,1.1875000000,271.8750000000,image283.jpg,28399.6677500000
0.7686274648,-10.0000000000,5,50.8680553333,-0.0983226667,69.4000000000,-0.5000000000,4.1875000000,271.1250000000,image284.jpg,28533.5998330000
0.7686274648,-5.0000000000,5,50.8680556667,-0.0983226667,69.4000000000,-0.3125000000,4.6875000000,269.3750000000,image285.jpg,28599.1334270000
0.7215686440,1.0000000000,5,50.8680561667,-0.0983236667,69.4000000000,-0.3125000000,6.4375000000,268.1250000000,image286.jpg,28731.9688440000
0.7843137383,0.0000000000,5,50.8680570000,-0.0983238333,69.4000000000,-1.0000000000,6.0625000000,268.5000000000,image287.jpg,28798.9768120000
0.7686274648,-7.0000000000,5,50.8680575000,-0.0983240000,69.5000000000,-1.4375000000,5.6250000000,268.1875000000,image288.jpg,28931.1681140000
0.7686274648,-8.0000000000,5,50.8680580000,-0.0983240000,69.5000000000,-0.9375000000,5.7500000000,268.6250000000,image289.jpg,28999.1161870000
0.7686274648,-12.0000000000,5,50.8680588333,-0.0983241667,69.4000000000,1.3750000000,5.8125000000,267.1875000000,image290.jpg,29131.5724370000
0.7215686440,-12.0000000000,5,50.8680593333,-0.0983243333,69.5000000000,0.9375000000,4.6250000000,266.2500000000,image291.jpg,29199.0530620000
0.7686274648,-5.0000000000,5,50.8680598333,-0.0983245000,69.5000000000,1.1875000000,4.8750000000,264.3125000000,image292.jpg,29331.0237910000
0.7686274648,-1.0000000000,5,50.8680605000,-0.0983248333,69.5000000000,0.6250000000,3.8750000000,263.4375000000,image293.jpg,29399.6008230000
0.7686274648,0.0000000000,5,50.8680611667,-0.0983250000,69.5000000000,2.1875000000,4.5000000000,262.1250000000,image294.jpg,29531.0858220000
0.7686274648,1.0000000000,5,50.8680616667,-0.0983255000,69.5000000000,3.9375000000,3.2500000000,263.1875000000,image295.jpg,29600.1069160000
0.7686274648,1.0000000000,5,50.8680623333,-0.0983260000,69.5000000000,4.1250000000,1.7500000000,262.6875000000,image296.jpg,29732.2448850000
0.7764706016,0.0000000000,5,50.8680630000,-0.0983265000,69.5000000000,4.0000000000,1.5625000000,262.9375000000,image297.jpg,29800.2147290000
0.6823529601,0.0000000000,5,50.8680636667,-0.0983265000,69.5000000000,2.9375000000,0.7500000000,261.5000000000,image298.jpg,29935.3053010000
0.7686274648,-7.0000000000,5,50.8680641667,-0.0983268333,69.4000000000,2.5625000000,-0.3750000000,261.5625000000,image299.jpg,29999.9046760000
0.7764706016,-12.0000000000,5,50.8680656667,-0.0983276667,69.4000000000,2.1250000000,0.3125000000,260.7500000000,image300.jpg,30143.1976450000
0.7764706016,-13.0000000000,nan,nan,nan,nan,0.7500000000,-0.4375000000,261.0000000000,image301.jpg,30200.9379580000
0.7686274648,-16.0000000000,5,50.8680663333,-0.0983280000,69.5000000000,-0.1250000000,-0.7500000000,260.1250000000,image302.jpg,30267.0448330000
0.6823529601,-16.0000000000,5,50.8680671667,-0.0983283333,69.4000000000,0.8750000000,3.2500000000,257.5625000000,image303.jpg,30400.5915510000
0.7843137383,-11.0000000000,5,50.8680675000,-0.0983290000,69.4000000000,0.8750000000,4.8125000000,257.7500000000,image304.jpg,30466.4942600000
0.7686274648,-4.0000000000,5,50.8680681667,-0.0983291667,69.4000000000,1.6250000000,4.4375000000,254.5625000000,image305.jpg,30599.8942600000
0.7372549176,1.0000000000,5,50.8680688333,-0.0983295000,69.4000000000,-2.6250000000,5.1250000000,253.1875000000,image306.jpg,30667.0038430000
0.7686274648,1.0000000000,5,50.8680695000,-0.0983296667,69.4000000000,-3.7500000000,4.8125000000,252.6875000000,image307.jpg,30799.5107180000
0.7764706016,3.0000000000,5,50.8680698333,-0.0983301667,69.4000000000,0.0000000000,6.0625000000,252.5625000000,image308.jpg,30866.9739990000
0.7372549176,8.0000000000,5,50.8680703333,-0.0983310000,69.4000000000,-3.2500000000,3.3750000000,251.8750000000,image309.jpg,31000.6094680000
0.7686274648,8.0000000000,5,50.8680711667,-0.0983311667,69.4000000000,-3.9375000000,3.4375000000,252.1250000000,image310.jpg,31067.8274360000
0.7764706016,2.0000000000,5,50.8680715000,-0.0983315000,69.4000000000,-6.0000000000,3.8125000000,252.0625000000,image311.jpg,31205.7657700000
0.7686274648,0.0000000000,5,50.8680723333,-0.0983316667,69.4000000000,-5.2500000000,2.2500000000,253.1875000000,image312.jpg,31266.5805610000
0.7686274648,-1.0000000000,5,50.8680730000,-0.0983320000,69.4000000000,-4.8125000000,1.2500000000,252.3125000000,image313.jpg,31403.8954050000
0.7372549176,-1.0000000000,5,50.8680735000,-0.0983326667,69.4000000000,-5.8750000000,0.3125000000,251.8750000000,image314.jpg,31466.4164470000
0.7372549176,0.0000000000,5,50.8680741667,-0.0983326667,69.4000000000,-5.7500000000,2.1250000000,249.7500000000,image315.jpg,31603.8996760000
0.7686274648,0.0000000000,2,50.8680746667,-0.0983333333,69.4000000000,-5.3125000000,3.2500000000,250.5625000000,image316.jpg,31666.5866550000
0.7686274648,-1.0000000000,2,50.8680751667,-0.0983335000,69.4000000000,-2.5625000000,1.0625000000,248.2500000000,image317.jpg,31804.5806130000
0.7372549176,2.0000000000,2,50.8680756667,-0.0983345000,69.4000000000,-4.3750000000,1.4375000000,248.3125000000,image318.jpg,31866.8668110000
0.7686274648,1.0000000000,2,50.8680765000,-0.0983350000,69.4000000000,-3.9375000000,1.4375000000,249.2500000000,image319.jpg,32003.2904050000
0.7686274648,1.0000000000,2,50.8680771667,-0.0983353333,69.4000000000,-2.1250000000,0.2500000000,247.5000000000,image320.jpg,32066.6397280000
0.7372549176,0.0000000000,2,50.8680776667,-0.0983358333,69.4000000000,-1.8750000000,2.1250000000,247.1250000000,image321.jpg,32205.1023840000
0.7686274648,0.0000000000,2,50.8680783333,-0.0983363333,69.4000000000,0.2500000000,3.1875000000,246.8125000000,image322.jpg,32266.9643110000
0.7686274648,7.0000000000,2,50.8680783333,-0.0983370000,69.5000000000,-0.5000000000,2.9375000000,246.0000000000,image323.jpg,32405.6310300000
0.7686274648,13.0000000000,2,50.8680788333,-0.0983375000,69.5000000000,-0.8125000000,2.6875000000,245.6250000000,image324.jpg,32467.6938420000
0.7686274648,25.0000000000,2,50.8680795000,-0.0983380000,69.5000000000,0.1250000000,2.7500000000,245.1250000000,image325.jpg,32605.0859780000
0.7372549176,25.0000000000,2,50.8680801667,-0.0983386667,69.5000000000,1.0000000000,2.4375000000,247.0625000000,image326.jpg,32671.7669670000
0.7686274648,26.0000000000,2,50.8680808333,-0.0983390000,69.5000000000,0.8125000000,1.3125000000,250.7500000000,image327.jpg,32805.7160820000
0.7686274648,26.0000000000,2,50.8680808333,-0.0983390000,69.5000000000,0.8125000000,3.0000000000,252.1875000000,image328.jpg,32871.7004050000
0.7686274648,24.0000000000,2,50.8680815000,-0.0983391667,69.5000000000,-0.1250000000,2.3750000000,254.5625000000,image329.jpg,33006.1753000000
0.7686274648,26.0000000000,2,50.8680816667,-0.0983390000,69.5000000000,0.3750000000,2.0625000000,255.7500000000,image330.jpg,33071.4416020000
0.7686274648,8.0000000000,2,50.8680821667,-0.0983393333,69.5000000000,-1.0625000000,2.7500000000,258.5625000000,image331.jpg,33204.7613420000
0.7686274648,2.0000000000,2,50.8680828333,-0.0983396667,69.5000000000,-1.5625000000,3.5625000000,259.9375000000,image332.jpg,33272.4883210000
0.7372549176,0.0000000000,2,50.8680833333,-0.0983395000,69.5000000000,-1.1250000000,2.6250000000,259.6875000000,image333.jpg,33404.7643630000
0.7686274648,0.0000000000,5,50.8680840000,-0.0983401667,69.5000000000,1.8750000000,2.6875000000,258.8750000000,image334.jpg,33472.8492580000
0.7686274648,1.0000000000,5,50.8680840000,-0.0983408333,69.5000000000,0.0625000000,5.5000000000,257.5625000000,image335.jpg,33604.8087900000
0.7686274648,8.0000000000,5,50.8680845000,-0.0983406667,69.5000000000,0.0000000000,5.0625000000,257.6250000000,image336.jpg,33672.9382170000
0.7764706016,20.0000000000,5,50.8680853333,-0.0983408333,69.5000000000,1.6250000000,3.5625000000,257.5000000000,image337.jpg,33805.0910290000
0.7058823705,14.0000000000,2,50.8680860000,-0.0983411667,69.5000000000,-1.6250000000,4.3125000000,257.6250000000,image338.jpg,33872.6507170000
0.7607843280,3.0000000000,2,50.8680866667,-0.0983410000,69.5000000000,4.1250000000,4.6250000000,261.3125000000,image339.jpg,34005.5403000000
0.7607843280,0.0000000000,2,50.8680871667,-0.0983413333,69.5000000000,4.6250000000,4.1875000000,260.6875000000,image340.jpg,34070.7322790000
0.7607843280,0.0000000000,2,50.8680875000,-0.0983416667,69.5000000000,-0.1250000000,2.1250000000,261.6250000000,image341.jpg,34205.8433210000
0.7686274648,1.0000000000,2,50.8680885000,-0.0983415000,69.5000000000,1.9375000000,0.2500000000,261.5625000000,image342.jpg,34271.7367060000
0.7686274648,0.0000000000,2,50.8680891667,-0.0983418333,69.5000000000,-0.8125000000,-0.0625000000,260.6250000000,image343.jpg,34405.7792060000
0.7529411912,0.0000000000,5,50.8680895000,-0.0983416667,69.5000000000,-0.9375000000,0.2500000000,260.9375000000,image344.jpg,34471.8974350000
0.7058823705,-20.0000000000,5,50.8680900000,-0.0983416667,69.5000000000,1.1875000000,3.0625000000,260.0000000000,image345.jpg,34605.5731120000
0.7529411912,-27.0000000000,5,50.8680906667,-0.0983420000,69.5000000000,-0.2500000000,3.2500000000,260.5625000000,image346.jpg,34671.1131120000
0.7529411912,-32.0000000000,5,50.8680913333,-0.0983418333,69.4000000000,0.0625000000,4.1250000000,258.3750000000,image347.jpg,34804.7451430000
0.7529411912,-26.0000000000,5,50.8680915000,-0.0983421667,69.5000000000,2.5625000000,3.5000000000,256.4375000000,image348.jpg,34872.3072270000
0.7607843280,1.0000000000,5,50.8680921667,-0.0983425000,69.5000000000,-0.6875000000,2.2500000000,251.1250000000,image349.jpg,35004.7946220000
0.7058823705,1.0000000000,5,50.8680930000,-0.0983428333,69.4000000000,-0.2500000000,0.8750000000,250.5625000000,image350.jpg,35071.6461330000
0.7529411912,0.0000000000,5,50.8680933333,-0.0983431667,69.5000000000,-2.9375000000,2.2500000000,249.4375000000,image351.jpg,35210.0798310000
0.7529411912,-3.0000000000,2,50.8680940000,-0.0983435000,69.5000000000,-2.6875000000,1.9375000000,251.6250000000,image352.jpg,35271.8870180000
0.7529411912,0.0000000000,2,50.8680946667,-0.0983436667,69.5000000000,0.0625000000,0.6250000000,250.9375000000,image353.jpg,35408.5057160000
0.7529411912,2.0000000000,5,50.8680951667,-0.0983446667,69.5000000000,-0.3750000000,2.0000000000,250.4375000000,image354.jpg,35471.5142580000
0.7607843280,0.0000000000,5,50.8680960000,-0.0983448333,69.5000000000,-0.6250000000,3.8750000000,250.2500000000,image355.jpg,35608.4204560000
0.7529411912,0.0000000000,5,50.8680963333,-0.0983448333,69.5000000000,-3.3125000000,2.7500000000,249.0000000000,image356.jpg,35670.9312890000
0.6666666865,8.0000000000,5,50.8680971667,-0.0983450000,69.5000000000,-0.9375000000,6.5625000000,250.3750000000,image357.jpg,35806.2256640000
0.7607843280,9.0000000000,2,50.8680971667,-0.0983456667,69.5000000000,1.5625000000,4.8750000000,249.8125000000,image358.jpg,35871.5133720000
0.7686274648,16.0000000000,2,50.8680978333,-0.0983461667,69.5000000000,-1.7500000000,4.8750000000,249.7500000000,image359.jpg,36009.2993620000
0.7764706016,19.0000000000,2,50.8680983333,-0.0983460000,69.5000000000,-1.4375000000,3.4375000000,249.8750000000,image360.jpg,36071.0346740000
0.7607843280,14.0000000000,2,50.8680990000,-0.0983463333,69.5000000000,-1.8125000000,3.1875000000,250.7500000000,image361.jpg,36208.5413410000
0.6666666865,5.0000000000,2,50.8680995000,-0.0983468333,69.5000000000,-1.8750000000,0.3125000000,252.3125000000,image362.jpg,36271.2049340000
0.7529411912,0.0000000000,2,50.8680998333,-0.0983470000,69.5000000000,-1.8125000000,1.0000000000,254.1250000000,image363.jpg,36408.3847780000
0.7529411912,1.0000000000,5,50.8681003333,-0.0983476667,69.5000000000,-4.3750000000,2.0000000000,254.0625000000,image364.jpg,36471.4638930000
0.7686274648,0.0000000000,2,50.8681006667,-0.0983475000,69.5000000000,-1.7500000000,0.0000000000,253.5000000000,image365.jpg,36608.8175910000
0.7529411912,0.0000000000,2,50.8681010000,-0.0983481667,69.6000000000,-2.9375000000,2.4375000000,253.3125000000,image366.jpg,36676.1255070000
0.7529411912,0.0000000000,2,50.8681015000,-0.0983480000,69.6000000000,-2.8750000000,5.5000000000,253.1875000000,image367.jpg,36809.0955070000
0.7215686440,-1.0000000000,2,50.8681018333,-0.0983480000,69.6000000000,-5.3750000000,5.5000000000,252.1875000000,image368.jpg,36877.8855070000
0.7137255073,-5.0000000000,2,50.8681026667,-0.0983488333,69.6000000000,-8.6875000000,6.0625000000,252.8125000000,image369.jpg,37008.4277990000
0.7058823705,-10.0000000000,2,50.8681031667,-0.0983485000,69.6000000000,-2.5625000000,5.0625000000,253.6875000000,image370.jpg,37076.3372260000
0.7607843280,-10.0000000000,2,50.8681031667,-0.0983490000,69.6000000000,-1.7500000000,7.8125000000,250.8125000000,image371.jpg,37207.8089450000
0.7529411912,-8.0000000000,2,50.8681033333,-0.0983491667,69.6000000000,-4.1250000000,6.8750000000,250.6250000000,image372.jpg,37276.0557670000
0.7529411912,-6.0000000000,2,50.8681036667,-0.0983491667,69.5000000000,-0.1875000000,9.0625000000,249.7500000000,image373.jpg,37408.6655070000
0.7215686440,-2.0000000000,2,50.8681043333,-0.0983493333,69.5000000000,-0.1250000000,8.6875000000,248.3750000000,image374.jpg,37477.9570170000
0.7372549176,0.0000000000,2,50.8681046667,-0.0983496667,69.6000000000,-1.4375000000,8.0000000000,247.5000000000,image375.jpg,37606.8147780000
0.7294117808,0.0000000000,2,50.8681051667,-0.0983498333,69.7000000000,0.0000000000,6.0000000000,247.9375000000,image376.jpg,37676.2605070000
0.6980392337,0.0000000000,2,50.8681056667,-0.0983503333,69.6000000000,0.0000000000,8.2500000000,247.0000000000,image377.jpg,37810.7026940000
0.7372549176,0.0000000000,2,50.8681061667,-0.0983505000,69.6000000000,-1.0000000000,9.3750000000,246.8125000000,image378.jpg,37875.8964440000
0.7450980544,0.0000000000,2,50.8681065000,-0.0983508333,69.6000000000,0.1875000000,7.1250000000,247.1250000000,image379.jpg,38008.1517050000
0.7058823705,0.0000000000,2,50.8681070000,-0.0983515000,69.6000000000,-0.6250000000,6.5000000000,246.8750000000,image380.jpg,38077.5111320000
0.7137255073,2.0000000000,2,50.8681075000,-0.0983515000,69.6000000000,0.3750000000,7.8750000000,247.5000000000,image381.jpg,38207.0478500000
0.7215686440,1.0000000000,2,50.8681076667,-0.0983510000,69.6000000000,2.8125000000,9.1250000000,246.4375000000,image382.jpg,38276.1127460000
0.7607843280,0.0000000000,2,50.8681080000,-0.0983513333,69.6000000000,1.5000000000,6.2500000000,244.9375000000,image383.jpg,38407.0019650000
0.7529411912,2.0000000000,2,50.8681085000,-0.0983501667,69.7000000000,0.0000000000,5.3125000000,244.9375000000,image384.jpg,38476.2860790000
0.7529411912,0.0000000000,2,50.8681088333,-0.0983501667,69.7000000000,1.1875000000,6.3125000000,244.8125000000,image385.jpg,38608.6803500000
0.7529411912,3.0000000000,2,50.8681093333,-0.0983503333,69.7000000000,0.3125000000,6.8125000000,244.1250000000,image386.jpg,38676.0818090000
0.7607843280,4.0000000000,2,50.8681096667,-0.0983506667,69.7000000000,-0.1250000000,7.2500000000,244.7500000000,image387.jpg,38808.9415480000
0.7686274648,10.0000000000,2,50.8681100000,-0.0983505000,69.7000000000,-0.1250000000,7.8750000000,244.6875000000,image388.jpg,38876.5300900000
0.7215686440,12.0000000000,2,50.8681105000,-0.0983513333,69.7000000000,3.6875000000,9.0000000000,245.2500000000,image389.jpg,39008.4255060000
0.7607843280,11.0000000000,2,50.8681106667,-0.0983523333,69.8000000000,3.8750000000,10.6875000000,246.1875000000,image390.jpg,39076.5670690000
0.7607843280,10.0000000000,2,50.8681113333,-0.0983525000,69.8000000000,4.4375000000,9.6875000000,247.7500000000,image391.jpg,39212.7297250000
0.7215686440,11.0000000000,2,50.8681120000,-0.0983535000,69.8000000000,4.4375000000,10.4375000000,248.1250000000,image392.jpg,39274.8260790000
0.7450980544,18.0000000000,2,50.8681123333,-0.0983535000,69.8000000000,8.1875000000,11.4375000000,249.9375000000,image393.jpg,39411.4456620000
0.6666666865,15.0000000000,5,50.8681126667,-0.0983536667,69.8000000000,9.4375000000,11.7500000000,251.0000000000,image394.jpg,39474.5018600000
0.7450980544,12.0000000000,5,50.8681133333,-0.0983543333,69.8000000000,4.0625000000,9.5625000000,252.3750000000,image395.jpg,39612.4341000000
0.7450980544,14.0000000000,5,50.8681138333,-0.0983538333,69.8000000000,3.0000000000,9.3125000000,253.0000000000,image396.jpg,39675.1229540000
0.7529411912,3.0000000000,5,50.8681143333,-0.0983536667,69.8000000000,4.6875000000,10.1875000000,253.9375000000,image397.jpg,39812.8557660000
0.7607843280,-2.0000000000,5,50.8681148333,-0.0983543333,69.8000000000,4.4375000000,8.8125000000,254.7500000000,image398.jpg,39874.9514960000
0.7607843280,-4.0000000000,5,50.8681156667,-0.0983546667,69.8000000000,5.2500000000,9.9375000000,255.6250000000,image399.jpg,40013.1218080000
0.7607843280,-4.0000000000,2,50.8681158333,-0.0983545000,69.8000000000,5.1250000000,9.2500000000,256.0000000000,image400.jpg,40075.0322250000
0.7058823705,5.0000000000,2,50.8681163333,-0.0983548333,69.9000000000,2.9375000000,10.1250000000,253.4375000000,image401.jpg,40219.3489950000
0.7529411912,9.0000000000,2,50.8681168333,-0.0983548333,69.9000000000,1.0000000000,8.9375000000,254.6875000000,image402.jpg,40276.3936310000
0.7529411912,16.0000000000,2,50.8681173333,-0.0983553333,69.9000000000,1.0625000000,7.9375000000,254.3125000000,image403.jpg,40413.8131100000
0.6980392337,16.0000000000,5,50.8681178333,-0.0983555000,69.9000000000,0.8125000000,8.5000000000,254.8750000000,image404.jpg,40474.9758700000
0.7529411912,0.0000000000,5,50.8681181667,-0.0983555000,70.0000000000,1.5000000000,6.7500000000,257.8125000000,image405.jpg,40611.8973290000
0.7058823705,-4.0000000000,5,50.8681185000,-0.0983558333,70.0000000000,0.9375000000,6.8125000000,258.1875000000,image406.jpg,40681.1493600000
0.7529411912,-10.0000000000,2,50.8681190000,-0.0983555000,70.0000000000,1.3750000000,8.0625000000,258.3125000000,image407.jpg,40811.7029540000
0.7529411912,-10.0000000000,2,50.8681193333,-0.0983560000,70.1000000000,-1.0000000000,9.6875000000,257.9375000000,image408.jpg,40879.1764950000
0.7529411912,-4.0000000000,2,50.8681195000,-0.0983556667,70.1000000000,-3.0625000000,8.8125000000,256.5625000000,image409.jpg,41011.5613390000
0.7529411912,0.0000000000,2,50.8681201667,-0.0983558333,70.0000000000,-2.4375000000,8.5625000000,255.8125000000,image410.jpg,41080.1437350000
0.7529411912,-1.0000000000,2,50.8681203333,-0.0983560000,70.0000000000,-0.8750000000,6.7500000000,255.0625000000,image411.jpg,41211.8546720000
0.7607843280,-2.0000000000,2,50.8681211667,-0.0983568333,70.0000000000,-1.7500000000,8.3125000000,255.0625000000,image412.jpg,41279.9559740000
0.6745098233,19.0000000000,2,50.8681215000,-0.0983568333,70.0000000000,-4.1250000000,6.7500000000,254.1875000000,image413.jpg,41412.7625370000
0.7686274648,24.0000000000,2,50.8681218333,-0.0983571667,70.0000000000,-4.5625000000,7.1250000000,253.8125000000,image414.jpg,41480.1365990000
0.7607843280,33.0000000000,2,50.8681223333,-0.0983576667,70.0000000000,-1.8125000000,7.4375000000,255.6250000000,image415.jpg,41613.3065470000
0.6901960969,35.0000000000,2,50.8681228333,-0.0983578333,70.0000000000,0.0000000000,7.1875000000,257.5000000000,image416.jpg,41680.1253490000
0.7607843280,33.0000000000,2,50.8681235000,-0.0983581667,70.1000000000,2.0000000000,5.8125000000,260.5625000000,image417.jpg,41811.3551410000
0.6745098233,34.0000000000,2,50.8681240000,-0.0983585000,70.1000000000,1.7500000000,4.2500000000,262.8750000000,image418.jpg,41881.1660780000
0.7607843280,-1.0000000000,2,50.8681245000,-0.0983583333,70.1000000000,-1.4375000000,4.1250000000,265.2500000000,image419.jpg,42009.8414950000
0.7607843280,-2.0000000000,2,50.8681250000,-0.0983580000,70.1000000000,-2.2500000000,4.9375000000,267.0625000000,image420.jpg,42077.4939430000
0.7686274648,-26.0000000000,2,50.8681253333,-0.0983575000,70.2000000000,-1.3125000000,4.6875000000,268.6250000000,image421.jpg,42216.9617030000
0.7529411912,-27.0000000000,2,50.8681253333,-0.0983575000,70.1000000000,-2.6875000000,2.3125000000,267.7500000000,image422.jpg,42279.2515470000
