speed,steering angle,gps quality,lat,lon,altitude,roll,pitch,yaw,image name,timestamp
0.0392156877,3.0000000000,5,50.8680155000,-0.0982343333,74.2000000000,3.6250000000,-1.4375000000,0.0000000000,image0.jpg,44.6392710000
0.0470588244,3.0000000000,5,50.8680155000,-0.0982350000,74.2000000000,3.6250000000,-1.4375000000,0.0000000000,image1.jpg,173.7721880000
0.0392156877,6.0000000000,nan,nan,nan,nan,3.6250000000,-1.4375000000,0.0000000000,image2.jpg,241.9214580000
0.0235294122,3.0000000000,5,50.8680156667,-0.0982351667,74.2000000000,3.6250000000,-1.4375000000,0.0000000000,image3.jpg,308.3755210000
0.0549019612,3.0000000000,5,50.8680156667,-0.0982351667,74.2000000000,3.6250000000,-1.4375000000,0.0000000000,image4.jpg,440.3083850000
0.0392156877,4.0000000000,5,50.8680155000,-0.0982351667,74.2000000000,3.6250000000,-1.4375000000,0.0000000000,image5.jpg,503.6448440000
0.0392156877,3.0000000000,5,50.8680155000,-0.0982351667,74.2000000000,3.6250000000,-1.4375000000,0.0000000000,image6.jpg,642.9620310000
0.0392156877,3.0000000000,5,50.8680155000,-0.0982351667,74.2000000000,3.6250000000,-1.4375000000,0.0000000000,image7.jpg,704.8478640000
0.0627451017,3.0000000000,5,50.8680156667,-0.0982351667,74.2000000000,3.6250000000,-1.3750000000,0.0000000000,image8.jpg,841.2495830000
0.0627451017,3.0000000000,5,50.8680156667,-0.0982351667,74.2000000000,3.6250000000,-1.3750000000,359.9375000000,image9.jpg,903.3911460000
0.0235294122,3.0000000000,5,50.8680156667,-0.0982351667,74.2000000000,3.6250000000,-1.4375000000,0.0000000000,image10.jpg,1043.0777600000
0.0784313753,3.0000000000,5,50.8680156667,-0.0982351667,74.2000000000,3.6250000000,-1.4375000000,0.0000000000,image11.jpg,1104.2418750000
0.0862745121,3.0000000000,5,50.8680156667,-0.0982351667,74.2000000000,3.6250000000,-1.4375000000,0.0000000000,image12.jpg,1242.0656770000
0.0313725509,3.0000000000,5,50.8680156667,-0.0982353333,74.2000000000,3.6250000000,-1.3750000000,0.0000000000,image13.jpg,1304.3064580000
0.0941176489,5.0000000000,5,50.8680156667,-0.0982353333,74.2000000000,3.6250000000,-1.4375000000,0.0000000000,image14.jpg,1440.3751040000
0.0941176489,4.0000000000,5,50.8680156667,-0.0982351667,74.2000000000,3.6250000000,-1.4375000000,0.0000000000,image15.jpg,1508.2519270000
0.0784313753,6.0000000000,5,50.8680156667,-0.0982353333,74.2000000000,3.5625000000,-1.4375000000,359.9375000000,image16.jpg,1640.7395830000
0.0784313753,7.0000000000,5,50.8680156667,-0.0982355000,74.2000000000,3.6875000000,-1.4375000000,0.0625000000,image17.jpg,1708.9135410000
0.0862745121,7.0000000000,5,50.8680156667,-0.0982353333,74.2000000000,3.6250000000,-1.4375000000,0.0000000000,image18.jpg,1840.9263020000
0.1568627506,7.0000000000,5,50.8680156667,-0.0982353333,74.2000000000,3.6250000000,-1.4375000000,0.0000000000,image19.jpg,1909.2089060000
0.1803921610,8.0000000000,5,50.8680156667,-0.0982353333,74.2000000000,3.6875000000,-1.3750000000,0.0625000000,image20.jpg,2042.4204160000
0.2039215714,8.0000000000,5,50.8680156667,-0.0982355000,74.2000000000,3.6875000000,-1.3750000000,0.0625000000,image21.jpg,2108.2013010000
0.1568627506,8.0000000000,5,50.8680158333,-0.0982355000,74.2000000000,3.6875000000,-1.3750000000,0.1250000000,image22.jpg,2240.2159370000
0.2274509817,8.0000000000,5,50.8680156667,-0.0982355000,74.2000000000,3.6875000000,-1.3750000000,0.0625000000,image23.jpg,2307.5590620000
0.2431372553,8.0000000000,5,50.8680158333,-0.0982355000,74.2000000000,3.8125000000,-1.3125000000,0.0000000000,image24.jpg,2441.7169780000
0.1647058874,9.0000000000,5,50.8680158333,-0.0982355000,74.2000000000,4.0000000000,-1.3125000000,0.0000000000,image25.jpg,2507.9026030000
0.2901960909,8.0000000000,5,50.8680158333,-0.0982356667,74.2000000000,4.1250000000,-1.3125000000,0.0000000000,image26.jpg,2640.3732280000
0.2980392277,8.0000000000,5,50.8680158333,-0.0982356667,74.2000000000,4.2500000000,-1.2500000000,359.9375000000,image27.jpg,2707.3508850000
0.3137255013,7.0000000000,5,50.8680158333,-0.0982355000,74.2000000000,4.3750000000,-1.1250000000,0.0625000000,image28.jpg,2841.6448430000
0.3137255013,7.0000000000,5,50.8680158333,-0.0982356667,74.2000000000,4.5000000000,-1.3125000000,359.9375000000,image29.jpg,2908.0257800000
0.3294117749,8.0000000000,5,50.8680156667,-0.0982358333,74.2000000000,4.8750000000,-1.5000000000,0.1875000000,image30.jpg,3040.1549990000
0.3450980484,8.0000000000,5,50.8680156667,-0.0982358333,74.2000000000,4.8750000000,-1.6875000000,0.6875000000,image31.jpg,3107.4404680000
0.3921568692,8.0000000000,5,50.8680156667,-0.0982360000,74.2000000000,5.3750000000,-2.3125000000,1.0625000000,image32.jpg,3240.1734360000
0.3921568692,7.0000000000,5,50.8680155000,-0.0982361667,74.2000000000,5.4375000000,-2.6875000000,1.0625000000,image33.jpg,3309.8092180000
0.3686274588,7.0000000000,5,50.8680153333,-0.0982363333,74.2000000000,5.5625000000,-3.5000000000,1.3750000000,image34.jpg,3441.3581760000
0.4078431427,7.0000000000,5,50.8680151667,-0.0982366667,74.2000000000,5.3125000000,-4.1250000000,1.4375000000,image35.jpg,3507.4885930000
0.4078431427,8.0000000000,5,50.8680150000,-0.0982368333,74.2000000000,3.2500000000,-5.2500000000,2.0000000000,image36.jpg,3641.6515610000
0.3686274588,9.0000000000,5,50.8680146667,-0.0982373333,74.2000000000,2.6250000000,-5.8125000000,2.3125000000,image37.jpg,3708.5382280000
0.4078431427,6.0000000000,5,50.8680145000,-0.0982376667,74.2000000000,4.6875000000,-6.6875000000,2.5625000000,image38.jpg,3841.8908840000
0.4078431427,5.0000000000,5,50.8680143333,-0.0982378333,74.2000000000,5.3125000000,-6.7500000000,2.5000000000,image39.jpg,3908.1588010000
0.3764705956,4.0000000000,5,50.8680141667,-0.0982380000,74.2000000000,5.4375000000,-7.6875000000,2.1250000000,image40.jpg,4044.4079670000
0.4078431427,5.0000000000,5,50.8680138333,-0.0982383333,74.2000000000,4.3750000000,-7.7500000000,2.1875000000,image41.jpg,4108.0632800000
0.4078431427,4.0000000000,5,50.8680135000,-0.0982388333,74.2000000000,3.4375000000,-7.0000000000,2.5000000000,image42.jpg,4245.4200510000
0.4235294163,4.0000000000,5,50.8680133333,-0.0982391667,74.2000000000,4.0625000000,-6.6250000000,2.5000000000,image43.jpg,4307.8443210000
0.4078431427,6.0000000000,5,50.8680131667,-0.0982391667,74.2000000000,4.5000000000,-6.7500000000,2.3125000000,image44.jpg,4444.9971340000
0.3686274588,4.0000000000,5,50.8680128333,-0.0982395000,74.2000000000,3.9375000000,-6.6250000000,2.1250000000,image45.jpg,4508.2844780000
0.3686274588,4.0000000000,5,50.8680126667,-0.0982400000,74.2000000000,2.7500000000,-3.5000000000,2.0625000000,image46.jpg,4645.3051030000
0.4078431427,5.0000000000,5,50.8680125000,-0.0982401667,74.2000000000,2.5625000000,-2.7500000000,2.1875000000,image47.jpg,4707.4140090000
0.4156862795,6.0000000000,5,50.8680123333,-0.0982405000,74.2000000000,3.7500000000,-3.5625000000,3.8750000000,image48.jpg,4845.7895300000
0.3843137324,8.0000000000,5,50.8680120000,-0.0982408333,74.2000000000,5.0000000000,-3.9375000000,3.6250000000,image49.jpg,4908.8851020000
0.4078431427,7.0000000000,5,50.8680118333,-0.0982410000,74.2000000000,8.5000000000,-3.3125000000,3.6875000000,image50.jpg,5049.3260920000
0.4078431427,7.0000000000,5,50.8680115000,-0.0982410000,74.2000000000,8.6875000000,-3.2500000000,3.0000000000,image51.jpg,5108.4824460000
0.3686274588,10.0000000000,5,50.8680113333,-0.0982413333,74.2000000000,7.8125000000,-4.1875000000,3.0000000000,image52.jpg,5248.7560400000
0.4000000060,10.0000000000,5,50.8680111667,-0.0982418333,74.2000000000,8.0625000000,-4.2500000000,3.0625000000,image53.jpg,5309.3492170000
0.4235294163,13.0000000000,5,50.8680110000,-0.0982418333,74.2000000000,5.5625000000,-4.5000000000,4.0000000000,image54.jpg,5444.0038000000
0.4078431427,14.0000000000,5,50.8680108333,-0.0982423333,74.2000000000,3.9375000000,-4.1250000000,4.1250000000,image55.jpg,5512.0510400000
0.4156862795,18.0000000000,5,50.8680106667,-0.0982428333,74.2000000000,3.5000000000,-4.8750000000,4.5625000000,image56.jpg,5644.2046860000
0.3764705956,16.0000000000,5,50.8680105000,-0.0982433333,74.2000000000,4.0625000000,-5.0625000000,4.7500000000,image57.jpg,5711.8149980000
0.4235294163,16.0000000000,5,50.8680103333,-0.0982431667,74.2000000000,5.6875000000,-5.0000000000,5.3750000000,image58.jpg,5844.8701020000
0.4235294163,14.0000000000,5,50.8680101667,-0.0982435000,74.2000000000,6.8125000000,-4.6250000000,5.6250000000,image59.jpg,5912.0982270000
0.4470588267,12.0000000000,5,50.8680098333,-0.0982436667,74.2000000000,7.6875000000,-5.3750000000,5.8750000000,image60.jpg,6044.7315080000
0.4392156899,12.0000000000,5,50.8680095000,-0.0982438333,74.2000000000,7.7500000000,-5.7500000000,6.6250000000,image61.jpg,6111.6936960000
0.4313725531,6.0000000000,5,50.8680091667,-0.0982441667,74.2000000000,7.3750000000,-5.6875000000,8.1250000000,image62.jpg,6244.7222890000
0.4392156899,4.0000000000,5,50.8680090000,-0.0982446667,74.2000000000,7.5000000000,-5.7500000000,8.2500000000,image63.jpg,6312.1740600000
0.3764705956,0.0000000000,5,50.8680088333,-0.0982450000,74.1000000000,6.8750000000,-4.0000000000,7.5625000000,image64.jpg,6444.9532270000
0.4392156899,0.0000000000,5,50.8680086667,-0.0982451667,74.1000000000,5.7500000000,-2.6250000000,6.8750000000,image65.jpg,6511.6957790000
0.4392156899,0.0000000000,5,50.8680086667,-0.0982456667,74.1000000000,6.0000000000,-2.8750000000,7.1875000000,image66.jpg,6644.9880710000
0.4313725531,0.0000000000,5,50.8680083333,-0.0982458333,74.1000000000,7.2500000000,-2.5000000000,7.0000000000,image67.jpg,6711.9392160000
0.4627451003,1.0000000000,5,50.8680081667,-0.0982458333,74.1000000000,6.6250000000,-1.9375000000,7.1875000000,image68.jpg,6844.8958830000
0.4470588267,0.0000000000,5,50.8680081667,-0.0982458333,74.1000000000,6.7500000000,-1.6875000000,7.1875000000,image69.jpg,6914.3065600000
0.5254902244,0.0000000000,5,50.8680078333,-0.0982461667,74.1000000000,7.6250000000,-0.0625000000,7.1250000000,image70.jpg,7043.0585390000
0.5411764979,0.0000000000,5,50.8680076667,-0.0982466667,74.1000000000,8.8125000000,0.4375000000,6.7500000000,image71.jpg,7112.4361430000
0.5254902244,0.0000000000,5,50.8680075000,-0.0982468333,74.1000000000,7.6875000000,1.9375000000,5.5000000000,image72.jpg,7243.3089560000
0.5254902244,1.0000000000,5,50.8680071667,-0.0982471667,74.1000000000,4.6875000000,2.9375000000,5.8750000000,image73.jpg,7313.4223930000
0.5254902244,0.0000000000,5,50.8680071667,-0.0982476667,74.1000000000,3.3125000000,3.0625000000,6.1250000000,image74.jpg,7444.5481220000
0.5254902244,0.0000000000,5,50.8680068333,-0.0982480000,74.1000000000,3.5625000000,2.4375000000,5.8750000000,image75.jpg,7513.9557260000
0.4784313738,1.0000000000,5,50.8680063333,-0.0982485000,74.1000000000,5.0000000000,1.7500000000,6.1250000000,image76.jpg,7645.2805700000
0.5490196347,0.0000000000,5,50.8680060000,-0.0982486667,74.1000000000,6.1875000000,1.0625000000,5.6875000000,image77.jpg,7713.1961950000
0.5490196347,0.0000000000,5,50.8680056667,-0.0982488333,74.1000000000,5.1875000000,0.1250000000,5.2500000000,image78.jpg,7844.7310910000
0.5647059083,1.0000000000,5,50.8680055000,-0.0982493333,74.1000000000,6.3125000000,-1.1250000000,5.1875000000,image79.jpg,7913.2912470000
0.5647059083,1.0000000000,5,50.8680053333,-0.0982496667,74.1000000000,8.8125000000,-1.6250000000,4.8750000000,image80.jpg,8048.0632780000
0.5098039508,1.0000000000,5,50.8680050000,-0.0982498333,74.1000000000,7.7500000000,-1.1875000000,3.8750000000,image81.jpg,8112.9751010000
0.5803921819,0.0000000000,5,50.8680045000,-0.0982506667,74.1000000000,6.0625000000,-1.1250000000,3.2500000000,image82.jpg,8248.8494760000
0.5803921819,-1.0000000000,5,50.8680043333,-0.0982510000,74.1000000000,5.8750000000,-0.7500000000,4.0625000000,image83.jpg,8311.9318200000
0.5647059083,-1.0000000000,5,50.8680041667,-0.0982511667,74.1000000000,6.9375000000,-0.3750000000,3.5000000000,image84.jpg,8449.4133300000
0.5647059083,-1.0000000000,5,50.8680038333,-0.0982516667,74.1000000000,5.8750000000,0.3750000000,3.6250000000,image85.jpg,8512.3992680000
0.5647059083,-1.0000000000,5,50.8680035000,-0.0982520000,74.1000000000,4.8125000000,1.3125000000,3.8750000000,image86.jpg,8648.6571840000
0.5647059083,-1.0000000000,5,50.8680033333,-0.0982526667,74.1000000000,7.3750000000,2.8125000000,3.0000000000,image87.jpg,8712.1328610000
0.4862745106,-1.0000000000,5,50.8680028333,-0.0982528333,74.1000000000,7.3125000000,3.6875000000,3.1250000000,image88.jpg,8848.5790590000
0.5647059083,-2.0000000000,5,50.8680025000,-0.0982531667,74.1000000000,8.0000000000,3.8125000000,3.1875000000,image89.jpg,8912.7347360000
0.5647059083,-2.0000000000,5,50.8680023333,-0.0982533333,74.2000000000,9.1250000000,3.6875000000,2.8125000000,image90.jpg,9047.9560900000
0.5882353187,-1.0000000000,5,50.8680021667,-0.0982535000,74.2000000000,8.8125000000,3.7500000000,2.3750000000,image91.jpg,9113.6449450000
0.6274510026,-2.0000000000,5,50.8680018333,-0.0982540000,74.2000000000,6.6250000000,3.0625000000,1.5625000000,image92.jpg,9247.7583300000
0.5960784554,0.0000000000,5,50.8680013333,-0.0982543333,74.2000000000,5.5625000000,2.5000000000,1.2500000000,image93.jpg,9312.9913510000
0.6352941394,-2.0000000000,5,50.8680010000,-0.0982550000,74.2000000000,3.8125000000,1.6250000000,1.0625000000,image94.jpg,9446.9612990000
0.6352941394,-2.0000000000,5,50.8680006667,-0.0982553333,74.1000000000,5.4375000000,1.6875000000,1.5000000000,image95.jpg,9517.0448400000
0.6352941394,-2.0000000000,5,50.8680001667,-0.0982555000,74.1000000000,5.9375000000,0.8750000000,1.8125000000,image96.jpg,9648.2129130000
0.6509804130,-2.0000000000,5,50.8679998333,-0.0982561667,74.1000000000,6.1250000000,1.3125000000,0.9375000000,image97.jpg,9717.4190590000
0.6901960969,-1.0000000000,5,50.8679995000,-0.0982566667,74.1000000000,5.5000000000,1.1875000000,0.5000000000,image98.jpg,9848.8704650000
0.6509804130,-1.0000000000,5,50.8679990000,-0.0982573333,74.1000000000,5.6875000000,1.3750000000,359.9375000000,image99.jpg,9917.6711940000
0.6745098233,9.0000000000,5,50.8679980000,-0.0982583333,74.1000000000,5.8750000000,2.2500000000,0.0000000000,image100.jpg,10229.6719230000
0.6745098233,12.0000000000,5,50.8679975000,-0.0982590000,74.1000000000,7.0625000000,2.9375000000,359.6875000000,image101.jpg,10317.4729650000
0.6431372762,18.0000000000,5,50.8679968333,-0.0982591667,74.1000000000,6.5625000000,3.2500000000,359.4375000000,image102.jpg,10383.6927050000
0.6509804130,22.0000000000,5,50.8679965000,-0.0982593333,74.1000000000,9.1875000000,3.3750000000,1.0000000000,image103.jpg,10515.0928610000
0.6745098233,25.0000000000,nan,nan,nan,nan,9.5625000000,4.0625000000,0.7500000000,image104.jpg,10581.5894230000
0.6745098233,25.0000000000,nan,nan,nan,nan,8.0000000000,4.3750000000,1.5625000000,image105.jpg,10647.4765070000
0.6745098233,26.0000000000,5,50.8679958333,-0.0982601667,74.1000000000,7.0000000000,4.6875000000,3.1250000000,image106.jpg,10716.0124960000
0.6352941394,27.0000000000,5,50.8679956667,-0.0982608333,74.1000000000,7.2500000000,3.5000000000,5.0625000000,image107.jpg,10848.1933290000
0.6745098233,27.0000000000,5,50.8679953333,-0.0982615000,74.1000000000,9.1250000000,2.6250000000,6.8125000000,image108.jpg,10915.7529650000
0.6745098233,25.0000000000,5,50.8679945000,-0.0982621667,74.2000000000,7.8125000000,4.1875000000,9.6875000000,image109.jpg,11047.5197880000
0.6509804130,24.0000000000,5,50.8679941667,-0.0982626667,74.2000000000,8.3750000000,3.8750000000,11.1250000000,image110.jpg,11116.4166630000
0.6745098233,14.0000000000,5,50.8679941667,-0.0982630000,74.2000000000,8.6875000000,2.4375000000,13.4375000000,image111.jpg,11247.8579650000
0.6431372762,4.0000000000,5,50.8679936667,-0.0982636667,74.2000000000,8.3750000000,1.8750000000,14.6875000000,image112.jpg,11316.8484330000
0.6745098233,0.0000000000,5,50.8679936667,-0.0982643333,74.2000000000,7.8750000000,2.3125000000,16.3125000000,image113.jpg,11448.5135900000
0.6745098233,2.0000000000,5,50.8679933333,-0.0982650000,74.2000000000,7.2500000000,2.5625000000,16.7500000000,image114.jpg,11517.1284850000
0.6901960969,6.0000000000,5,50.8679930000,-0.0982656667,74.2000000000,6.9375000000,2.2500000000,15.0000000000,image115.jpg,11647.8545270000
0.6745098233,13.0000000000,5,50.8679925000,-0.0982663333,74.2000000000,6.8750000000,2.1875000000,15.8750000000,image116.jpg,11716.4295790000
0.6745098233,18.0000000000,5,50.8679921667,-0.0982670000,74.2000000000,6.5625000000,1.0000000000,16.1875000000,image117.jpg,11849.3683290000
0.6745098233,22.0000000000,5,50.8679918333,-0.0982675000,74.1000000000,6.4375000000,2.0000000000,16.5625000000,image118.jpg,11916.8571830000
0.6352941394,25.0000000000,5,50.8679915000,-0.0982681667,74.2000000000,10.3125000000,2.8750000000,17.6250000000,image119.jpg,12052.3221830000
0.6745098233,25.0000000000,5,50.8679911667,-0.0982688333,74.2000000000,8.0625000000,2.1250000000,17.5625000000,image120.jpg,12117.3056730000
0.6745098233,25.0000000000,5,50.8679908333,-0.0982696667,74.2000000000,4.6250000000,2.2500000000,21.8125000000,image121.jpg,12251.6841100000
0.6352941394,25.0000000000,5,50.8679908333,-0.0982700000,74.2000000000,5.5625000000,1.1250000000,22.9375000000,image122.jpg,12315.6737980000
0.6745098233,24.0000000000,5,50.8679905000,-0.0982710000,74.2000000000,5.5000000000,2.3125000000,24.3125000000,image123.jpg,12452.4933810000
0.5882353187,19.0000000000,5,50.8679903333,-0.0982720000,74.2000000000,2.6250000000,2.7500000000,25.1250000000,image124.jpg,12516.2024950000
0.6745098233,4.0000000000,5,50.8679903333,-0.0982726667,74.2000000000,6.6250000000,2.0000000000,28.6875000000,image125.jpg,12652.6454120000
0.6745098233,1.0000000000,5,50.8679900000,-0.0982731667,74.2000000000,9.6250000000,0.5625000000,27.8750000000,image126.jpg,12716.2278600000
0.6745098233,-1.0000000000,5,50.8679895000,-0.0982735000,74.2000000000,5.0000000000,1.5000000000,26.8750000000,image127.jpg,12852.8668700000
0.6745098233,3.0000000000,5,50.8679896667,-0.0982743333,74.2000000000,2.9375000000,3.9375000000,27.1875000000,image128.jpg,12918.2662450000
0.6745098233,6.0000000000,2,50.8679896667,-0.0982751667,74.2000000000,4.1250000000,6.2500000000,26.1250000000,image129.jpg,13051.8086410000
0.6745098233,0.0000000000,2,50.8679893333,-0.0982755000,74.2000000000,4.3750000000,5.8750000000,26.0625000000,image130.jpg,13116.5871310000
0.6274510026,0.0000000000,2,50.8679890000,-0.0982760000,74.2000000000,5.3125000000,3.1250000000,26.0000000000,image131.jpg,13251.9673910000
0.6980392337,0.0000000000,2,50.8679888333,-0.0982766667,74.2000000000,5.5625000000,3.1250000000,26.0625000000,image132.jpg,13316.5284850000
0.6901960969,6.0000000000,5,50.8679883333,-0.0982775000,74.2000000000,5.0625000000,3.0000000000,26.0000000000,image133.jpg,13451.9317660000
0.6352941394,7.0000000000,5,50.8679881667,-0.0982781667,74.2000000000,5.4375000000,0.6250000000,25.5000000000,image134.jpg,13520.4001510000
0.6823529601,13.0000000000,5,50.8679878333,-0.0982790000,74.2000000000,2.8750000000,-1.1250000000,26.1875000000,image135.jpg,13651.8889530000
0.6352941394,15.0000000000,5,50.8679876667,-0.0982798333,74.2000000000,3.4375000000,0.3750000000,26.1250000000,image136.jpg,13719.8915570000
0.6901960969,22.0000000000,5,50.8679875000,-0.0982803333,74.2000000000,6.4375000000,2.0000000000,27.4375000000,image137.jpg,13852.7653070000
0.6901960969,25.0000000000,5,50.8679871667,-0.0982808333,74.2000000000,4.7500000000,2.8750000000,27.8125000000,image138.jpg,13920.3237450000
0.6901960969,28.0000000000,2,50.8679870000,-0.0982816667,74.2000000000,2.0000000000,3.5000000000,30.3125000000,image139.jpg,14053.5403070000
0.6901960969,30.0000000000,2,50.8679873333,-0.0982820000,74.2000000000,1.8750000000,4.8750000000,32.4375000000,image140.jpg,14119.9472860000
0.6901960969,31.0000000000,2,50.8679870000,-0.0982825000,74.3000000000,2.4375000000,3.0000000000,34.9375000000,image141.jpg,14254.1425470000
0.6901960969,30.0000000000,2,50.8679868333,-0.0982831667,74.2000000000,3.0000000000,2.8125000000,36.9375000000,image142.jpg,14319.8043700000
0.6196078658,32.0000000000,5,50.8679866667,-0.0982838333,74.2000000000,3.4375000000,3.9375000000,39.0000000000,image143.jpg,14454.6514010000
0.6901960969,32.0000000000,5,50.8679868333,-0.0982845000,74.1000000000,2.4375000000,3.8750000000,39.8125000000,image144.jpg,14523.3295260000
0.6901960969,34.0000000000,5,50.8679866667,-0.0982856667,74.1000000000,-0.0625000000,5.0625000000,41.8125000000,image145.jpg,14653.6741610000
0.6039215922,35.0000000000,5,50.8679866667,-0.0982858333,74.2000000000,0.1250000000,6.1875000000,43.3750000000,image146.jpg,14721.2921820000
0.6901960969,34.0000000000,5,50.8679868333,-0.0982861667,74.2000000000,2.0000000000,7.2500000000,45.7500000000,image147.jpg,14853.8607240000
0.6039215922,33.0000000000,5,50.8679866667,-0.0982868333,74.1000000000,3.0625000000,7.0625000000,47.7500000000,image148.jpg,14920.3898900000
0.6901960969,33.0000000000,5,50.8679865000,-0.0982873333,74.2000000000,2.0000000000,8.2500000000,50.6875000000,image149.jpg,15060.2028070000
0.6901960969,34.0000000000,5,50.8679866667,-0.0982880000,74.2000000000,1.6875000000,7.8750000000,51.2500000000,image150.jpg,15119.9618690000
0.6901960969,33.0000000000,5,50.8679868333,-0.0982888333,74.1000000000,2.2500000000,8.8125000000,53.6875000000,image151.jpg,15252.0885880000
0.6901960969,34.0000000000,5,50.8679868333,-0.0982891667,74.1000000000,2.8750000000,8.1250000000,55.3750000000,image152.jpg,15318.5960880000
0.6901960969,35.0000000000,5,50.8679870000,-0.0982900000,74.1000000000,2.6250000000,7.9375000000,57.7500000000,image153.jpg,15452.2356710000
0.6901960969,33.0000000000,5,50.8679870000,-0.0982906667,74.1000000000,2.8125000000,8.6875000000,59.2500000000,image154.jpg,15519.9621300000
0.6509804130,34.0000000000,5,50.8679871667,-0.0982915000,74.1000000000,3.5000000000,8.4375000000,61.6875000000,image155.jpg,15652.4218170000
0.6980392337,33.0000000000,2,50.8679871667,-0.0982921667,74.1000000000,3.1875000000,8.5625000000,63.3750000000,image156.jpg,15721.1502030000
0.6901960969,33.0000000000,2,50.8679873333,-0.0982928333,74.1000000000,2.3125000000,6.8750000000,64.5625000000,image157.jpg,15852.5216090000
0.6666666865,33.0000000000,2,50.8679873333,-0.0982936667,74.1000000000,0.7500000000,5.2500000000,65.3750000000,image158.jpg,15920.2575460000
0.6980392337,33.0000000000,2,50.8679875000,-0.0982941667,74.1000000000,0.1875000000,4.7500000000,69.6875000000,image159.jpg,16055.8676500000
0.6823529601,34.0000000000,2,50.8679876667,-0.0982946667,74.1000000000,-0.5000000000,5.5625000000,70.6875000000,image160.jpg,16120.3421290000
0.6823529601,34.0000000000,2,50.8679878333,-0.0982953333,74.1000000000,-1.1875000000,6.0000000000,73.9375000000,image161.jpg,16256.7579110000
0.7215686440,34.0000000000,2,50.8679881667,-0.0982958333,74.1000000000,-0.5625000000,5.7500000000,75.0000000000,image162.jpg,16320.1233270000
0.7058823705,34.0000000000,5,50.8679883333,-0.0982965000,74.1000000000,-0.1250000000,4.4375000000,77.0000000000,image163.jpg,16457.1702020000
0.7450980544,34.0000000000,5,50.8679886667,-0.0982973333,74.2000000000,-1.8125000000,6.0625000000,78.4375000000,image164.jpg,16521.7810360000
0.7450980544,34.0000000000,5,50.8679890000,-0.0982976667,74.1000000000,-2.1250000000,6.9375000000,82.8125000000,image165.jpg,16657.0231190000
0.7215686440,34.0000000000,5,50.8679891667,-0.0982983333,74.1000000000,-1.4375000000,7.0625000000,84.1875000000,image166.jpg,16720.3143690000
0.7450980544,35.0000000000,5,50.8679895000,-0.0982991667,74.2000000000,-0.5000000000,7.3125000000,87.5000000000,image167.jpg,16857.6662960000
0.7450980544,34.0000000000,5,50.8679898333,-0.0982998333,74.1000000000,0.8750000000,7.0000000000,88.9375000000,image168.jpg,16921.0918690000
0.7450980544,34.0000000000,5,50.8679900000,-0.0983003333,74.1000000000,-0.8750000000,3.2500000000,92.1250000000,image169.jpg,17056.6223900000
0.7450980544,35.0000000000,5,50.8679905000,-0.0983010000,74.1000000000,0.5000000000,4.5625000000,94.1875000000,image170.jpg,17121.2987440000
0.7529411912,34.0000000000,5,50.8679910000,-0.0983016667,74.2000000000,-1.1250000000,3.8750000000,96.2500000000,image171.jpg,17255.6285870000
0.7450980544,33.0000000000,5,50.8679911667,-0.0983023333,74.2000000000,-1.5000000000,4.3750000000,98.5625000000,image172.jpg,17320.9755660000
0.7058823705,33.0000000000,5,50.8679918333,-0.0983026667,74.2000000000,-1.6250000000,4.3750000000,102.3125000000,image173.jpg,17456.0076500000
0.7450980544,34.0000000000,5,50.8679923333,-0.0983030000,74.1000000000,-3.8750000000,4.3125000000,103.8750000000,image174.jpg,17524.6900460000
0.7058823705,17.0000000000,5,50.8679926667,-0.0983033333,74.1000000000,-3.7500000000,2.6875000000,107.0625000000,image175.jpg,17656.2687960000
0.7372549176,9.0000000000,5,50.8679933333,-0.0983038333,74.2000000000,-2.6250000000,1.4375000000,109.1250000000,image176.jpg,17725.9567640000
0.7372549176,11.0000000000,5,50.8679938333,-0.0983041667,74.2000000000,-3.6875000000,1.4375000000,111.3750000000,image177.jpg,17856.1290560000
0.7058823705,9.0000000000,5,50.8679945000,-0.0983046667,74.2000000000,-3.1250000000,2.3125000000,111.1875000000,image178.jpg,17924.6555660000
0.7372549176,10.0000000000,5,50.8679950000,-0.0983048333,74.2000000000,-5.1875000000,2.9375000000,111.8750000000,image179.jpg,18056.9483790000
0.7372549176,9.0000000000,5,50.8679955000,-0.0983056667,74.2000000000,-5.6250000000,4.2500000000,111.6250000000,image180.jpg,18125.0255140000
0.7372549176,15.0000000000,5,50.8679961667,-0.0983063333,74.1000000000,-5.5625000000,8.1875000000,113.6875000000,image181.jpg,18257.2593160000
0.7372549176,18.0000000000,5,50.8679966667,-0.0983063333,74.1000000000,-2.8750000000,6.8750000000,114.6250000000,image182.jpg,18324.8557740000
0.7372549176,23.0000000000,5,50.8679970000,-0.0983070000,74.1000000000,-2.3125000000,5.3125000000,114.9375000000,image183.jpg,18456.8635350000
0.7372549176,23.0000000000,5,50.8679976667,-0.0983076667,74.1000000000,-4.1875000000,5.3125000000,115.8125000000,image184.jpg,18524.5912950000
0.6823529601,23.0000000000,5,50.8679983333,-0.0983081667,74.1000000000,-3.3125000000,5.0625000000,118.5000000000,image185.jpg,18656.7674410000
0.7372549176,22.0000000000,5,50.8679986667,-0.0983085000,74.2000000000,-4.1875000000,4.3125000000,118.5000000000,image186.jpg,18723.9298370000
0.6823529601,14.0000000000,2,50.8679993333,-0.0983091667,74.2000000000,-2.7500000000,6.5625000000,122.1875000000,image187.jpg,18857.3352010000
0.7529411912,11.0000000000,2,50.8679996667,-0.0983096667,74.1000000000,-2.6875000000,5.5625000000,123.1875000000,image188.jpg,18925.2778050000
0.7372549176,11.0000000000,2,50.8680003333,-0.0983100000,74.1000000000,-3.5625000000,1.3125000000,123.8750000000,image189.jpg,19061.0579100000
0.6823529601,8.0000000000,2,50.8680010000,-0.0983103333,74.1000000000,-2.7500000000,2.3125000000,125.1875000000,image190.jpg,19123.9193160000
0.7372549176,0.0000000000,2,50.8680016667,-0.0983103333,74.1000000000,-4.8750000000,0.8125000000,125.2500000000,image191.jpg,19256.1969720000
0.7372549176,0.0000000000,2,50.8680020000,-0.0983108333,74.1000000000,-5.6875000000,2.8125000000,125.5625000000,image192.jpg,19324.6481180000
0.7372549176,-1.0000000000,2,50.8680025000,-0.0983105000,74.1000000000,-7.3125000000,1.5000000000,125.5000000000,image193.jpg,19456.4050970000
0.7529411912,-2.0000000000,2,50.8680031667,-0.0983110000,74.1000000000,-4.3750000000,2.2500000000,126.1875000000,image194.jpg,19525.2329610000
0.7372549176,-8.0000000000,2,50.8680036667,-0.0983115000,74.1000000000,-1.6875000000,0.7500000000,124.8125000000,image195.jpg,19656.5004610000
0.7372549176,-9.0000000000,2,50.8680041667,-0.0983118333,74.1000000000,-3.7500000000,2.0625000000,124.6875000000,image196.jpg,19724.9898880000
0.6823529601,-7.0000000000,2,50.8680050000,-0.0983118333,74.1000000000,-6.4375000000,0.0625000000,122.5000000000,image197.jpg,19860.5747320000
0.7372549176,-8.0000000000,2,50.8680055000,-0.0983121667,74.2000000000,-7.1875000000,0.0000000000,121.5000000000,image198.jpg,19925.1002010000
0.6980392337,-8.0000000000,2,50.8680061667,-0.0983125000,74.1000000000,-3.2500000000,3.3750000000,120.0000000000,image199.jpg,20063.6585340000
0.7372549176,-7.0000000000,2,50.8680066667,-0.0983125000,74.1000000000,-1.9375000000,3.0625000000,119.0000000000,image200.jpg,20126.1349930000
0.7372549176,-3.0000000000,2,50.8680070000,-0.0983135000,74.2000000000,-2.7500000000,2.6875000000,117.6875000000,image201.jpg,20260.1685340000
0.6509804130,4.0000000000,2,50.8680076667,-0.0983136667,74.1000000000,-2.3750000000,2.6875000000,116.7500000000,image202.jpg,20324.5099400000
0.7372549176,9.0000000000,5,50.8680081667,-0.0983136667,74.1000000000,-6.8750000000,4.5000000000,117.0000000000,image203.jpg,20459.0109820000
0.7372549176,13.0000000000,5,50.8680086667,-0.0983138333,74.1000000000,-4.0625000000,5.1875000000,117.1250000000,image204.jpg,20524.2502530000
0.7372549176,14.0000000000,5,50.8680090000,-0.0983143333,74.1000000000,0.1250000000,6.7500000000,118.3125000000,image205.jpg,20660.0628570000
0.7372549176,14.0000000000,5,50.8680093333,-0.0983148333,74.1000000000,-0.1875000000,6.5000000000,118.5625000000,image206.jpg,20723.9057210000
0.7372549176,11.0000000000,5,50.8680098333,-0.0983153333,74.1000000000,-0.3750000000,1.9375000000,120.7500000000,image207.jpg,20860.1572840000
0.7372549176,8.0000000000,5,50.8680106667,-0.0983153333,74.1000000000,-0.1875000000,2.2500000000,121.6875000000,image208.jpg,20924.1771800000
0.6509804130,1.0000000000,2,50.8680113333,-0.0983160000,74.1000000000,-6.7500000000,1.5000000000,123.5000000000,image209.jpg,21060.6086380000
0.7372549176,0.0000000000,2,50.8680118333,-0.0983156667,74.1000000000,-4.5000000000,1.6875000000,123.1875000000,image210.jpg,21128.2053050000
0.6980392337,-1.0000000000,2,50.8680120000,-0.0983158333,74.1000000000,-3.6875000000,2.2500000000,123.0625000000,image211.jpg,21259.6211900000
0.7372549176,0.0000000000,2,50.8680125000,-0.0983160000,74.1000000000,-3.8125000000,5.9375000000,122.7500000000,image212.jpg,21328.7716590000
0.7372549176,0.0000000000,5,50.8680130000,-0.0983165000,74.1000000000,-2.2500000000,6.6875000000,122.5625000000,image213.jpg,21459.7597840000
0.7058823705,0.0000000000,5,50.8680136667,-0.0983163333,74.0000000000,-1.2500000000,6.5000000000,121.0000000000,image214.jpg,21528.1103570000
0.7372549176,0.0000000000,5,50.8680141667,-0.0983168333,74.1000000000,-4.4375000000,5.8125000000,121.3750000000,image215.jpg,21659.6634290000
0.7372549176,0.0000000000,5,50.8680148333,-0.0983166667,74.1000000000,-3.6875000000,3.7500000000,120.5000000000,image216.jpg,21729.0068150000
0.7058823705,4.0000000000,5,50.8680151667,-0.0983171667,74.1000000000,-7.0625000000,3.0625000000,119.9375000000,image217.jpg,21859.8091590000
0.7372549176,8.0000000000,5,50.8680158333,-0.0983178333,74.1000000000,-7.9375000000,3.6250000000,120.1875000000,image218.jpg,21928.6593150000
0.7372549176,13.0000000000,5,50.8680163333,-0.0983176667,74.1000000000,-5.4375000000,3.7500000000,120.6250000000,image219.jpg,22060.1286380000
0.7372549176,14.0000000000,5,50.8680166667,-0.0983178333,74.0000000000,-4.7500000000,3.0625000000,120.5625000000,image220.jpg,22128.6041060000
0.6980392337,14.0000000000,2,50.8680171667,-0.0983188333,74.1000000000,-2.0000000000,1.9375000000,122.6875000000,image221.jpg,22259.9348880000
0.7058823705,12.0000000000,2,50.8680178333,-0.0983198333,74.0000000000,0.8125000000,1.8750000000,121.6875000000,image222.jpg,22328.6580650000
0.7372549176,2.0000000000,2,50.8680183333,-0.0983205000,74.1000000000,-5.5000000000,4.6875000000,123.3125000000,image223.jpg,22459.7897830000
0.7372549176,1.0000000000,2,50.8680188333,-0.0983210000,74.1000000000,-5.6875000000,4.7500000000,124.0625000000,image224.jpg,22531.1586900000
0.7372549176,3.0000000000,2,50.8680193333,-0.0983211667,74.1000000000,-6.1875000000,2.4375000000,123.8125000000,image225.jpg,22659.7680640000
0.6980392337,7.0000000000,2,50.8680200000,-0.0983216667,74.1000000000,-5.5000000000,4.8750000000,124.8125000000,image226.jpg,22727.7385850000
0.7529411912,8.0000000000,2,50.8680205000,-0.0983220000,74.1000000000,-5.2500000000,4.6875000000,124.8750000000,image227.jpg,22859.7666060000
0.7372549176,10.0000000000,2,50.8680210000,-0.0983221667,74.1000000000,-5.0000000000,4.0625000000,124.3750000000,image228.jpg,22928.9931690000
0.7058823705,13.0000000000,2,50.8680215000,-0.0983223333,74.1000000000,-3.8750000000,3.6875000000,125.1250000000,image229.jpg,23064.4788980000
0.7372549176,14.0000000000,2,50.8680218333,-0.0983221667,74.1000000000,-1.1875000000,3.7500000000,126.1875000000,image230.jpg,23127.9921790000
0.7372549176,13.0000000000,2,50.8680225000,-0.0983228333,74.1000000000,-4.1875000000,2.8750000000,125.8125000000,image231.jpg,23263.9191580000
0.7372549176,11.0000000000,2,50.8680233333,-0.0983231667,74.0000000000,-7.8125000000,1.1250000000,126.4375000000,image232.jpg,23328.6875950000
0.7372549176,2.0000000000,5,50.8680238333,-0.0983226667,74.1000000000,-6.2500000000,0.3125000000,128.0000000000,image233.jpg,23464.1840020000
0.6980392337,-1.0000000000,5,50.8680243333,-0.0983228333,74.1000000000,-5.6875000000,-0.1875000000,128.0000000000,image234.jpg,23527.9555640000
0.7372549176,-10.0000000000,5,50.8680248333,-0.0983233333,74.1000000000,-8.2500000000,3.8125000000,128.7500000000,image235.jpg,23663.7787410000
0.7372549176,-15.0000000000,5,50.8680253333,-0.0983230000,74.1000000000,-7.1875000000,5.2500000000,128.9375000000,image236.jpg,23731.7806680000
0.7372549176,-17.0000000000,5,50.8680256667,-0.0983230000,74.1000000000,-2.3750000000,3.6250000000,125.5625000000,image237.jpg,23863.6332720000
0.7372549176,-16.0000000000,5,50.8680261667,-0.0983236667,74.1000000000,-3.8750000000,3.3750000000,124.1875000000,image238.jpg,23931.4033240000
0.7372549176,-15.0000000000,5,50.8680268333,-0.0983241667,74.1000000000,-4.3125000000,5.2500000000,122.4375000000,image239.jpg,24063.8072310000
0.7372549176,-13.0000000000,2,50.8680271667,-0.0983240000,74.1000000000,-6.8125000000,4.9375000000,120.6875000000,image240.jpg,24128.7476990000
0.6509804130,-3.0000000000,2,50.8680278333,-0.0983240000,74.1000000000,-9.8125000000,5.8125000000,119.8750000000,image241.jpg,24264.0841060000
0.7372549176,-1.0000000000,2,50.8680283333,-0.0983238333,74.1000000000,-6.3125000000,7.0000000000,120.0000000000,image242.jpg,24328.0436890000
0.7372549176,8.0000000000,5,50.8680293333,-0.0983255000,74.1000000000,-1.5000000000,6.1875000000,117.5625000000,image243.jpg,24464.9356160000
0.7450980544,10.0000000000,nan,nan,nan,nan,-2.3125000000,6.0000000000,117.8750000000,image244.jpg,24528.1124910000
0.7372549176,12.0000000000,5,50.8680298333,-0.0983256667,74.1000000000,-2.7500000000,5.2500000000,117.5625000000,image245.jpg,24595.6715530000
0.6823529601,11.0000000000,5,50.8680305000,-0.0983260000,74.1000000000,-2.6250000000,3.6250000000,117.6250000000,image246.jpg,24728.9621260000
0.7372549176,2.0000000000,5,50.8680310000,-0.0983265000,74.1000000000,-2.3750000000,3.3750000000,117.6875000000,image247.jpg,24796.2541050000
0.7372549176,0.0000000000,5,50.8680313333,-0.0983268333,74.1000000000,-0.5625000000,3.8750000000,119.8125000000,image248.jpg,24934.2396780000
0.6823529601,0.0000000000,5,50.8680318333,-0.0983273333,74.1000000000,-1.1250000000,4.6875000000,119.1250000000,image249.jpg,24996.5140010000
0.7372549176,1.0000000000,5,50.8680323333,-0.0983275000,74.1000000000,-2.6250000000,3.8750000000,119.3125000000,image250.jpg,25129.2738970000
0.7372549176,0.0000000000,2,50.8680331667,-0.0983281667,74.1000000000,-1.3125000000,4.0625000000,119.1250000000,image251.jpg,25196.8344700000
0.7372549176,0.0000000000,2,50.8680336667,-0.0983286667,74.1000000000,0.8750000000,3.7500000000,118.5625000000,image252.jpg,25332.7624910000
0.7372549176,2.0000000000,5,50.8680340000,-0.0983290000,74.1000000000,0.2500000000,4.1875000000,118.0625000000,image253.jpg,25400.1441570000
0.7372549176,4.0000000000,5,50.8680348333,-0.0983290000,74.1000000000,3.3125000000,4.3750000000,117.2500000000,image254.jpg,25532.1632720000
0.7372549176,7.0000000000,5,50.8680351667,-0.0983295000,74.1000000000,0.9375000000,5.8125000000,116.5000000000,image255.jpg,25597.7055630000
0.7372549176,11.0000000000,5,50.8680356667,-0.0983296667,74.1000000000,-0.5000000000,4.4375000000,117.3125000000,image256.jpg,25732.4775950000
0.7372549176,9.0000000000,5,50.8680363333,-0.0983300000,74.1000000000,0.6250000000,4.7500000000,117.3125000000,image257.jpg,25800.0747300000
0.6901960969,8.0000000000,5,50.8680368333,-0.0983303333,74.1000000000,-2.8750000000,5.4375000000,118.5000000000,image258.jpg,25932.9679070000
0.7372549176,3.0000000000,5,50.8680371667,-0.0983305000,74.1000000000,-4.5625000000,5.6250000000,120.1250000000,image259.jpg,25995.7238440000
0.7372549176,2.0000000000,5,50.8680376667,-0.0983306667,74.2000000000,0.3125000000,2.6875000000,119.8125000000,image260.jpg,26133.1803030000
0.6901960969,3.0000000000,5,50.8680381667,-0.0983311667,74.2000000000,-0.1875000000,4.2500000000,120.0625000000,image261.jpg,26195.4502510000
0.7372549176,1.0000000000,2,50.8680386667,-0.0983313333,74.2000000000,-0.0625000000,1.1250000000,120.3750000000,image262.jpg,26332.5417090000
0.7372549176,0.0000000000,5,50.8680391667,-0.0983313333,74.2000000000,0.5000000000,2.5625000000,120.5000000000,image263.jpg,26399.2354590000
0.7372549176,0.0000000000,5,50.8680396667,-0.0983318333,74.2000000000,-3.0625000000,1.2500000000,119.5625000000,image264.jpg,26533.6010840000
0.7372549176,0.0000000000,5,50.8680403333,-0.0983318333,74.3000000000,-1.9375000000,0.5000000000,119.8750000000,image265.jpg,26599.3288960000
0.7372549176,1.0000000000,5,50.8680408333,-0.0983321667,74.2000000000,-0.5625000000,1.2500000000,119.3750000000,image266.jpg,26732.3573860000
0.7372549176,3.0000000000,5,50.8680413333,-0.0983325000,74.3000000000,-0.2500000000,2.8750000000,119.6875000000,image267.jpg,26799.2291570000
0.7372549176,13.0000000000,5,50.8680418333,-0.0983331667,74.2000000000,0.2500000000,2.5000000000,119.5625000000,image268.jpg,26932.7861880000
0.7372549176,17.0000000000,5,50.8680423333,-0.0983335000,74.3000000000,-0.6875000000,2.5000000000,118.8750000000,image269.jpg,26999.7589480000
0.6509804130,21.0000000000,2,50.8680428333,-0.0983338333,74.3000000000,-3.2500000000,5.0625000000,120.6875000000,image270.jpg,27133.2739480000
0.7372549176,22.0000000000,2,50.8680433333,-0.0983335000,74.3000000000,-1.4375000000,3.7500000000,121.3125000000,image271.jpg,27199.6787920000
0.7529411912,21.0000000000,2,50.8680438333,-0.0983340000,74.3000000000,0.8750000000,2.9375000000,124.0000000000,image272.jpg,27333.2561360000
0.7058823705,21.0000000000,5,50.8680445000,-0.0983346667,74.3000000000,2.0000000000,2.0000000000,125.0625000000,image273.jpg,27399.2966560000
0.7372549176,9.0000000000,5,50.8680451667,-0.0983350000,74.3000000000,-3.1875000000,3.1250000000,125.0625000000,image274.jpg,27533.1707710000
0.7372549176,7.0000000000,5,50.8680456667,-0.0983350000,74.3000000000,-4.6250000000,4.1875000000,127.1875000000,image275.jpg,27599.3334270000
0.7058823705,7.0000000000,5,50.8680463333,-0.0983351667,74.3000000000,-1.8750000000,2.0625000000,128.4375000000,image276.jpg,27733.8883750000
0.7372549176,7.0000000000,5,50.8680468333,-0.0983355000,74.3000000000,0.6875000000,1.7500000000,129.0000000000,image277.jpg,27799.4265520000
0.7529411912,11.0000000000,5,50.8680473333,-0.0983358333,74.3000000000,-1.2500000000,1.5625000000,127.8125000000,image278.jpg,27934.6648330000
0.7372549176,13.0000000000,5,50.8680481667,-0.0983361667,74.3000000000,-0.6875000000,-0.1250000000,127.7500000000,image279.jpg,27999.3257710000
0.7372549176,15.0000000000,5,50.8680488333,-0.0983363333,74.3000000000,-3.0000000000,0.6875000000,129.1875000000,image280.jpg,28133.4263960000
0.7058823705,14.0000000000,5,50.8680493333,-0.0983363333,74.3000000000,-0.5625000000,1.7500000000,130.9375000000,image281.jpg,28199.3855620000
0.7058823705,12.0000000000,5,50.8680500000,-0.0983370000,74.3000000000,-1.2500000000,0.4375000000,130.9375000000,image282.jpg,28333.4573850000
0.7372549176,7.0000000000,5,50.8680506667,-0.0983373333,74.3000000000,-0.8750000000,1.0000000000,133.1250000000,image283.jpg,28400.3410310000
0.7372549176,8.0000000000,5,50.8680511667,-0.0983373333,74.3000000000,-1.0000000000,0.0000000000,134.3750000000,image284.jpg,28541.5990520000
0.7058823705,11.0000000000,5,50.8680520000,-0.0983378333,74.3000000000,-1.7500000000,-1.3750000000,134.3125000000,image285.jpg,28600.0231140000
0.7372549176,14.0000000000,5,50.8680528333,-0.0983378333,74.3000000000,2.6875000000,-3.0000000000,135.8750000000,image286.jpg,28739.9142080000
0.7372549176,14.0000000000,5,50.8680535000,-0.0983380000,74.3000000000,5.6875000000,-2.5000000000,134.8125000000,image287.jpg,28800.2659790000
0.7058823705,6.0000000000,5,50.8680538333,-0.0983385000,74.3000000000,6.1250000000,-1.6875000000,135.4375000000,image288.jpg,28940.7418640000
0.7529411912,4.0000000000,5,50.8680546667,-0.0983385000,74.2000000000,3.2500000000,-1.5625000000,136.2500000000,image289.jpg,29000.0653540000
0.7372549176,5.0000000000,5,50.8680551667,-0.0983386667,74.3000000000,0.8125000000,0.1250000000,138.6875000000,image290.jpg,29137.6535830000
0.7372549176,6.0000000000,5,50.8680558333,-0.0983385000,74.3000000000,3.8750000000,-0.2500000000,138.5000000000,image291.jpg,29198.4468640000
0.7450980544,8.0000000000,2,50.8680566667,-0.0983393333,74.2000000000,7.1250000000,1.2500000000,138.7500000000,image292.jpg,29338.2591560000
0.7058823705,2.0000000000,5,50.8680570000,-0.0983393333,74.2000000000,6.6250000000,1.0625000000,138.6250000000,image293.jpg,29400.4193120000
0.7450980544,-2.0000000000,5,50.8680576667,-0.0983391667,74.2000000000,3.6875000000,6.6875000000,136.8125000000,image294.jpg,29536.6445200000
0.7529411912,-8.0000000000,5,50.8680580000,-0.0983393333,74.2000000000,1.6250000000,8.1875000000,137.4375000000,image295.jpg,29599.3114990000
0.7372549176,-4.0000000000,5,50.8680586667,-0.0983390000,74.2000000000,3.8125000000,10.1250000000,137.5625000000,image296.jpg,29738.0837910000
0.7372549176,0.0000000000,2,50.8680588333,-0.0983390000,74.2000000000,4.4375000000,10.0000000000,137.0625000000,image297.jpg,29803.8559260000
0.7372549176,1.0000000000,2,50.8680595000,-0.0983396667,74.2000000000,5.0000000000,10.8125000000,135.6250000000,image298.jpg,29937.3197800000
0.7372549176,1.0000000000,2,50.8680598333,-0.0983400000,74.2000000000,4.8125000000,10.5000000000,135.9375000000,image299.jpg,30003.4052490000
0.7137255073,1.0000000000,2,50.8680603333,-0.0983400000,74.2000000000,4.1250000000,8.6875000000,134.5000000000,image300.jpg,30143.0405100000
0.7450980544,1.0000000000,2,50.8680606667,-0.0983401667,74.2000000000,3.5000000000,8.1875000000,134.8125000000,image301.jpg,30203.8137390000
0.7372549176,0.0000000000,2,50.8680613333,-0.0983400000,74.2000000000,-2.0625000000,7.2500000000,134.6250000000,image302.jpg,30339.6715510000
0.7450980544,0.0000000000,5,50.8680616667,-0.0983396667,74.2000000000,-4.0625000000,7.5625000000,135.1250000000,image303.jpg,30404.7510300000
0.7450980544,1.0000000000,5,50.8680623333,-0.0983398333,74.2000000000,-2.1250000000,6.3750000000,135.3750000000,image304.jpg,30538.3556660000
0.6901960969,0.0000000000,5,50.8680630000,-0.0983401667,74.2000000000,-1.7500000000,6.0625000000,135.5625000000,image305.jpg,30603.2125930000
0.7450980544,-6.0000000000,5,50.8680635000,-0.0983401667,74.2000000000,-0.4375000000,4.8750000000,135.3125000000,image306.jpg,30738.5679570000
0.7450980544,-12.0000000000,5,50.8680641667,-0.0983405000,74.2000000000,0.0000000000,4.6875000000,134.7500000000,image307.jpg,30803.5543110000
0.7450980544,-15.0000000000,5,50.8680648333,-0.0983406667,74.2000000000,-4.6875000000,5.0625000000,132.1250000000,image308.jpg,30939.1967590000
0.7450980544,-12.0000000000,5,50.8680653333,-0.0983405000,74.2000000000,-5.6875000000,4.6250000000,131.0625000000,image309.jpg,31004.1714990000
0.7450980544,-3.0000000000,5,50.8680660000,-0.0983406667,74.3000000000,-5.1875000000,5.5000000000,129.4375000000,image310.jpg,31136.6699880000
0.7450980544,-2.0000000000,5,50.8680666667,-0.0983413333,74.3000000000,-4.6250000000,4.5625000000,129.1875000000,image311.jpg,31204.3075920000
0.6901960969,1.0000000000,5,50.8680671667,-0.0983415000,74.2000000000,0.1875000000,4.0625000000,127.4375000000,image312.jpg,31336.6730610000
0.7450980544,0.0000000000,5,50.8680675000,-0.0983421667,74.2000000000,-1.8750000000,4.1250000000,127.5000000000,image313.jpg,31404.3300400000
0.7450980544,0.0000000000,5,50.8680680000,-0.0983421667,74.3000000000,-6.0625000000,5.0625000000,128.3750000000,image314.jpg,31536.5489990000
0.7450980544,1.0000000000,5,50.8680688333,-0.0983418333,74.2000000000,-4.5625000000,5.2500000000,128.3125000000,image315.jpg,31604.3497280000
0.7450980544,1.0000000000,5,50.8680691667,-0.0983423333,74.2000000000,-4.8125000000,6.1875000000,128.2500000000,image316.jpg,31737.2445190000
0.7058823705,1.0000000000,5,50.8680698333,-0.0983426667,74.2000000000,-2.3750000000,7.1875000000,128.7500000000,image317.jpg,31804.4517070000
0.7450980544,-2.0000000000,5,50.8680703333,-0.0983430000,74.2000000000,0.5000000000,7.6875000000,127.3750000000,image318.jpg,31937.6625920000
0.7450980544,-5.0000000000,5,50.8680710000,-0.0983435000,74.3000000000,-1.6250000000,7.6250000000,127.1250000000,image319.jpg,32005.0424880000
0.7450980544,-12.0000000000,5,50.8680716667,-0.0983436667,74.2000000000,-4.8125000000,7.3125000000,127.3750000000,image320.jpg,32139.2528000000
0.7450980544,-11.0000000000,5,50.8680721667,-0.0983436667,74.3000000000,-2.1250000000,6.4375000000,127.1875000000,image321.jpg,32203.6670190000
0.7450980544,-12.0000000000,5,50.8680726667,-0.0983441667,74.3000000000,-1.4375000000,4.7500000000,125.1250000000,image322.jpg,32337.4955610000
0.7529411912,-11.0000000000,5,50.8680735000,-0.0983450000,74.3000000000,-1.8750000000,5.3750000000,125.2500000000,image323.jpg,32403.4026440000
0.6588235497,-3.0000000000,5,50.8680740000,-0.0983448333,74.3000000000,-0.5625000000,2.8125000000,121.6875000000,image324.jpg,32542.2278520000
0.7450980544,-3.0000000000,5,50.8680743333,-0.0983453333,74.3000000000,-2.6250000000,1.8750000000,120.3750000000,image325.jpg,32603.3495190000
0.7450980544,-3.0000000000,5,50.8680751667,-0.0983456667,74.3000000000,-0.4375000000,3.8125000000,120.0000000000,image326.jpg,32741.9379560000
0.7450980544,-1.0000000000,5,50.8680756667,-0.0983461667,74.2000000000,0.0000000000,4.1875000000,119.7500000000,image327.jpg,32804.3612380000
0.7529411912,-2.0000000000,5,50.8680760000,-0.0983468333,74.2000000000,-2.2500000000,3.8750000000,118.5625000000,image328.jpg,32941.2203520000
0.6588235497,0.0000000000,5,50.8680765000,-0.0983465000,74.3000000000,-1.2500000000,6.1875000000,118.9375000000,image329.jpg,33004.6860290000
0.7450980544,1.0000000000,2,50.8680770000,-0.0983468333,74.2000000000,-0.4375000000,7.4375000000,118.4375000000,image330.jpg,33141.3991540000
0.7450980544,3.0000000000,2,50.8680776667,-0.0983478333,74.3000000000,0.0625000000,8.3750000000,119.1250000000,image331.jpg,33205.0787380000
0.7450980544,2.0000000000,2,50.8680781667,-0.0983481667,74.3000000000,-2.3750000000,6.6250000000,118.1250000000,image332.jpg,33342.7470190000
0.7450980544,1.0000000000,5,50.8680786667,-0.0983483333,74.3000000000,-2.5625000000,6.2500000000,118.3750000000,image333.jpg,33404.7114460000
0.7450980544,1.0000000000,5,50.8680796667,-0.0983486667,74.3000000000,-0.1875000000,5.0625000000,118.5000000000,image334.jpg,33541.2047790000
0.7058823705,0.0000000000,5,50.8680801667,-0.0983491667,74.3000000000,0.9375000000,4.0625000000,117.8125000000,image335.jpg,33604.6448830000
0.7058823705,0.0000000000,5,50.8680810000,-0.0983500000,74.3000000000,0.8125000000,1.9375000000,117.6250000000,image336.jpg,33740.3249870000
0.7058823705,0.0000000000,2,50.8680816667,-0.0983503333,74.3000000000,2.6250000000,2.6250000000,117.1875000000,image337.jpg,33809.4126440000
0.7450980544,1.0000000000,2,50.8680820000,-0.0983508333,74.3000000000,4.8750000000,5.0625000000,116.4375000000,image338.jpg,33941.3804040000
0.7450980544,1.0000000000,2,50.8680823333,-0.0983511667,74.3000000000,4.0000000000,4.5625000000,116.5000000000,image339.jpg,34010.3797270000
0.7450980544,2.0000000000,2,50.8680830000,-0.0983516667,74.3000000000,1.7500000000,4.8125000000,116.3125000000,image340.jpg,34141.9448830000
0.7137255073,7.0000000000,2,50.8680838333,-0.0983521667,74.3000000000,2.1250000000,5.3125000000,116.0625000000,image341.jpg,34209.0031120000
0.7450980544,9.0000000000,2,50.8680843333,-0.0983521667,74.3000000000,6.1875000000,4.3125000000,116.9375000000,image342.jpg,34342.6727480000
0.7450980544,11.0000000000,5,50.8680846667,-0.0983530000,74.3000000000,6.8750000000,2.4375000000,116.6250000000,image343.jpg,34408.8346750000
0.7137255073,12.0000000000,5,50.8680850000,-0.0983536667,74.3000000000,3.9375000000,6.3750000000,115.5625000000,image344.jpg,34544.6449870000
0.7450980544,12.0000000000,5,50.8680856667,-0.0983536667,74.3000000000,-0.4375000000,4.2500000000,117.1875000000,image345.jpg,34608.0494140000
0.7450980544,6.0000000000,5,50.8680860000,-0.0983540000,74.4000000000,3.1875000000,3.9375000000,118.1875000000,image346.jpg,34738.9738410000
0.7058823705,0.0000000000,5,50.8680866667,-0.0983546667,74.4000000000,3.2500000000,4.7500000000,118.6250000000,image347.jpg,34809.1493620000
0.7137255073,3.0000000000,5,50.8680870000,-0.0983550000,74.4000000000,5.1250000000,6.6250000000,119.5625000000,image348.jpg,34940.8212370000
0.7137255073,3.0000000000,5,50.8680873333,-0.0983551667,74.4000000000,6.6875000000,7.0000000000,118.6250000000,image349.jpg,35008.9753510000
0.7607843280,14.0000000000,2,50.8680878333,-0.0983556667,74.4000000000,-0.5625000000,6.0000000000,117.8750000000,image350.jpg,35145.7832160000
0.7450980544,18.0000000000,2,50.8680883333,-0.0983560000,74.4000000000,-2.6250000000,5.7500000000,119.2500000000,image351.jpg,35208.4122780000
0.7450980544,21.0000000000,2,50.8680891667,-0.0983558333,74.4000000000,3.6875000000,6.3750000000,120.6875000000,image352.jpg,35341.6316010000
0.7450980544,22.0000000000,2,50.8680896667,-0.0983568333,74.4000000000,5.6875000000,7.1875000000,121.7500000000,image353.jpg,35414.3334240000
0.7450980544,19.0000000000,2,50.8680898333,-0.0983575000,74.3000000000,4.3750000000,4.7500000000,124.2500000000,image354.jpg,35539.2712890000
0.7450980544,14.0000000000,2,50.8680908333,-0.0983575000,74.4000000000,3.5625000000,5.8125000000,126.3750000000,image355.jpg,35610.1141530000
0.7215686440,6.0000000000,2,50.8680913333,-0.0983580000,74.4000000000,0.7500000000,8.4375000000,127.1875000000,image356.jpg,35740.0662370000
0.7450980544,6.0000000000,2,50.8680916667,-0.0983585000,74.4000000000,0.8125000000,6.4375000000,128.1250000000,image357.jpg,35809.8960800000
0.7450980544,0.0000000000,2,50.8680925000,-0.0983586667,74.5000000000,0.6875000000,4.6250000000,130.1875000000,image358.jpg,35939.0482680000
0.7137255073,-1.0000000000,2,50.8680931667,-0.0983590000,74.5000000000,1.4375000000,5.1250000000,130.3125000000,image359.jpg,36009.7397260000
0.7450980544,-4.0000000000,2,50.8680935000,-0.0983595000,74.4000000000,-2.1875000000,6.4375000000,129.8750000000,image360.jpg,36139.4173300000
0.6588235497,-7.0000000000,2,50.8680940000,-0.0983596667,74.4000000000,-0.6875000000,6.1875000000,129.5000000000,image361.jpg,36207.7294660000
0.7450980544,-11.0000000000,2,50.8680945000,-0.0983595000,74.4000000000,-3.0000000000,7.6250000000,128.1250000000,image362.jpg,36341.1486840000
0.7450980544,-9.0000000000,5,50.8680953333,-0.0983596667,74.4000000000,-2.3125000000,7.5625000000,127.4375000000,image363.jpg,36407.8258200000
0.7450980544,-4.0000000000,5,50.8680958333,-0.0983600000,74.4000000000,-2.3125000000,7.9375000000,125.2500000000,image364.jpg,36544.5778510000
0.7450980544,1.0000000000,5,50.8680965000,-0.0983603333,74.4000000000,-1.6875000000,9.6875000000,124.5625000000,image365.jpg,36607.8593610000
0.7450980544,1.0000000000,5,50.8680968333,-0.0983605000,74.3000000000,-0.6875000000,9.3750000000,124.3125000000,image366.jpg,36745.6074860000
0.7450980544,0.0000000000,5,50.8680973333,-0.0983606667,74.4000000000,-1.0625000000,9.9375000000,124.5625000000,image367.jpg,36808.2790490000
0.6980392337,0.0000000000,2,50.8680976667,-0.0983608333,74.4000000000,-1.9375000000,9.4375000000,123.7500000000,image368.jpg,36944.2577990000
0.7450980544,0.0000000000,2,50.8680983333,-0.0983608333,74.3000000000,-0.5000000000,9.0000000000,123.8125000000,image369.jpg,37008.0709760000
0.7450980544,0.0000000000,2,50.8680986667,-0.0983611667,74.4000000000,-1.1875000000,8.8750000000,123.6250000000,image370.jpg,37143.9113400000
0.6980392337,0.0000000000,2,50.8680993333,-0.0983610000,74.4000000000,0.5000000000,10.0625000000,123.8125000000,image371.jpg,37207.8589440000
0.7450980544,1.0000000000,2,50.8680993333,-0.0983613333,74.4000000000,0.6250000000,9.1250000000,122.1875000000,image372.jpg,37344.1637360000
0.7058823705,0.0000000000,2,50.8680998333,-0.0983615000,74.4000000000,-2.9375000000,7.9375000000,121.9375000000,image373.jpg,37408.6689960000
0.7450980544,0.0000000000,2,50.8681003333,-0.0983616667,74.4000000000,-2.6250000000,7.6250000000,122.1250000000,image374.jpg,37544.2898820000
0.7450980544,1.0000000000,2,50.8681010000,-0.0983618333,74.4000000000,-2.4375000000,7.6875000000,122.2500000000,image375.jpg,37607.6914440000
0.7450980544,0.0000000000,2,50.8681015000,-0.0983623333,74.4000000000,-0.8125000000,4.3125000000,122.4375000000,image376.jpg,37744.4089960000
0.7450980544,1.0000000000,2,50.8681023333,-0.0983626667,74.5000000000,1.1875000000,5.3125000000,122.6875000000,image377.jpg,37811.6923300000
0.7450980544,1.0000000000,2,50.8681026667,-0.0983628333,74.5000000000,-3.4375000000,8.6875000000,121.0000000000,image378.jpg,37944.8966520000
0.7450980544,1.0000000000,2,50.8681030000,-0.0983626667,74.5000000000,-4.9375000000,10.4375000000,122.0625000000,image379.jpg,38012.1843090000
0.6901960969,1.0000000000,2,50.8681035000,-0.0983628333,74.5000000000,-5.2500000000,10.1875000000,121.1875000000,image380.jpg,38145.8543610000
0.7450980544,0.0000000000,2,50.8681041667,-0.0983633333,74.5000000000,-5.3750000000,12.0000000000,121.3750000000,image381.jpg,38212.9531630000
0.7450980544,1.0000000000,2,50.8681045000,-0.0983633333,74.5000000000,-2.6875000000,10.3750000000,121.4375000000,image382.jpg,38344.4697770000
0.6588235497,2.0000000000,5,50.8681050000,-0.0983641667,74.6000000000,-1.1875000000,9.1250000000,120.6875000000,image383.jpg,38411.6357670000
0.7607843280,0.0000000000,5,50.8681051667,-0.0983645000,74.6000000000,-2.5625000000,8.6875000000,119.1875000000,image384.jpg,38545.2174850000
0.6588235497,0.0000000000,2,50.8681058333,-0.0983646667,74.6000000000,-4.1250000000,7.6875000000,120.3125000000,image385.jpg,38611.8031100000
0.7450980544,0.0000000000,2,50.8681065000,-0.0983645000,74.7000000000,-4.2500000000,7.2500000000,119.8750000000,image386.jpg,38745.0502460000
0.7450980544,0.0000000000,2,50.8681066667,-0.0983650000,74.7000000000,-2.6875000000,7.2500000000,119.7500000000,image387.jpg,38812.1595690000
0.7450980544,0.0000000000,2,50.8681068333,-0.0983660000,74.7000000000,-2.5000000000,7.8750000000,119.8125000000,image388.jpg,38943.6866520000
0.7450980544,0.0000000000,2,50.8681076667,-0.0983658333,74.6000000000,-0.6875000000,7.5000000000,119.6875000000,image389.jpg,39012.0012870000
0.7450980544,2.0000000000,2,50.8681081667,-0.0983655000,74.7000000000,0.8125000000,9.4375000000,119.2500000000,image390.jpg,39144.0786310000
0.7450980544,0.0000000000,2,50.8681085000,-0.0983658333,74.7000000000,-1.0625000000,10.3750000000,119.2500000000,image391.jpg,39212.1603500000
0.7137255073,1.0000000000,2,50.8681088333,-0.0983658333,74.7000000000,-4.4375000000,9.6875000000,118.9375000000,image392.jpg,39344.3431620000
0.7450980544,0.0000000000,5,50.8681095000,-0.0983665000,74.6000000000,-4.1875000000,10.8125000000,249.8750000000,image393.jpg,39412.5387350000
0.7450980544,1.0000000000,5,50.8681096667,-0.0983660000,74.7000000000,-4.1875000000,11.9375000000,249.6250000000,image394.jpg,39544.6814960000
0.7137255073,1.0000000000,5,50.8681101667,-0.0983660000,74.7000000000,-4.6250000000,10.0625000000,250.1250000000,image395.jpg,39611.8735790000
0.7450980544,1.0000000000,2,50.8681113333,-0.0983661667,74.6000000000,-3.6875000000,6.5000000000,249.3750000000,image396.jpg,39745.0213390000
0.7058823705,1.0000000000,2,50.8681121667,-0.0983670000,74.7000000000,-5.4375000000,7.0000000000,249.0000000000,image397.jpg,39811.9060270000
0.7137255073,0.0000000000,2,50.8681126667,-0.0983673333,74.7000000000,-4.3750000000,5.8125000000,249.0625000000,image398.jpg,39944.6171720000
0.7450980544,0.0000000000,2,50.8681133333,-0.0983675000,74.6000000000,-2.4375000000,4.6250000000,248.1250000000,image399.jpg,40011.8618600000
0.7058823705,-1.0000000000,2,50.8681140000,-0.0983675000,74.6000000000,-4.3750000000,7.1250000000,248.2500000000,image400.jpg,40148.1293600000
0.7607843280,-8.0000000000,2,50.8681143333,-0.0983678333,74.7000000000,-4.1875000000,9.3750000000,248.6875000000,image401.jpg,40212.7119640000
0.7450980544,-11.0000000000,2,50.8681146667,-0.0983681667,74.7000000000,-1.5000000000,10.5625000000,247.5000000000,image402.jpg,40345.4165990000
0.7058823705,-14.0000000000,5,50.8681148333,-0.0983688333,74.6000000000,-2.6250000000,9.1250000000,247.5625000000,image403.jpg,40417.7321200000
0.7058823705,-1.0000000000,5,50.8681155000,-0.0983688333,74.6000000000,-0.6875000000,10.1875000000,245.4375000000,image404.jpg,40553.9029530000
0.7450980544,0.0000000000,5,50.8681158333,-0.0983700000,74.6000000000,-0.1875000000,8.6250000000,244.1875000000,image405.jpg,40614.1759220000
0.7450980544,0.0000000000,5,50.8681160000,-0.0983710000,74.6000000000,0.1875000000,6.3125000000,242.5000000000,image406.jpg,40751.1432660000
0.7215686440,2.0000000000,5,50.8681165000,-0.0983713333,74.6000000000,-0.6250000000,6.3125000000,243.2500000000,image407.jpg,40815.3992550000
0.7450980544,0.0000000000,5,50.8681170000,-0.0983718333,74.6000000000,0.6250000000,5.8750000000,242.6250000000,image408.jpg,40951.1248800000
0.7058823705,0.0000000000,2,50.8681173333,-0.0983720000,74.6000000000,1.1875000000,6.6250000000,243.0000000000,image409.jpg,41015.1703490000
0.7450980544,1.0000000000,2,50.8681178333,-0.0983723333,74.6000000000,2.6875000000,8.1250000000,243.0625000000,image410.jpg,41152.6977970000
0.7450980544,0.0000000000,2,50.8681178333,-0.0983730000,74.6000000000,2.5000000000,7.4375000000,243.0000000000,image411.jpg,41215.4423280000
0.7058823705,0.0000000000,2,50.8681181667,-0.0983731667,74.7000000000,2.2500000000,8.3125000000,241.4375000000,image412.jpg,41349.9433700000
0.7450980544,-1.0000000000,nan,nan,nan,nan,1.5000000000,7.9375000000,242.0000000000,image413.jpg,41412.9964950000
0.7450980544,-1.0000000000,5,50.8681196667,-0.0983740000,74.6000000000,1.1875000000,8.6250000000,241.8125000000,image414.jpg,41479.4992030000
0.7058823705,-2.0000000000,5,50.8681200000,-0.0983741667,74.6000000000,3.4375000000,6.0625000000,241.7500000000,image415.jpg,41613.3838380000
0.7450980544,-2.0000000000,5,50.8681208333,-0.0983748333,74.6000000000,2.2500000000,6.6250000000,240.8750000000,image416.jpg,41679.3954010000
0.7450980544,-2.0000000000,5,50.8681211667,-0.0983753333,74.6000000000,0.4375000000,7.1875000000,240.4375000000,image417.jpg,41812.0524840000
0.7607843280,-3.0000000000,5,50.8681218333,-0.0983758333,74.6000000000,1.5000000000,6.7500000000,239.5625000000,image418.jpg,41879.3923280000
-0.9960784316,-2.0000000000,5,50.8681221667,-0.0983760000,74.6000000000,-0.2500000000,7.5625000000,239.1875000000,image419.jpg,42017.2355050000
0.7607843280,-4.0000000000,5,50.8681225000,-0.0983765000,74.6000000000,1.1250000000,6.8750000000,239.0625000000,image420.jpg,42079.6993070000
0.7450980544,-6.0000000000,2,50.8681230000,-0.0983768333,74.6000000000,0.5000000000,7.0625000000,237.6875000000,image421.jpg,42217.1995670000
0.7450980544,-6.0000000000,2,50.8681230000,-0.0983770000,74.6000000000,0.8125000000,6.7500000000,236.8125000000,image422.jpg,42279.4754530000
0.6980392337,-8.0000000000,5,50.8681230000,-0.0983773333,74.6000000000,-0.4375000000,6.1250000000,235.3125000000,image423.jpg,42417.7345150000
0.7450980544,-8.0000000000,5,50.8681236667,-0.0983778333,74.6000000000,-0.7500000000,6.6875000000,234.6250000000,image424.jpg,42479.5338900000
