speed,steering angle,gps quality,lat,lon,altitude,roll,pitch,yaw,image name,timestamp
0.0392156877,0.0000000000,5,50.8680696667,-0.0982593333,64.0000000000,4.7500000000,-2.0000000000,359.9375000000,image0.jpg,12.5664060000
-0.0078431377,0.0000000000,5,50.8680680000,-0.0982601667,64.0000000000,4.7500000000,-2.0000000000,359.9375000000,image2.jpg,135.5462500000
0.0392156877,0.0000000000,5,50.8680678333,-0.0982600000,63.9000000000,4.7500000000,-2.0000000000,359.9375000000,image4.jpg,272.5088020000
0.0392156877,1.0000000000,5,50.8680678333,-0.0982603333,64.0000000000,4.7500000000,-2.0000000000,359.9375000000,image5.jpg,335.9678650000
0.0392156877,0.0000000000,5,50.8680678333,-0.0982603333,64.0000000000,4.7500000000,-2.0000000000,359.9375000000,image7.jpg,472.7846870000
0.0392156877,0.0000000000,5,50.8680676667,-0.0982603333,64.0000000000,4.7500000000,-2.0000000000,359.9375000000,image8.jpg,536.7698440000
0.0470588244,1.0000000000,5,50.8680675000,-0.0982605000,64.0000000000,4.7500000000,-2.0000000000,359.9375000000,image10.jpg,674.1365100000
0.0470588244,0.0000000000,5,50.8680675000,-0.0982605000,64.0000000000,4.7500000000,-2.0000000000,359.9375000000,image11.jpg,737.5576040000
0.0470588244,0.0000000000,5,50.8680673333,-0.0982605000,64.0000000000,4.7500000000,-2.0000000000,359.9375000000,image12.jpg,805.6163020000
0.0392156877,0.0000000000,5,50.8680673333,-0.0982606667,64.0000000000,4.7500000000,-2.0000000000,359.9375000000,image14.jpg,936.6944270000
0.0392156877,0.0000000000,5,50.8680673333,-0.0982606667,64.0000000000,4.7500000000,-2.0000000000,359.9375000000,image16.jpg,1071.6507810000
0.0000000000,1.0000000000,5,50.8680671667,-0.0982606667,64.0000000000,4.7500000000,-2.0000000000,359.9375000000,image17.jpg,1136.4335410000
0.0470588244,0.0000000000,5,50.8680671667,-0.0982606667,64.0000000000,4.7500000000,-2.0000000000,359.9375000000,image19.jpg,1272.7488020000
0.0156862754,0.0000000000,5,50.8680670000,-0.0982606667,64.0000000000,4.7500000000,-2.0000000000,359.9375000000,image20.jpg,1341.5575520000
0.0392156877,0.0000000000,5,50.8680670000,-0.0982608333,64.0000000000,4.7500000000,-2.0000000000,359.9375000000,image21.jpg,1404.5110410000
0.0313725509,0.0000000000,5,50.8680668333,-0.0982608333,64.0000000000,4.7500000000,-2.0000000000,359.9375000000,image23.jpg,1540.2901040000
0.0392156877,0.0000000000,5,50.8680666667,-0.0982608333,64.0000000000,4.7500000000,-2.0000000000,359.9375000000,image25.jpg,1673.4577080000
0.0549019612,0.0000000000,5,50.8680666667,-0.0982610000,64.0000000000,4.7500000000,-2.0000000000,359.9375000000,image26.jpg,1741.4864060000
0.0549019612,0.0000000000,5,50.8680665000,-0.0982608333,64.0000000000,4.7500000000,-2.0000000000,359.9375000000,image27.jpg,1805.5254160000
0.0549019612,0.0000000000,5,50.8680665000,-0.0982610000,64.0000000000,4.7500000000,-2.0000000000,359.9375000000,image29.jpg,1940.6096870000
0.0392156877,0.0000000000,5,50.8680663333,-0.0982610000,64.0000000000,4.7500000000,-2.0000000000,359.9375000000,image30.jpg,2005.2457810000
0.0392156877,0.0000000000,5,50.8680663333,-0.0982610000,64.0000000000,4.7500000000,-2.0000000000,359.9375000000,image32.jpg,2140.6180720000
0.0470588244,1.0000000000,5,50.8680661667,-0.0982610000,64.0000000000,4.7500000000,-2.0000000000,359.9375000000,image34.jpg,2273.2352080000
0.0235294122,2.0000000000,5,50.8680661667,-0.0982610000,64.0000000000,4.7500000000,-2.0000000000,359.9375000000,image35.jpg,2340.6704160000
0.0705882385,0.0000000000,5,50.8680661667,-0.0982611667,64.0000000000,4.7500000000,-2.0000000000,359.9375000000,image37.jpg,2472.8014580000
0.0156862754,1.0000000000,5,50.8680660000,-0.0982611667,64.0000000000,4.7500000000,-2.0000000000,359.9375000000,image38.jpg,2540.5920820000
0.0549019612,2.0000000000,5,50.8680660000,-0.0982611667,64.0000000000,4.7500000000,-2.0000000000,359.9375000000,image40.jpg,2672.8947390000
0.2039215714,3.0000000000,5,50.8680658333,-0.0982611667,64.0000000000,4.7500000000,-2.0000000000,359.9375000000,image41.jpg,2740.3684890000
0.1725490242,7.0000000000,5,50.8680658333,-0.0982611667,64.0000000000,4.7500000000,-2.0000000000,359.9375000000,image42.jpg,2808.8307800000
0.2352941185,9.0000000000,5,50.8680658333,-0.0982613333,64.0000000000,4.7500000000,-2.0000000000,359.9375000000,image44.jpg,2940.4072910000
0.2352941185,10.0000000000,5,50.8680656667,-0.0982611667,64.0000000000,5.0000000000,-1.8125000000,359.7500000000,image45.jpg,3008.0471340000
0.2196078449,11.0000000000,5,50.8680656667,-0.0982613333,64.0000000000,5.5000000000,-1.6250000000,359.5000000000,image47.jpg,3141.4344780000
0.2588235438,11.0000000000,5,50.8680656667,-0.0982616667,64.0000000000,5.6875000000,-1.8125000000,359.3750000000,image48.jpg,3208.5154680000
0.2666666806,12.0000000000,5,50.8680656667,-0.0982616667,64.0000000000,5.5625000000,-2.0000000000,359.1875000000,image50.jpg,3340.7808840000
0.2745098174,12.0000000000,5,50.8680656667,-0.0982616667,64.0000000000,5.8750000000,-1.8750000000,359.0625000000,image51.jpg,3408.4078630000
0.3686274588,14.0000000000,5,50.8680655000,-0.0982618333,64.0000000000,5.5625000000,-2.1250000000,358.8750000000,image53.jpg,3539.6123430000
0.3607843220,11.0000000000,5,50.8680655000,-0.0982620000,64.0000000000,5.6250000000,-2.0000000000,358.7500000000,image54.jpg,3609.8377590000
0.3921568692,10.0000000000,5,50.8680655000,-0.0982621667,64.0000000000,5.3750000000,-1.7500000000,358.6250000000,image56.jpg,3740.3619780000
0.3921568692,6.0000000000,5,50.8680656667,-0.0982625000,64.0000000000,5.1250000000,-1.9375000000,358.5625000000,image57.jpg,3808.7306760000
0.4000000060,4.0000000000,5,50.8680656667,-0.0982631667,64.0000000000,3.3125000000,-3.6875000000,359.7500000000,image59.jpg,3940.2947380000
0.3921568692,6.0000000000,5,50.8680656667,-0.0982640000,64.0000000000,3.6875000000,-3.8750000000,1.3125000000,image60.jpg,4009.7320820000
0.4078431427,3.0000000000,5,50.8680656667,-0.0982643333,64.0000000000,5.3750000000,-1.6250000000,1.6875000000,image62.jpg,4140.1967170000
0.4156862795,0.0000000000,5,50.8680658333,-0.0982646667,64.0000000000,4.1875000000,-1.3125000000,1.0000000000,image63.jpg,4209.5097380000
0.3686274588,-1.0000000000,5,50.8680660000,-0.0982655000,64.0000000000,4.3125000000,-1.0625000000,1.2500000000,image65.jpg,4342.2718730000
0.4078431427,0.0000000000,5,50.8680660000,-0.0982660000,64.0000000000,4.9375000000,-0.8750000000,1.5625000000,image66.jpg,4410.0704670000
0.4156862795,0.0000000000,5,50.8680660000,-0.0982661667,64.0000000000,6.1250000000,-0.4375000000,1.0000000000,image68.jpg,4539.8061960000
0.4156862795,0.0000000000,5,50.8680658333,-0.0982665000,64.1000000000,6.5625000000,0.0000000000,0.3750000000,image69.jpg,4608.9409880000
0.5098039508,-1.0000000000,5,50.8680658333,-0.0982668333,64.1000000000,5.1875000000,-1.0000000000,0.5000000000,image71.jpg,4741.4515610000
0.4549019635,-4.0000000000,5,50.8680661667,-0.0982675000,64.1000000000,1.2500000000,-1.5000000000,0.2500000000,image72.jpg,4808.9051020000
0.4784313738,-13.0000000000,5,50.8680663333,-0.0982680000,64.1000000000,-0.1875000000,-1.8125000000,0.1875000000,image74.jpg,4941.1881230000
0.4784313738,-18.0000000000,5,50.8680666667,-0.0982688333,64.1000000000,0.6875000000,-1.7500000000,359.9375000000,image75.jpg,5009.1238520000
0.4784313738,-18.0000000000,5,50.8680668333,-0.0982693333,64.1000000000,1.4375000000,-1.2500000000,358.6875000000,image77.jpg,5140.2917690000
0.4784313738,-15.0000000000,5,50.8680666667,-0.0982696667,64.1000000000,2.0000000000,-0.8125000000,358.2500000000,image78.jpg,5208.6156750000
0.4862745106,-10.0000000000,5,50.8680665000,-0.0982698333,64.2000000000,4.7500000000,0.3125000000,357.5000000000,image80.jpg,5344.5626540000
0.4784313738,-4.0000000000,5,50.8680663333,-0.0982703333,64.2000000000,5.6875000000,0.9375000000,356.5000000000,image81.jpg,5410.3930190000
0.4313725531,3.0000000000,5,50.8680665000,-0.0982706667,64.2000000000,1.5625000000,4.0000000000,354.0625000000,image83.jpg,5543.4293210000
0.4784313738,1.0000000000,5,50.8680665000,-0.0982711667,64.2000000000,-2.2500000000,3.6250000000,354.1250000000,image84.jpg,5612.5753100000
0.4862745106,0.0000000000,5,50.8680666667,-0.0982718333,64.2000000000,-1.9375000000,5.1875000000,354.5000000000,image86.jpg,5744.0849460000
0.5019608140,1.0000000000,5,50.8680665000,-0.0982720000,64.2000000000,-1.2500000000,5.2500000000,354.6875000000,image87.jpg,5808.7269770000
0.5254902244,1.0000000000,5,50.8680665000,-0.0982723333,64.2000000000,-0.7500000000,4.1875000000,354.2500000000,image89.jpg,5943.4319250000
0.4627451003,0.0000000000,5,50.8680665000,-0.0982731667,64.3000000000,0.5625000000,2.5625000000,353.9375000000,image90.jpg,6008.8451540000
0.5176470876,3.0000000000,5,50.8680665000,-0.0982736667,64.2000000000,2.1250000000,-1.5625000000,353.8125000000,image92.jpg,6144.1232270000
0.5176470876,8.0000000000,2,50.8680665000,-0.0982743333,64.2000000000,0.0000000000,-1.4375000000,353.6875000000,image93.jpg,6208.7620290000
0.5176470876,13.0000000000,5,50.8680668333,-0.0982750000,64.2000000000,0.5625000000,-2.5625000000,352.5625000000,image95.jpg,6344.1055190000
0.5176470876,16.0000000000,5,50.8680668333,-0.0982755000,64.3000000000,0.9375000000,-1.9375000000,352.3750000000,image96.jpg,6408.9868730000
0.5176470876,21.0000000000,5,50.8680670000,-0.0982760000,64.3000000000,0.0000000000,0.0000000000,353.1250000000,image98.jpg,6544.6515600000
0.5176470876,22.0000000000,5,50.8680670000,-0.0982763333,64.3000000000,1.0000000000,-0.2500000000,354.0625000000,image99.jpg,6612.7410390000
0.4313725531,28.0000000000,5,50.8680668333,-0.0982771667,64.3000000000,4.1875000000,0.1250000000,356.7500000000,image101.jpg,6744.4227060000
0.5176470876,28.0000000000,5,50.8680668333,-0.0982776667,64.3000000000,1.4375000000,1.3125000000,357.5625000000,image102.jpg,6812.5381230000
0.5176470876,31.0000000000,5,50.8680673333,-0.0982780000,64.3000000000,-0.1250000000,0.0000000000,1.3125000000,image104.jpg,6943.3982270000
0.5333333611,32.0000000000,2,50.8680673333,-0.0982790000,64.3000000000,3.5625000000,-0.5625000000,1.1875000000,image105.jpg,7013.4442160000
0.5254902244,31.0000000000,2,50.8680673333,-0.0982793333,64.3000000000,4.8125000000,0.1250000000,0.5625000000,image107.jpg,7143.2556220000
0.5019608140,31.0000000000,2,50.8680676667,-0.0982796667,64.3000000000,3.3750000000,0.3125000000,2.2500000000,image108.jpg,7214.1256740000
0.5411764979,30.0000000000,5,50.8680678333,-0.0982803333,64.3000000000,3.0000000000,0.5625000000,5.9375000000,image110.jpg,7344.5282260000
0.5411764979,27.0000000000,5,50.8680680000,-0.0982811667,64.3000000000,4.5000000000,0.8125000000,8.0625000000,image111.jpg,7413.8495810000
0.5411764979,23.0000000000,5,50.8680681667,-0.0982816667,64.3000000000,3.3125000000,3.0000000000,10.4375000000,image113.jpg,7545.8417680000
0.5568627715,19.0000000000,5,50.8680685000,-0.0982818333,64.3000000000,4.0000000000,4.6250000000,12.5000000000,image114.jpg,7613.8570280000
0.5490196347,10.0000000000,5,50.8680688333,-0.0982830000,64.3000000000,5.6875000000,2.7500000000,13.3750000000,image116.jpg,7744.4372370000
0.5176470876,4.0000000000,5,50.8680691667,-0.0982833333,64.3000000000,5.6875000000,2.3125000000,13.4375000000,image117.jpg,7812.9779660000
0.5098039508,1.0000000000,5,50.8680693333,-0.0982840000,64.3000000000,5.0000000000,1.8125000000,13.8750000000,image119.jpg,7944.9694760000
0.5411764979,-1.0000000000,5,50.8680696667,-0.0982845000,64.3000000000,3.8125000000,1.8750000000,14.8750000000,image120.jpg,8012.9160910000
0.5490196347,-5.0000000000,5,50.8680700000,-0.0982851667,64.3000000000,4.1875000000,3.3125000000,14.5625000000,image122.jpg,8144.1919760000
0.5647059083,-5.0000000000,5,50.8680701667,-0.0982855000,64.3000000000,1.3750000000,3.5000000000,14.6250000000,image123.jpg,8212.7341120000
0.5490196347,-13.0000000000,5,50.8680705000,-0.0982861667,64.3000000000,3.1250000000,3.1250000000,14.1875000000,image125.jpg,8344.5357260000
0.5176470876,-13.0000000000,5,50.8680706667,-0.0982871667,64.3000000000,5.3125000000,2.5625000000,13.8750000000,image126.jpg,8413.4389550000
0.5647059083,-8.0000000000,5,50.8680706667,-0.0982878333,64.3000000000,5.8750000000,1.9375000000,12.0625000000,image128.jpg,8545.2347360000
0.5647059083,-1.0000000000,5,50.8680710000,-0.0982881667,64.4000000000,5.5000000000,1.4375000000,11.3125000000,image129.jpg,8612.5998410000
0.5490196347,1.0000000000,5,50.8680713333,-0.0982890000,64.4000000000,2.6250000000,-1.3750000000,10.0625000000,image131.jpg,8745.3880700000
0.5803921819,0.0000000000,5,50.8680716667,-0.0982898333,64.4000000000,1.5000000000,-1.5625000000,9.0625000000,image132.jpg,8812.6533820000
0.5647059083,0.0000000000,5,50.8680718333,-0.0982903333,64.4000000000,4.3125000000,-1.0625000000,9.5625000000,image134.jpg,8946.1632780000
0.5333333611,0.0000000000,5,50.8680718333,-0.0982906667,64.4000000000,5.7500000000,-1.9375000000,8.5000000000,image135.jpg,9012.5542150000
0.5647059083,2.0000000000,5,50.8680723333,-0.0982918333,64.4000000000,4.4375000000,-1.4375000000,8.3750000000,image137.jpg,9146.0322880000
0.5647059083,0.0000000000,5,50.8680725000,-0.0982925000,64.4000000000,4.5625000000,-1.1250000000,7.5625000000,image138.jpg,9212.3260900000
0.5882353187,-1.0000000000,5,50.8680726667,-0.0982931667,64.4000000000,5.8750000000,-0.1250000000,7.1875000000,image140.jpg,9349.4299970000
0.5725490451,1.0000000000,5,50.8680728333,-0.0982935000,64.4000000000,5.0000000000,-0.3125000000,7.5000000000,image141.jpg,9412.4722360000
0.5725490451,-1.0000000000,5,50.8680731667,-0.0982941667,64.5000000000,3.7500000000,1.8125000000,7.8750000000,image143.jpg,9549.5897360000
0.5725490451,-1.0000000000,5,50.8680731667,-0.0982950000,64.5000000000,4.4375000000,1.8125000000,7.0000000000,image144.jpg,9612.6503090000
0.5725490451,-1.0000000000,5,50.8680735000,-0.0982958333,64.5000000000,3.3750000000,1.4375000000,6.8750000000,image146.jpg,9749.7910380000
0.5725490451,-1.0000000000,5,50.8680736667,-0.0982961667,64.5000000000,4.4375000000,1.5000000000,7.1875000000,image147.jpg,9812.7384860000
0.5490196347,-1.0000000000,5,50.8680740000,-0.0982973333,64.5000000000,5.0625000000,1.8750000000,5.1875000000,image149.jpg,9948.2419230000
0.5882353187,-1.0000000000,5,50.8680743333,-0.0982980000,64.5000000000,5.3750000000,3.4375000000,6.2500000000,image150.jpg,10012.7621320000
0.5882353187,-1.0000000000,5,50.8680741667,-0.0982983333,64.5000000000,7.7500000000,5.1875000000,5.5625000000,image152.jpg,10148.3179130000
0.5176470876,-2.0000000000,5,50.8680743333,-0.0982986667,64.5000000000,7.5000000000,5.1250000000,6.0625000000,image153.jpg,10212.3744750000
0.5882353187,-1.0000000000,5,50.8680748333,-0.0982993333,64.5000000000,4.7500000000,5.3125000000,5.5625000000,image155.jpg,10348.7918190000
0.5882353187,-2.0000000000,5,50.8680750000,-0.0982998333,64.5000000000,4.8125000000,2.8125000000,6.1875000000,image156.jpg,10411.4639020000
0.6039215922,-3.0000000000,5,50.8680751667,-0.0983008333,64.5000000000,4.5625000000,2.7500000000,5.1250000000,image158.jpg,10548.8590590000
0.5882353187,-3.0000000000,5,50.8680753333,-0.0983011667,64.5000000000,6.0000000000,1.1875000000,5.4375000000,image159.jpg,10612.9199960000
0.5882353187,-4.0000000000,5,50.8680755000,-0.0983025000,64.5000000000,8.2500000000,-0.9375000000,4.3125000000,image161.jpg,10749.3989540000
0.5882353187,-4.0000000000,5,50.8680756667,-0.0983031667,64.5000000000,7.3125000000,-1.9375000000,3.1875000000,image162.jpg,10816.3241110000
0.5960784554,-4.0000000000,5,50.8680760000,-0.0983035000,64.6000000000,4.5625000000,1.0625000000,2.9375000000,image164.jpg,10948.9431210000
0.6039215922,-4.0000000000,5,50.8680761667,-0.0983038333,64.6000000000,3.5000000000,0.8750000000,2.5000000000,image165.jpg,11017.0078600000
0.5490196347,-2.0000000000,5,50.8680763333,-0.0983051667,64.6000000000,5.3750000000,1.6250000000,1.8125000000,image167.jpg,11149.5835380000
0.6039215922,0.0000000000,5,50.8680765000,-0.0983053333,64.6000000000,5.4375000000,1.1250000000,1.8125000000,image168.jpg,11216.3561420000
0.6039215922,4.0000000000,5,50.8680765000,-0.0983061667,64.6000000000,5.8125000000,2.3125000000,0.8750000000,image170.jpg,11348.3396830000
0.5490196347,7.0000000000,5,50.8680765000,-0.0983068333,64.6000000000,3.6875000000,0.6250000000,0.8750000000,image171.jpg,11416.3756210000
0.6039215922,15.0000000000,5,50.8680766667,-0.0983080000,64.6000000000,1.8750000000,1.6875000000,0.9375000000,image173.jpg,11548.3794750000
0.6039215922,13.0000000000,5,50.8680770000,-0.0983090000,64.6000000000,2.3125000000,1.2500000000,1.6875000000,image174.jpg,11617.4824440000
0.6039215922,10.0000000000,5,50.8680770000,-0.0983096667,64.6000000000,3.6875000000,0.0000000000,2.6875000000,image176.jpg,11748.4968710000
0.6039215922,9.0000000000,5,50.8680773333,-0.0983103333,64.6000000000,3.1875000000,0.2500000000,3.3750000000,image177.jpg,11816.4329640000
0.6039215922,4.0000000000,5,50.8680775000,-0.0983113333,64.6000000000,5.2500000000,0.8125000000,4.1875000000,image179.jpg,11949.1440060000
0.6039215922,1.0000000000,5,50.8680776667,-0.0983118333,64.6000000000,6.5000000000,0.3750000000,4.6875000000,image180.jpg,12017.5805160000
0.6039215922,0.0000000000,5,50.8680778333,-0.0983130000,64.6000000000,3.6250000000,0.0625000000,5.2500000000,image182.jpg,12149.3541100000
0.6274510026,-1.0000000000,5,50.8680783333,-0.0983135000,64.6000000000,2.8125000000,-0.1250000000,4.1875000000,image183.jpg,12217.6640060000
0.5176470876,-2.0000000000,5,50.8680786667,-0.0983141667,64.6000000000,4.1250000000,0.3750000000,4.6875000000,image185.jpg,12349.3754640000
0.6039215922,-1.0000000000,5,50.8680785000,-0.0983150000,64.6000000000,4.6250000000,2.1250000000,4.6250000000,image186.jpg,12415.3996310000
0.6039215922,0.0000000000,5,50.8680788333,-0.0983158333,64.6000000000,5.6250000000,2.0000000000,3.8750000000,image188.jpg,12548.5134850000
0.5176470876,2.0000000000,5,50.8680791667,-0.0983165000,64.6000000000,4.8125000000,1.5000000000,3.4375000000,image189.jpg,12617.1253080000
0.6039215922,1.0000000000,5,50.8680793333,-0.0983175000,64.6000000000,3.0625000000,1.1250000000,3.3125000000,image191.jpg,12749.2926520000
0.6196078658,0.0000000000,5,50.8680795000,-0.0983178333,64.7000000000,3.8125000000,2.1875000000,3.6875000000,image192.jpg,12817.3242660000
0.6117647290,0.0000000000,5,50.8680798333,-0.0983188333,64.7000000000,3.1250000000,0.3750000000,3.1875000000,image194.jpg,12950.1312450000
0.6117647290,-1.0000000000,5,50.8680800000,-0.0983196667,64.7000000000,2.6875000000,1.9375000000,3.6875000000,image195.jpg,13017.0961930000
0.6117647290,-2.0000000000,5,50.8680801667,-0.0983203333,64.7000000000,3.3750000000,0.8125000000,2.9375000000,image197.jpg,13148.6702560000
0.6039215922,-2.0000000000,5,50.8680800000,-0.0983213333,64.7000000000,4.8125000000,0.0625000000,2.7500000000,image198.jpg,13217.5207760000
0.6274510026,-4.0000000000,5,50.8680805000,-0.0983220000,64.7000000000,5.3750000000,1.0000000000,1.9375000000,image200.jpg,13352.5627030000
0.5803921819,-4.0000000000,5,50.8680806667,-0.0983228333,64.7000000000,5.8750000000,0.1875000000,1.4375000000,image201.jpg,13418.3248390000
0.5725490451,-3.0000000000,5,50.8680808333,-0.0983240000,64.7000000000,3.0000000000,-0.1250000000,359.8125000000,image203.jpg,13552.0954640000
0.6117647290,1.0000000000,5,50.8680811667,-0.0983246667,64.7000000000,2.2500000000,-0.5625000000,359.8750000000,image204.jpg,13617.5219740000
0.6117647290,8.0000000000,5,50.8680811667,-0.0983258333,64.7000000000,4.8750000000,-0.6250000000,0.2500000000,image206.jpg,13752.6307240000
0.5803921819,11.0000000000,5,50.8680813333,-0.0983263333,64.7000000000,5.6250000000,-0.7500000000,359.7500000000,image207.jpg,13822.1032760000
0.6274510026,16.0000000000,5,50.8680820000,-0.0983273333,64.7000000000,3.1250000000,1.0000000000,0.5625000000,image209.jpg,13951.9957760000
0.6117647290,16.0000000000,5,50.8680821667,-0.0983281667,64.7000000000,2.8750000000,0.8750000000,1.1250000000,image210.jpg,14017.3326510000
0.5882353187,6.0000000000,5,50.8680823333,-0.0983293333,64.7000000000,5.1250000000,1.4375000000,2.1250000000,image212.jpg,14151.9205680000
0.6196078658,1.0000000000,5,50.8680825000,-0.0983298333,64.7000000000,3.6875000000,0.6875000000,3.0625000000,image213.jpg,14217.2900990000
0.6196078658,0.0000000000,5,50.8680830000,-0.0983306667,64.7000000000,4.8750000000,1.2500000000,3.6250000000,image215.jpg,14352.0568700000
0.6352941394,0.0000000000,5,50.8680830000,-0.0983311667,64.8000000000,3.3125000000,1.0000000000,3.3125000000,image216.jpg,14417.6740050000
0.6509804130,2.0000000000,5,50.8680833333,-0.0983323333,64.7000000000,3.6875000000,-1.7500000000,4.3125000000,image218.jpg,14551.4557240000
0.6117647290,0.0000000000,5,50.8680833333,-0.0983335000,64.7000000000,5.1250000000,-0.8125000000,3.3750000000,image219.jpg,14620.4319740000
0.6039215922,0.0000000000,5,50.8680835000,-0.0983341667,64.7000000000,4.2500000000,0.6250000000,3.4375000000,image221.jpg,14752.1305150000
0.6431372762,0.0000000000,5,50.8680836667,-0.0983353333,64.7000000000,4.6250000000,-0.6875000000,3.3750000000,image222.jpg,14821.5002550000
0.6352941394,1.0000000000,5,50.8680836667,-0.0983358333,64.7000000000,2.8750000000,0.3750000000,3.4375000000,image224.jpg,14952.1160360000
0.6352941394,3.0000000000,5,50.8680838333,-0.0983368333,64.7000000000,4.1250000000,2.0625000000,3.4375000000,image225.jpg,15021.3012440000
0.6274510026,2.0000000000,5,50.8680840000,-0.0983376667,64.7000000000,4.6875000000,2.0000000000,3.2500000000,image227.jpg,15151.9694210000
0.6196078658,1.0000000000,5,50.8680845000,-0.0983380000,64.7000000000,4.5000000000,2.1875000000,3.7500000000,image228.jpg,15220.6402030000
0.5960784554,0.0000000000,5,50.8680850000,-0.0983390000,64.7000000000,5.5625000000,3.0625000000,2.3750000000,image230.jpg,15352.0233800000
0.6274510026,0.0000000000,5,50.8680851667,-0.0983398333,64.7000000000,3.5625000000,1.8125000000,3.6875000000,image231.jpg,15421.4640570000
0.6274510026,0.0000000000,5,50.8680855000,-0.0983408333,64.8000000000,3.9375000000,0.2500000000,2.7500000000,image233.jpg,15551.5524940000
0.6352941394,0.0000000000,5,50.8680860000,-0.0983418333,64.8000000000,3.5625000000,0.1875000000,3.0000000000,image234.jpg,15620.2719210000
0.6274510026,3.0000000000,5,50.8680863333,-0.0983426667,64.8000000000,3.4375000000,-1.3750000000,2.9375000000,image236.jpg,15752.0563480000
0.5882353187,0.0000000000,5,50.8680865000,-0.0983438333,64.7000000000,3.8750000000,-2.1250000000,2.7500000000,image237.jpg,15820.0080670000
0.6274510026,0.0000000000,5,50.8680870000,-0.0983445000,64.8000000000,3.6250000000,-1.7500000000,2.2500000000,image239.jpg,15951.3710880000
0.6274510026,-1.0000000000,5,50.8680873333,-0.0983453333,64.7000000000,3.4375000000,-0.6875000000,1.5000000000,image240.jpg,16021.2228590000
0.6274510026,-1.0000000000,5,50.8680873333,-0.0983461667,64.8000000000,1.0625000000,-1.1250000000,2.0000000000,image242.jpg,16152.0659310000
0.6431372762,2.0000000000,5,50.8680873333,-0.0983468333,64.8000000000,1.5000000000,1.2500000000,1.6250000000,image243.jpg,16220.8843170000
0.6274510026,3.0000000000,5,50.8680876667,-0.0983476667,64.8000000000,4.2500000000,2.4375000000,1.4375000000,image245.jpg,16352.0418690000
0.6274510026,4.0000000000,5,50.8680876667,-0.0983485000,64.7000000000,4.1875000000,1.5625000000,1.5000000000,image246.jpg,16421.7791610000
0.5725490451,8.0000000000,5,50.8680881667,-0.0983490000,64.8000000000,3.5625000000,1.8750000000,1.8750000000,image248.jpg,16553.0216600000
0.6352941394,8.0000000000,2,50.8680883333,-0.0983501667,64.8000000000,3.8125000000,5.2500000000,2.0000000000,image249.jpg,16621.4441600000
0.6352941394,7.0000000000,2,50.8680885000,-0.0983508333,64.8000000000,2.5000000000,1.6250000000,2.7500000000,image251.jpg,16753.1644730000
0.6509804130,8.0000000000,2,50.8680886667,-0.0983515000,64.7000000000,1.8125000000,1.8125000000,3.2500000000,image252.jpg,16821.1170250000
0.6431372762,11.0000000000,2,50.8680893333,-0.0983525000,64.7000000000,4.0000000000,2.9375000000,3.3750000000,image254.jpg,16953.4615560000
0.5960784554,6.0000000000,2,50.8680893333,-0.0983526667,64.7000000000,5.6875000000,1.5000000000,3.2500000000,image255.jpg,17021.3616600000
0.6509804130,0.0000000000,2,50.8680890000,-0.0983545000,64.7000000000,4.6250000000,0.1875000000,4.6250000000,image257.jpg,17157.2934310000
0.6431372762,0.0000000000,2,50.8680890000,-0.0983546667,64.7000000000,3.8125000000,1.6875000000,4.5625000000,image258.jpg,17219.6487440000
0.6509804130,0.0000000000,5,50.8680893333,-0.0983551667,64.7000000000,-1.5625000000,2.6875000000,4.4375000000,image260.jpg,17357.3783270000
0.6509804130,1.0000000000,5,50.8680903333,-0.0983563333,64.6000000000,-0.6250000000,2.6250000000,4.6875000000,image261.jpg,17420.8361910000
0.6274510026,0.0000000000,5,50.8680901667,-0.0983576667,64.6000000000,1.3125000000,3.4375000000,3.9375000000,image263.jpg,17556.8728060000
0.6352941394,0.0000000000,5,50.8680906667,-0.0983583333,64.7000000000,1.4375000000,1.5625000000,3.6875000000,image264.jpg,17624.6954100000
0.5882353187,2.0000000000,5,50.8680910000,-0.0983588333,64.7000000000,2.8750000000,1.0625000000,1.8125000000,image266.jpg,17757.1437950000
0.6352941394,1.0000000000,2,50.8680913333,-0.0983596667,64.7000000000,2.0625000000,1.8750000000,1.1875000000,image267.jpg,17819.6503580000
0.6431372762,5.0000000000,2,50.8680913333,-0.0983601667,64.7000000000,3.7500000000,1.7500000000,2.5625000000,image269.jpg,17955.9922850000
0.6352941394,10.0000000000,2,50.8680916667,-0.0983610000,64.7000000000,3.8125000000,2.5000000000,2.3750000000,image270.jpg,18021.2816600000
0.6352941394,25.0000000000,2,50.8680916667,-0.0983620000,64.7000000000,0.6250000000,4.6250000000,3.1250000000,image272.jpg,18157.1192640000
0.5490196347,32.0000000000,2,50.8680920000,-0.0983626667,64.7000000000,3.7500000000,4.1250000000,4.1875000000,image273.jpg,18224.8268160000
0.6352941394,31.0000000000,5,50.8680921667,-0.0983635000,64.8000000000,9.4375000000,3.3750000000,7.1875000000,image275.jpg,18356.2618680000
0.6274510026,16.0000000000,5,50.8680921667,-0.0983640000,64.8000000000,9.0625000000,2.1250000000,7.9375000000,image276.jpg,18420.7934310000
0.6274510026,1.0000000000,5,50.8680930000,-0.0983645000,64.8000000000,5.1875000000,-0.6250000000,12.0625000000,image278.jpg,18557.1308780000
0.6274510026,0.0000000000,5,50.8680931667,-0.0983651667,64.9000000000,2.5000000000,-0.3750000000,12.8125000000,image279.jpg,18624.1960350000
0.6274510026,0.0000000000,5,50.8680936667,-0.0983655000,64.9000000000,2.1875000000,0.6250000000,13.8750000000,image281.jpg,18757.3920760000
0.6274510026,-2.0000000000,5,50.8680941667,-0.0983670000,64.8000000000,6.5000000000,2.0000000000,14.0625000000,image282.jpg,18823.6913470000
0.5960784554,-6.0000000000,5,50.8680945000,-0.0983680000,64.8000000000,7.0625000000,4.3125000000,12.1875000000,image284.jpg,18956.9137430000
0.6117647290,-8.0000000000,2,50.8680950000,-0.0983688333,64.7000000000,5.2500000000,4.6875000000,12.1875000000,image285.jpg,19025.3650970000
0.6431372762,-10.0000000000,2,50.8680951667,-0.0983696667,64.7000000000,6.0625000000,4.6875000000,11.1250000000,image287.jpg,19155.7884300000
0.6431372762,-8.0000000000,2,50.8680955000,-0.0983701667,64.8000000000,7.6875000000,4.5000000000,10.5000000000,image288.jpg,19225.5510870000
0.6352941394,-13.0000000000,5,50.8680953333,-0.0983708333,64.8000000000,7.1875000000,3.8750000000,8.9375000000,image290.jpg,19356.2514510000
0.6039215922,-12.0000000000,5,50.8680958333,-0.0983720000,64.7000000000,7.0000000000,2.1875000000,7.9375000000,image291.jpg,19425.1430140000
0.6431372762,-13.0000000000,5,50.8680961667,-0.0983730000,64.8000000000,5.8125000000,-0.1875000000,5.5625000000,image293.jpg,19559.5624930000
0.6431372762,-8.0000000000,5,50.8680961667,-0.0983740000,64.8000000000,7.7500000000,0.3125000000,4.8125000000,image294.jpg,19626.1050970000
0.6117647290,-2.0000000000,5,50.8680963333,-0.0983746667,64.8000000000,8.8750000000,1.8125000000,2.3125000000,image296.jpg,19756.6092110000
0.6431372762,5.0000000000,5,50.8680966667,-0.0983751667,64.8000000000,9.6250000000,2.0000000000,1.2500000000,image297.jpg,19826.4598360000
0.6431372762,12.0000000000,5,50.8680970000,-0.0983758333,64.7000000000,7.3125000000,1.4375000000,359.9375000000,image299.jpg,19957.2072840000
0.6039215922,12.0000000000,5,50.8680973333,-0.0983770000,64.8000000000,6.5625000000,2.3125000000,1.6875000000,image300.jpg,20026.5487420000
0.6117647290,2.0000000000,5,50.8680975000,-0.0983776667,64.8000000000,8.5625000000,2.7500000000,2.6875000000,image302.jpg,20158.7869720000
0.6274510026,0.0000000000,5,50.8680976667,-0.0983786667,64.8000000000,8.1875000000,2.1875000000,3.1250000000,image303.jpg,20229.7595240000
0.6431372762,0.0000000000,5,50.8680981667,-0.0983790000,64.8000000000,7.1250000000,-1.9375000000,3.1875000000,image305.jpg,20356.5886900000
0.6431372762,1.0000000000,5,50.8680985000,-0.0983801667,64.8000000000,5.5625000000,0.1875000000,2.3750000000,image306.jpg,20424.1657210000
0.6352941394,0.0000000000,5,50.8680988333,-0.0983806667,64.8000000000,1.9375000000,0.8125000000,2.1875000000,image308.jpg,20561.0528570000
0.6352941394,6.0000000000,5,50.8680988333,-0.0983820000,64.7000000000,3.1250000000,0.1875000000,2.3125000000,image309.jpg,20625.0106690000
0.6352941394,13.0000000000,5,50.8680995000,-0.0983828333,64.7000000000,1.2500000000,-1.5625000000,1.6250000000,image311.jpg,20760.4091070000
0.6509804130,18.0000000000,5,50.8681001667,-0.0983835000,64.7000000000,3.0625000000,-1.3125000000,2.3125000000,image312.jpg,20827.0535860000
0.6039215922,19.0000000000,5,50.8681001667,-0.0983850000,64.7000000000,5.6250000000,-0.6250000000,1.6250000000,image314.jpg,20956.0952000000
0.6352941394,16.0000000000,5,50.8681006667,-0.0983856667,64.7000000000,6.3750000000,0.1250000000,3.0625000000,image315.jpg,21024.8242630000
0.6352941394,0.0000000000,5,50.8681006667,-0.0983865000,64.7000000000,5.6250000000,1.6250000000,4.1875000000,image317.jpg,21156.4755650000
0.6039215922,0.0000000000,5,50.8681008333,-0.0983870000,64.7000000000,4.0000000000,1.6250000000,5.5625000000,image318.jpg,21224.8720750000
0.6509804130,2.0000000000,5,50.8681015000,-0.0983875000,64.7000000000,6.3125000000,2.0000000000,6.0000000000,image320.jpg,21367.2136900000
0.6039215922,2.0000000000,5,50.8681013333,-0.0983883333,64.8000000000,5.4375000000,2.7500000000,5.4375000000,image321.jpg,21424.9410340000
0.6352941394,16.0000000000,5,50.8681018333,-0.0983895000,64.7000000000,5.8750000000,-0.2500000000,6.0000000000,image323.jpg,21559.9204610000
0.6352941394,18.0000000000,5,50.8681018333,-0.0983903333,64.8000000000,3.3125000000,-0.5625000000,4.5625000000,image324.jpg,21624.3837940000
0.6352941394,4.0000000000,5,50.8681025000,-0.0983906667,64.7000000000,3.0625000000,-0.7500000000,7.7500000000,image326.jpg,21760.3233770000
0.6352941394,9.0000000000,5,50.8681026667,-0.0983918333,64.7000000000,4.9375000000,-0.8125000000,8.0000000000,image327.jpg,21829.2017630000
0.6509804130,15.0000000000,5,50.8681031667,-0.0983926667,64.7000000000,5.6875000000,-1.3125000000,8.3750000000,image329.jpg,21961.7400960000
0.6352941394,3.0000000000,5,50.8681036667,-0.0983935000,64.7000000000,6.8125000000,-0.9375000000,8.6875000000,image330.jpg,22029.8035850000
0.5803921819,13.0000000000,5,50.8681036667,-0.0983941667,64.7000000000,5.8125000000,-0.0625000000,9.0000000000,image332.jpg,22160.4499400000
0.6352941394,17.0000000000,5,50.8681041667,-0.0983950000,64.7000000000,5.6250000000,1.7500000000,9.8125000000,image333.jpg,22234.1473870000
0.6352941394,0.0000000000,5,50.8681046667,-0.0983960000,64.7000000000,7.3125000000,1.1875000000,10.9375000000,image335.jpg,22359.3808770000
0.5803921819,-1.0000000000,5,50.8681050000,-0.0983968333,64.7000000000,7.6875000000,1.2500000000,12.3125000000,image336.jpg,22430.1641580000
0.6431372762,-7.0000000000,5,50.8681053333,-0.0983973333,64.8000000000,6.6875000000,2.7500000000,12.7500000000,image338.jpg,22560.5955120000
0.5803921819,-9.0000000000,5,50.8681056667,-0.0983981667,64.7000000000,8.6250000000,2.1250000000,11.5625000000,image339.jpg,22624.8677520000
0.6352941394,5.0000000000,5,50.8681061667,-0.0983990000,64.7000000000,4.5000000000,2.5000000000,10.1875000000,image341.jpg,22761.4560850000
0.6352941394,14.0000000000,5,50.8681061667,-0.0983993333,64.7000000000,4.4375000000,2.5625000000,9.9375000000,image342.jpg,22828.9123350000
0.6352941394,24.0000000000,5,50.8681065000,-0.0984006667,64.7000000000,8.6250000000,0.3750000000,9.2500000000,image344.jpg,22961.0032210000
0.6352941394,15.0000000000,5,50.8681065000,-0.0984015000,64.8000000000,8.9375000000,-0.7500000000,10.4375000000,image345.jpg,23029.6011370000
0.6274510026,1.0000000000,5,50.8681066667,-0.0984016667,64.8000000000,8.6875000000,-0.4375000000,12.7500000000,image347.jpg,23160.4458770000
0.6274510026,-4.0000000000,5,50.8681065000,-0.0984025000,64.8000000000,8.5625000000,-0.4375000000,12.0000000000,image348.jpg,23230.2141580000
0.6352941394,15.0000000000,5,50.8681070000,-0.0984038333,64.8000000000,7.4375000000,1.4375000000,12.3125000000,image351.jpg,23429.8357720000
0.6352941394,14.0000000000,5,50.8681076667,-0.0984045000,64.9000000000,7.0000000000,-0.3125000000,12.1875000000,image353.jpg,23559.9813450000
0.5490196347,11.0000000000,5,50.8681081667,-0.0984050000,64.9000000000,6.6875000000,1.4375000000,12.6250000000,image354.jpg,23628.4290540000
0.6352941394,-1.0000000000,5,50.8681086667,-0.0984056667,64.9000000000,7.2500000000,-0.1875000000,13.8125000000,image356.jpg,23759.8822310000
0.5490196347,2.0000000000,2,50.8681090000,-0.0984066667,64.9000000000,4.7500000000,2.6250000000,13.9375000000,image357.jpg,23828.0791060000
0.6352941394,21.0000000000,2,50.8681090000,-0.0984066667,64.9000000000,1.7500000000,3.6875000000,15.1875000000,image359.jpg,23960.0436890000
0.6431372762,21.0000000000,2,50.8681095000,-0.0984073333,64.9000000000,4.5625000000,4.6250000000,14.5000000000,image360.jpg,24027.8368660000
0.6431372762,15.0000000000,2,50.8681096667,-0.0984081667,64.9000000000,7.1875000000,3.1250000000,16.1250000000,image362.jpg,24160.2517100000
0.6509804130,17.0000000000,2,50.8681101667,-0.0984091667,64.9000000000,7.2500000000,3.2500000000,17.8125000000,image363.jpg,24228.7596780000
0.6352941394,7.0000000000,5,50.8681103333,-0.0984098333,64.8000000000,6.0625000000,1.5625000000,19.0625000000,image365.jpg,24360.7087410000
0.6431372762,-3.0000000000,2,50.8681108333,-0.0984101667,64.8000000000,6.6875000000,0.7500000000,18.8125000000,image366.jpg,24436.7684280000
0.6039215922,-18.0000000000,2,50.8681111667,-0.0984106667,64.9000000000,7.5000000000,1.2500000000,19.2500000000,image368.jpg,24564.4583760000
0.6352941394,-22.0000000000,2,50.8681111667,-0.0984115000,64.9000000000,8.1250000000,0.6250000000,18.3125000000,image369.jpg,24637.8033240000
0.6431372762,-7.0000000000,2,50.8681116667,-0.0984123333,64.8000000000,7.0000000000,-1.0000000000,16.6875000000,image371.jpg,24761.7798870000
0.6117647290,-1.0000000000,2,50.8681120000,-0.0984133333,64.8000000000,3.4375000000,0.7500000000,14.6875000000,image372.jpg,24828.7951990000
0.6352941394,22.0000000000,2,50.8681123333,-0.0984138333,64.8000000000,7.6875000000,-1.0625000000,13.5625000000,image374.jpg,24964.7795220000
0.6039215922,26.0000000000,2,50.8681125000,-0.0984146667,64.8000000000,8.3750000000,-0.4375000000,12.2500000000,image375.jpg,25027.3758240000
0.6196078658,24.0000000000,2,50.8681128333,-0.0984151667,64.8000000000,7.5000000000,3.6875000000,14.4375000000,image377.jpg,25165.1579590000
0.6588235497,10.0000000000,2,50.8681131667,-0.0984155000,64.8000000000,7.5625000000,2.0625000000,17.0625000000,image378.jpg,25227.3203550000
0.6352941394,-5.0000000000,5,50.8681138333,-0.0984165000,64.8000000000,1.5625000000,3.6250000000,18.6250000000,image380.jpg,25365.7335320000
0.6509804130,-16.0000000000,5,50.8681145000,-0.0984168333,64.8000000000,1.3750000000,4.0625000000,19.5000000000,image381.jpg,25428.2371780000
0.6509804130,-20.0000000000,5,50.8681148333,-0.0984176667,64.8000000000,3.1250000000,2.1875000000,19.1250000000,image383.jpg,25569.4628030000
0.6196078658,-22.0000000000,5,50.8681148333,-0.0984186667,64.8000000000,6.6875000000,2.4375000000,18.7500000000,image384.jpg,25633.4352510000
0.6117647290,-22.0000000000,5,50.8681146667,-0.0984190000,64.8000000000,10.8125000000,2.5000000000,15.2500000000,image386.jpg,25764.3291050000
0.6431372762,-23.0000000000,5,50.8681150000,-0.0984195000,64.9000000000,13.1875000000,1.8125000000,13.6250000000,image387.jpg,25831.9393650000
0.6509804130,-4.0000000000,5,50.8681153333,-0.0984203333,64.9000000000,9.2500000000,0.0625000000,7.6875000000,image389.jpg,25964.0848340000
0.6039215922,4.0000000000,5,50.8681156667,-0.0984211667,64.8000000000,9.4375000000,-1.3750000000,6.5000000000,image390.jpg,26032.5428550000
0.6431372762,26.0000000000,5,50.8681156667,-0.0984216667,64.8000000000,5.0625000000,-4.2500000000,5.9375000000,image392.jpg,26164.0652510000
0.6352941394,31.0000000000,5,50.8681161667,-0.0984230000,64.8000000000,3.5000000000,-4.7500000000,7.3125000000,image393.jpg,26229.6743130000
0.6039215922,34.0000000000,5,50.8681161667,-0.0984233333,64.8000000000,5.8125000000,-0.7500000000,11.6875000000,image395.jpg,26364.1091050000
0.6431372762,34.0000000000,5,50.8681163333,-0.0984240000,64.8000000000,8.8125000000,-1.1250000000,14.0625000000,image396.jpg,26431.2152500000
0.6196078658,34.0000000000,5,50.8681165000,-0.0984246667,64.9000000000,14.1875000000,-0.1250000000,16.8125000000,image398.jpg,26570.4547300000
0.6509804130,34.0000000000,5,50.8681168333,-0.0984253333,64.8000000000,13.9375000000,-0.0625000000,18.1875000000,image399.jpg,26631.7045730000
0.6509804130,18.0000000000,5,50.8681176667,-0.0984258333,64.8000000000,12.1250000000,2.0625000000,21.5000000000,image401.jpg,26765.2531670000
0.6117647290,-1.0000000000,2,50.8681178333,-0.0984266667,64.8000000000,10.5000000000,3.3125000000,23.6250000000,image402.jpg,26832.3290000000
0.6431372762,-4.0000000000,2,50.8681183333,-0.0984271667,64.8000000000,9.0000000000,1.8125000000,27.2500000000,image404.jpg,26964.5339480000
0.6431372762,-3.0000000000,2,50.8681193333,-0.0984283333,64.8000000000,9.9375000000,0.0000000000,28.1250000000,image405.jpg,27031.4807190000
0.6509804130,3.0000000000,2,50.8681198333,-0.0984286667,64.8000000000,10.6250000000,0.6875000000,25.0625000000,image407.jpg,27165.1319170000
0.6509804130,9.0000000000,2,50.8681205000,-0.0984295000,64.8000000000,5.7500000000,1.2500000000,25.6250000000,image408.jpg,27232.7393130000
0.6431372762,22.0000000000,5,50.8681210000,-0.0984298333,64.8000000000,6.3125000000,1.7500000000,25.1875000000,image410.jpg,27363.6196770000
0.6509804130,25.0000000000,2,50.8681213333,-0.0984305000,64.8000000000,6.0625000000,0.8125000000,24.6875000000,image411.jpg,27431.8038440000
0.6509804130,21.0000000000,2,50.8681218333,-0.0984315000,64.8000000000,3.3125000000,1.6250000000,25.4375000000,image412.jpg,27507.0683230000
0.6588235497,4.0000000000,2,50.8681225000,-0.0984315000,64.8000000000,9.6250000000,2.1250000000,28.7500000000,image414.jpg,27633.2779060000
0.6431372762,-8.0000000000,2,50.8681230000,-0.0984325000,64.8000000000,6.1250000000,-1.0625000000,28.5000000000,image416.jpg,27763.7375420000
0.6431372762,-16.0000000000,2,50.8681238333,-0.0984330000,64.8000000000,4.8750000000,-1.0000000000,29.1250000000,image417.jpg,27832.4293650000
0.6509804130,-12.0000000000,2,50.8681240000,-0.0984338333,64.8000000000,7.5625000000,0.7500000000,27.1875000000,image419.jpg,27964.6879580000
0.5960784554,2.0000000000,2,50.8681238333,-0.0984345000,64.7000000000,5.8125000000,-0.6875000000,26.0625000000,image420.jpg,28032.3727500000
0.6509804130,9.0000000000,2,50.8681243333,-0.0984351667,64.7000000000,5.1875000000,0.8750000000,23.8125000000,image422.jpg,28164.7247810000
0.6666666865,15.0000000000,2,50.8681246667,-0.0984361667,64.7000000000,2.6875000000,1.7500000000,23.8125000000,image423.jpg,28232.5823330000
0.6509804130,11.0000000000,5,50.8681250000,-0.0984366667,64.6000000000,0.6875000000,4.5000000000,25.3125000000,image425.jpg,28364.9017600000
0.6431372762,0.0000000000,5,50.8681255000,-0.0984375000,64.7000000000,3.6250000000,1.4375000000,26.8750000000,image426.jpg,28435.2400410000
0.6352941394,-12.0000000000,5,50.8681260000,-0.0984385000,64.7000000000,4.8750000000,1.1250000000,26.8750000000,image428.jpg,28569.1072290000
0.6352941394,-14.0000000000,5,50.8681268333,-0.0984388333,64.7000000000,4.5625000000,2.1875000000,26.9375000000,image429.jpg,28632.5782180000
0.6352941394,-10.0000000000,5,50.8681271667,-0.0984395000,64.7000000000,2.6250000000,3.6250000000,24.6875000000,image431.jpg,28706.8502500000
0.6509804130,1.0000000000,2,50.8681276667,-0.0984400000,64.7000000000,0.4375000000,1.8125000000,23.0625000000,image433.jpg,28831.5160830000
0.5568627715,7.0000000000,2,50.8681270000,-0.0984403333,64.7000000000,4.8750000000,-0.5000000000,21.9375000000,image435.jpg,28968.4412390000
0.6431372762,-2.0000000000,2,50.8681266667,-0.0984411667,64.8000000000,6.5625000000,-1.5625000000,21.3750000000,image436.jpg,29032.5257180000
0.6509804130,-1.0000000000,2,50.8681258333,-0.0984421667,65.0000000000,6.3125000000,1.3750000000,21.6875000000,image438.jpg,29167.9259790000
0.5568627715,1.0000000000,2,50.8681251667,-0.0984428333,65.0000000000,4.0625000000,1.1250000000,21.6250000000,image439.jpg,29233.0039470000
0.6431372762,2.0000000000,5,50.8681243333,-0.0984443333,65.0000000000,3.4375000000,1.0000000000,21.8125000000,image440.jpg,29306.4138950000
0.6588235497,14.0000000000,5,50.8681230000,-0.0984453333,65.0000000000,12.1250000000,6.2500000000,22.4375000000,image442.jpg,29434.2161870000
0.6431372762,9.0000000000,5,50.8681225000,-0.0984461667,65.0000000000,12.8750000000,6.6875000000,22.4375000000,image444.jpg,29567.8772280000
0.6431372762,3.0000000000,5,50.8681225000,-0.0984475000,65.0000000000,11.8125000000,4.1875000000,23.8750000000,image445.jpg,29637.2494160000
0.6431372762,15.0000000000,2,50.8681233333,-0.0984480000,65.0000000000,9.1250000000,5.3125000000,24.8125000000,image447.jpg,29768.4235300000
0.6431372762,17.0000000000,2,50.8681240000,-0.0984483333,64.9000000000,8.4375000000,4.5625000000,24.3125000000,image448.jpg,29837.4733220000
0.6274510026,3.0000000000,2,50.8681241667,-0.0984490000,65.0000000000,10.0625000000,4.0625000000,27.0625000000,image450.jpg,29970.5558740000
0.6431372762,1.0000000000,2,50.8681243333,-0.0984495000,65.0000000000,10.3750000000,2.4375000000,28.0000000000,image451.jpg,30038.0677490000
0.6117647290,0.0000000000,2,50.8681246667,-0.0984505000,65.0000000000,10.7500000000,3.6875000000,27.9375000000,image453.jpg,30168.0241030000
0.6431372762,3.0000000000,2,50.8681253333,-0.0984508333,65.0000000000,6.6875000000,3.6250000000,26.3125000000,image454.jpg,30237.8639470000
0.6431372762,7.0000000000,5,50.8681258333,-0.0984516667,65.0000000000,8.6875000000,2.7500000000,27.2500000000,image456.jpg,30367.5445720000
0.6039215922,12.0000000000,2,50.8681268333,-0.0984525000,65.1000000000,9.1250000000,2.0625000000,26.7500000000,image457.jpg,30437.9447280000
0.6431372762,14.0000000000,2,50.8681270000,-0.0984530000,65.1000000000,7.2500000000,4.5000000000,27.5625000000,image459.jpg,30568.0319160000
0.6431372762,9.0000000000,2,50.8681280000,-0.0984538333,65.0000000000,8.4375000000,5.8750000000,28.5000000000,image460.jpg,30636.9669160000
0.6039215922,-1.0000000000,2,50.8681281667,-0.0984545000,65.1000000000,12.1875000000,6.5625000000,28.9375000000,image462.jpg,30768.2306650000
0.6352941394,-1.0000000000,2,50.8681286667,-0.0984550000,65.1000000000,11.7500000000,6.3750000000,29.4375000000,image463.jpg,30836.7290510000
0.6117647290,0.0000000000,2,50.8681313333,-0.0984580000,65.1000000000,6.1875000000,2.0625000000,31.2500000000,image464.jpg,31248.7113940000
0.6431372762,0.0000000000,5,50.8681318333,-0.0984586667,65.1000000000,8.5000000000,0.9375000000,31.8125000000,image465.jpg,31308.7767070000
0.6431372762,0.0000000000,5,50.8681325000,-0.0984596667,65.1000000000,8.4375000000,0.0625000000,29.9375000000,image467.jpg,31438.2724880000
0.6117647290,0.0000000000,5,50.8681333333,-0.0984601667,65.1000000000,4.5000000000,-1.5000000000,30.1875000000,image468.jpg,31505.2995710000
0.6117647290,-8.0000000000,5,50.8681338333,-0.0984606667,65.1000000000,5.7500000000,2.8750000000,30.1875000000,image470.jpg,31637.3996230000
0.6431372762,-10.0000000000,5,50.8681343333,-0.0984618333,65.1000000000,3.1875000000,1.6875000000,29.6875000000,image472.jpg,31768.0789460000
0.6431372762,-8.0000000000,5,50.8681351667,-0.0984621667,65.1000000000,4.8125000000,2.8750000000,29.4375000000,image473.jpg,31836.4669670000
0.6039215922,-8.0000000000,5,50.8681355000,-0.0984630000,65.1000000000,4.2500000000,4.5625000000,26.8750000000,image475.jpg,31967.9448840000
0.6431372762,-9.0000000000,5,50.8681360000,-0.0984635000,65.1000000000,3.0625000000,2.6250000000,28.1250000000,image476.jpg,32036.5749360000
0.6274510026,-12.0000000000,5,50.8681366667,-0.0984641667,65.1000000000,6.5000000000,0.5000000000,25.7500000000,image478.jpg,32167.5242070000
0.6509804130,-12.0000000000,5,50.8681370000,-0.0984650000,65.1000000000,7.6875000000,2.0625000000,24.0625000000,image479.jpg,32236.6122790000
0.6352941394,-12.0000000000,5,50.8681378333,-0.0984656667,65.1000000000,5.1250000000,-0.3750000000,22.8750000000,image481.jpg,32371.8491540000
0.6039215922,-12.0000000000,5,50.8681383333,-0.0984665000,65.1000000000,7.5625000000,-0.3750000000,22.3750000000,image482.jpg,32437.3035810000
0.6352941394,0.0000000000,5,50.8681381667,-0.0984670000,65.2000000000,8.3125000000,0.6875000000,19.1875000000,image484.jpg,32571.8881130000
0.6352941394,3.0000000000,5,50.8681385000,-0.0984675000,65.2000000000,9.6875000000,1.6250000000,19.4375000000,image485.jpg,32636.9598840000
