speed,steering angle,gps quality,lat,lon,altitude,roll,pitch,yaw,image name,timestamp
0.0392156877,1.0000000000,5,50.8680301667,-0.0982271667,71.1000000000,5.1875000000,-7.4375000000,359.9375000000,image0.jpg,44.2691660000
0.0470588244,2.0000000000,5,50.8680311667,-0.0982270000,71.1000000000,5.1875000000,-7.4375000000,359.9375000000,image1.jpg,181.8322910000
0.0156862754,0.0000000000,5,50.8680311667,-0.0982268333,71.1000000000,5.1875000000,-7.4375000000,359.9375000000,image2.jpg,241.9967180000
0.0313725509,0.0000000000,5,50.8680311667,-0.0982268333,71.1000000000,5.1875000000,-7.4375000000,359.9375000000,image3.jpg,376.6490620000
0.0392156877,0.0000000000,5,50.8680311667,-0.0982270000,71.1000000000,5.1875000000,-7.4375000000,359.9375000000,image4.jpg,443.7206770000
0.0392156877,0.0000000000,5,50.8680311667,-0.0982270000,71.1000000000,5.1875000000,-7.4375000000,359.9375000000,image5.jpg,576.6740620000
0.0392156877,3.0000000000,5,50.8680313333,-0.0982270000,71.1000000000,5.1875000000,-7.4375000000,359.9375000000,image6.jpg,643.7180200000
0.0784313753,0.0000000000,5,50.8680313333,-0.0982270000,71.1000000000,5.1250000000,-7.4375000000,359.8750000000,image7.jpg,776.5173430000
0.1176470593,0.0000000000,5,50.8680313333,-0.0982270000,71.1000000000,5.1250000000,-7.4375000000,359.8750000000,image8.jpg,844.9460410000
0.0549019612,0.0000000000,5,50.8680313333,-0.0982270000,71.1000000000,5.1250000000,-7.4375000000,359.8750000000,image9.jpg,977.4416140000
0.1411764771,0.0000000000,5,50.8680313333,-0.0982270000,71.1000000000,5.1250000000,-7.4375000000,359.8750000000,image10.jpg,1045.1272910000
0.1490196139,0.0000000000,5,50.8680313333,-0.0982270000,71.1000000000,5.1250000000,-7.4375000000,359.8750000000,image11.jpg,1176.8128120000
0.1647058874,0.0000000000,5,50.8680313333,-0.0982270000,71.1000000000,5.1250000000,-7.4375000000,359.8750000000,image12.jpg,1244.4615620000
0.2196078449,2.0000000000,5,50.8680313333,-0.0982270000,71.1000000000,5.1875000000,-7.4375000000,359.8750000000,image13.jpg,1377.0083330000
0.2901960909,2.0000000000,5,50.8680315000,-0.0982270000,71.1000000000,5.2500000000,-7.4375000000,359.7500000000,image14.jpg,1445.9564580000
0.3529411852,5.0000000000,5,50.8680313333,-0.0982270000,71.1000000000,5.1875000000,-7.3750000000,359.6875000000,image15.jpg,1578.7472910000
0.3607843220,8.0000000000,5,50.8680313333,-0.0982271667,71.1000000000,4.7500000000,-7.7500000000,359.8125000000,image16.jpg,1646.9074470000
0.4156862795,8.0000000000,5,50.8680313333,-0.0982273333,71.1000000000,5.7500000000,-7.9375000000,0.8125000000,image17.jpg,1777.6765100000
0.4078431427,10.0000000000,5,50.8680311667,-0.0982275000,71.1000000000,7.9375000000,-7.5000000000,0.8750000000,image18.jpg,1845.9090620000
0.4235294163,9.0000000000,5,50.8680310000,-0.0982276667,71.1000000000,11.3750000000,-6.1250000000,0.6875000000,image19.jpg,1983.2392700000
0.4078431427,8.0000000000,5,50.8680305000,-0.0982280000,71.1000000000,9.6250000000,-5.6875000000,0.6875000000,image20.jpg,2045.4630200000
0.3607843220,11.0000000000,5,50.8680301667,-0.0982288333,71.1000000000,6.1875000000,-6.4375000000,2.0000000000,image21.jpg,2176.0154680000
0.4000000060,15.0000000000,5,50.8680298333,-0.0982296667,71.1000000000,3.8750000000,-5.5625000000,3.3750000000,image22.jpg,2245.2017180000
0.3921568692,19.0000000000,5,50.8680296667,-0.0982301667,71.1000000000,4.1875000000,-3.0000000000,3.7500000000,image23.jpg,2378.7675510000
0.4000000060,19.0000000000,5,50.8680293333,-0.0982308333,71.1000000000,4.1875000000,-4.7500000000,4.1875000000,image24.jpg,2445.9786970000
0.3921568692,14.0000000000,5,50.8680286667,-0.0982313333,71.1000000000,8.4375000000,-5.9375000000,6.2500000000,image25.jpg,2575.2288010000
0.3372549117,7.0000000000,5,50.8680285000,-0.0982315000,71.1000000000,10.1875000000,-5.6875000000,4.6875000000,image26.jpg,2646.3823430000
0.3764705956,-1.0000000000,5,50.8680283333,-0.0982318333,71.1000000000,8.8125000000,-4.6875000000,5.3125000000,image27.jpg,2776.9118740000
0.3215686381,-9.0000000000,5,50.8680280000,-0.0982328333,71.0000000000,1.1250000000,-6.8125000000,5.8125000000,image28.jpg,2912.3824990000
0.3921568692,-14.0000000000,5,50.8680278333,-0.0982338333,71.0000000000,5.0000000000,-7.0625000000,7.3125000000,image29.jpg,2974.4612490000
0.2901960909,-12.0000000000,5,50.8680273333,-0.0982340000,71.0000000000,10.1875000000,-5.1250000000,5.6250000000,image30.jpg,3112.4770300000
0.3764705956,3.0000000000,5,50.8680271667,-0.0982336667,71.0000000000,10.2500000000,-4.4375000000,4.5000000000,image31.jpg,3180.9320300000
0.3843137324,0.0000000000,5,50.8680268333,-0.0982341667,71.0000000000,8.6875000000,-5.2500000000,3.6875000000,image32.jpg,3311.6071340000
0.2980392277,1.0000000000,5,50.8680265000,-0.0982348333,71.0000000000,9.6875000000,-6.0625000000,3.7500000000,image33.jpg,3383.0592690000
0.3843137324,0.0000000000,5,50.8680260000,-0.0982353333,71.0000000000,7.8750000000,-3.7500000000,1.8125000000,image34.jpg,3512.9815610000
0.4000000060,0.0000000000,5,50.8680258333,-0.0982358333,71.0000000000,5.9375000000,-1.9375000000,1.9375000000,image35.jpg,3581.4844250000
0.3843137324,0.0000000000,5,50.8680258333,-0.0982363333,71.0000000000,9.5000000000,-2.3125000000,4.0625000000,image36.jpg,3713.2629670000
0.3843137324,0.0000000000,5,50.8680253333,-0.0982366667,71.0000000000,13.1875000000,-2.6250000000,3.9375000000,image37.jpg,3780.4343730000
0.3921568692,0.0000000000,5,50.8680248333,-0.0982366667,71.0000000000,13.6875000000,-0.1875000000,4.1250000000,image38.jpg,3912.0010400000
0.3921568692,0.0000000000,5,50.8680248333,-0.0982371667,71.0000000000,13.8125000000,1.5000000000,3.5625000000,image39.jpg,3982.1127590000
0.3686274588,1.0000000000,5,50.8680246667,-0.0982376667,71.0000000000,14.4375000000,2.8750000000,2.5000000000,image40.jpg,4112.0903110000
0.4078431427,0.0000000000,5,50.8680243333,-0.0982378333,71.0000000000,12.3750000000,2.3750000000,1.5625000000,image41.jpg,4180.3424460000
0.3607843220,0.0000000000,5,50.8680241667,-0.0982386667,71.0000000000,6.1250000000,1.6250000000,2.4375000000,image42.jpg,4312.8767690000
0.4000000060,-1.0000000000,5,50.8680240000,-0.0982393333,71.0000000000,6.6875000000,1.0625000000,2.1250000000,image43.jpg,4381.1599460000
0.4078431427,-1.0000000000,5,50.8680236667,-0.0982395000,71.0000000000,9.5625000000,-0.5625000000,1.9375000000,image44.jpg,4514.9384880000
0.3764705956,2.0000000000,5,50.8680231667,-0.0982398333,71.0000000000,9.5625000000,-2.5625000000,1.3125000000,image45.jpg,4579.6473420000
0.4235294163,0.0000000000,5,50.8680228333,-0.0982405000,71.0000000000,9.9375000000,-4.5625000000,1.4375000000,image46.jpg,4711.6863000000
0.4156862795,0.0000000000,5,50.8680225000,-0.0982410000,71.0000000000,10.0625000000,-3.3125000000,1.1250000000,image47.jpg,4780.2656230000
0.3764705956,0.0000000000,5,50.8680223333,-0.0982413333,71.0000000000,7.5625000000,-1.2500000000,359.7500000000,image48.jpg,4911.5356750000
0.4156862795,0.0000000000,5,50.8680221667,-0.0982416667,71.0000000000,5.0000000000,-2.0000000000,359.2500000000,image49.jpg,4979.3230190000
0.4313725531,0.0000000000,5,50.8680218333,-0.0982425000,71.0000000000,4.1250000000,-1.4375000000,359.6875000000,image50.jpg,5113.9514560000
0.4470588267,0.0000000000,5,50.8680215000,-0.0982430000,71.0000000000,4.5000000000,-0.5000000000,359.6875000000,image51.jpg,5180.3170290000
0.4156862795,1.0000000000,5,50.8680211667,-0.0982433333,71.0000000000,5.3125000000,2.1875000000,359.4375000000,image52.jpg,5314.4882270000
0.4156862795,0.0000000000,5,50.8680208333,-0.0982438333,71.0000000000,3.5000000000,2.6250000000,359.8750000000,image53.jpg,5379.1720810000
0.4549019635,0.0000000000,5,50.8680205000,-0.0982445000,71.0000000000,6.0625000000,0.8750000000,359.0625000000,image54.jpg,5512.8059870000
0.4862745106,0.0000000000,5,50.8680203333,-0.0982448333,71.0000000000,8.2500000000,2.8125000000,358.4375000000,image55.jpg,5581.1852580000
0.5019608140,0.0000000000,5,50.8680198333,-0.0982451667,71.0000000000,9.6875000000,2.2500000000,358.5625000000,image56.jpg,5712.2980180000
0.4941176474,2.0000000000,5,50.8680195000,-0.0982456667,71.0000000000,9.7500000000,1.8125000000,358.0000000000,image57.jpg,5779.7633830000
0.4862745106,0.0000000000,5,50.8680190000,-0.0982461667,71.0000000000,6.0000000000,-0.4375000000,358.1875000000,image58.jpg,5915.9865080000
0.4862745106,0.0000000000,5,50.8680186667,-0.0982471667,71.0000000000,4.6875000000,0.7500000000,358.2500000000,image59.jpg,5981.2557790000
0.4470588267,0.0000000000,5,50.8680183333,-0.0982478333,71.0000000000,6.5000000000,-0.8125000000,359.1250000000,image60.jpg,6117.8972370000
0.4862745106,0.0000000000,5,50.8680176667,-0.0982483333,71.0000000000,6.6875000000,-1.0000000000,359.3750000000,image61.jpg,6181.0633310000
0.4862745106,0.0000000000,5,50.8680171667,-0.0982488333,71.0000000000,5.8750000000,-0.0625000000,358.8125000000,image62.jpg,6319.1464040000
0.4941176474,0.0000000000,5,50.8680168333,-0.0982498333,71.0000000000,4.2500000000,1.4375000000,357.8750000000,image63.jpg,6380.9898410000
0.4862745106,1.0000000000,5,50.8680165000,-0.0982505000,71.0000000000,4.6875000000,1.0625000000,359.6250000000,image64.jpg,6516.7874970000
0.4470588267,0.0000000000,5,50.8680160000,-0.0982510000,71.0000000000,5.6875000000,2.6875000000,0.0000000000,image65.jpg,6581.5168200000
0.5019608140,0.0000000000,5,50.8680158333,-0.0982516667,71.0000000000,8.3125000000,3.5625000000,0.0000000000,image66.jpg,6715.6076010000
0.5098039508,0.0000000000,5,50.8680155000,-0.0982521667,71.0000000000,6.7500000000,3.8125000000,359.6250000000,image67.jpg,6781.2584350000
0.5176470876,0.0000000000,5,50.8680150000,-0.0982525000,71.0000000000,5.5625000000,3.2500000000,0.6250000000,image68.jpg,6915.4241120000
0.5176470876,1.0000000000,5,50.8680145000,-0.0982535000,71.1000000000,5.5000000000,4.4375000000,0.0625000000,image69.jpg,6981.3089550000
0.4941176474,18.0000000000,5,50.8680140000,-0.0982541667,71.0000000000,6.5625000000,1.8750000000,1.3750000000,image70.jpg,7115.7568200000
0.4941176474,22.0000000000,5,50.8680138333,-0.0982548333,71.1000000000,7.3750000000,0.8125000000,1.7500000000,image71.jpg,7185.1006740000
0.4392156899,24.0000000000,5,50.8680131667,-0.0982553333,71.1000000000,5.9375000000,2.0000000000,2.3750000000,image72.jpg,7315.7680180000
0.4941176474,25.0000000000,5,50.8680128333,-0.0982561667,71.1000000000,5.6250000000,2.4375000000,3.7500000000,image73.jpg,7385.0656220000
0.5019608140,25.0000000000,5,50.8680128333,-0.0982570000,71.1000000000,8.8125000000,2.3125000000,6.8750000000,image74.jpg,7517.4085390000
0.4862745106,25.0000000000,5,50.8680123333,-0.0982578333,71.1000000000,8.6250000000,1.6250000000,7.4375000000,image75.jpg,7585.1308820000
0.4862745106,24.0000000000,5,50.8680120000,-0.0982585000,71.1000000000,5.5625000000,0.8125000000,11.5000000000,image76.jpg,7716.0763510000
0.4392156899,22.0000000000,5,50.8680116667,-0.0982595000,71.1000000000,5.8125000000,-0.3125000000,13.1250000000,image77.jpg,7783.9324970000
0.4941176474,15.0000000000,5,50.8680111667,-0.0982603333,71.1000000000,5.3750000000,0.8750000000,16.0000000000,image78.jpg,7917.0812990000
0.4941176474,7.0000000000,5,50.8680110000,-0.0982611667,71.1000000000,6.0000000000,1.1250000000,17.9375000000,image79.jpg,7985.4646840000
0.4941176474,-1.0000000000,5,50.8680110000,-0.0982620000,71.1000000000,8.6250000000,-1.3125000000,18.5000000000,image80.jpg,8117.7566110000
0.4941176474,-3.0000000000,5,50.8680106667,-0.0982630000,71.1000000000,6.2500000000,0.5625000000,19.1250000000,image81.jpg,8184.1743200000
0.4862745106,-6.0000000000,5,50.8680101667,-0.0982638333,71.1000000000,7.6250000000,1.8750000000,19.8125000000,image82.jpg,8318.4619760000
0.4941176474,-6.0000000000,5,50.8680101667,-0.0982645000,71.1000000000,6.3750000000,1.8750000000,18.8125000000,image83.jpg,8383.1934860000
0.4392156899,1.0000000000,5,50.8680098333,-0.0982653333,71.1000000000,4.7500000000,3.0625000000,18.7500000000,image84.jpg,8518.9446840000
0.5098039508,3.0000000000,5,50.8680096667,-0.0982663333,71.1000000000,7.5000000000,4.0625000000,18.2500000000,image85.jpg,8583.6496840000
0.4862745106,13.0000000000,5,50.8680093333,-0.0982668333,71.1000000000,3.5625000000,1.9375000000,16.8125000000,image86.jpg,8719.2500490000
0.4941176474,15.0000000000,5,50.8680091667,-0.0982675000,71.1000000000,2.9375000000,4.0000000000,17.4375000000,image87.jpg,8786.4342150000
0.4941176474,15.0000000000,5,50.8680088333,-0.0982683333,71.1000000000,4.0000000000,1.6875000000,17.6250000000,image88.jpg,8916.9081210000
0.4313725531,15.0000000000,5,50.8680085000,-0.0982690000,71.1000000000,4.1250000000,1.3750000000,18.2500000000,image89.jpg,8984.2072880000
0.5254902244,10.0000000000,5,50.8680083333,-0.0982698333,71.1000000000,5.3750000000,-0.5000000000,20.8125000000,image90.jpg,9116.5567670000
0.5333333611,20.0000000000,5,50.8680081667,-0.0982710000,71.1000000000,6.5625000000,-1.8750000000,21.3125000000,image91.jpg,9186.1527570000
0.5176470876,34.0000000000,5,50.8680076667,-0.0982720000,71.1000000000,3.5000000000,0.7500000000,22.1250000000,image92.jpg,9318.4921320000
0.5176470876,34.0000000000,5,50.8680075000,-0.0982728333,71.1000000000,3.9375000000,2.0000000000,24.2500000000,image93.jpg,9387.4267150000
0.5176470876,34.0000000000,5,50.8680075000,-0.0982740000,71.1000000000,7.8750000000,2.3125000000,28.6875000000,image94.jpg,9515.5423920000
0.5176470876,34.0000000000,5,50.8680070000,-0.0982751667,71.1000000000,6.8750000000,2.5000000000,30.7500000000,image95.jpg,9583.0788500000
0.4941176474,35.0000000000,5,50.8680070000,-0.0982760000,71.1000000000,6.1875000000,2.4375000000,35.2500000000,image96.jpg,9715.3334340000
0.5333333611,34.0000000000,5,50.8680071667,-0.0982768333,71.1000000000,6.0625000000,1.9375000000,37.1250000000,image97.jpg,9783.2047880000
0.5176470876,34.0000000000,5,50.8680070000,-0.0982776667,71.1000000000,9.8125000000,5.3125000000,42.0625000000,image98.jpg,9920.9316110000
0.5176470876,35.0000000000,5,50.8680070000,-0.0982786667,71.1000000000,10.8125000000,4.5000000000,44.3750000000,image99.jpg,9983.0324440000
0.5176470876,33.0000000000,5,50.8680066667,-0.0982793333,71.2000000000,8.5625000000,5.6875000000,47.4375000000,image100.jpg,10121.9351000000
0.4862745106,34.0000000000,5,50.8680070000,-0.0982803333,71.2000000000,6.2500000000,5.4375000000,49.6250000000,image101.jpg,10183.5380690000
0.5176470876,34.0000000000,5,50.8680073333,-0.0982810000,71.2000000000,5.1875000000,8.5000000000,52.8750000000,image102.jpg,10320.3103600000
0.5254902244,34.0000000000,5,50.8680073333,-0.0982813333,71.2000000000,6.2500000000,8.3125000000,53.5000000000,image103.jpg,10384.9618710000
0.4862745106,33.0000000000,5,50.8680071667,-0.0982816667,71.2000000000,4.8125000000,6.0000000000,58.1875000000,image104.jpg,10519.3904120000
0.5254902244,34.0000000000,5,50.8680073333,-0.0982828333,71.2000000000,6.6875000000,6.1250000000,60.4375000000,image105.jpg,10586.2278600000
0.5254902244,32.0000000000,5,50.8680075000,-0.0982836667,71.2000000000,5.9375000000,7.8750000000,62.6875000000,image106.jpg,10722.3671830000
0.4941176474,28.0000000000,5,50.8680078333,-0.0982845000,71.2000000000,5.0000000000,8.3750000000,63.8750000000,image107.jpg,10785.6776000000
0.4941176474,23.0000000000,5,50.8680081667,-0.0982856667,71.2000000000,2.6250000000,6.1250000000,68.6875000000,image108.jpg,10919.2978600000
0.5333333611,23.0000000000,5,50.8680086667,-0.0982866667,71.2000000000,1.6875000000,6.4375000000,71.1250000000,image109.jpg,10984.0434330000
0.5333333611,34.0000000000,5,50.8680090000,-0.0982875000,71.2000000000,2.3750000000,4.3125000000,74.4375000000,image110.jpg,11122.8087980000
0.5333333611,34.0000000000,5,50.8680093333,-0.0982888333,71.2000000000,2.0000000000,4.5625000000,75.6875000000,image111.jpg,11189.8380680000
0.5333333611,33.0000000000,5,50.8680098333,-0.0982896667,71.2000000000,-0.0625000000,5.5625000000,77.1875000000,image112.jpg,11320.1231200000
0.5490196347,34.0000000000,5,50.8680101667,-0.0982901667,71.2000000000,1.5625000000,6.8750000000,79.9375000000,image113.jpg,11387.9725480000
0.5333333611,34.0000000000,5,50.8680103333,-0.0982908333,71.2000000000,1.0000000000,6.0000000000,83.7500000000,image114.jpg,11519.9822870000
0.5333333611,33.0000000000,5,50.8680106667,-0.0982918333,71.2000000000,0.3125000000,5.3125000000,86.6875000000,image115.jpg,11587.9884850000
0.4941176474,34.0000000000,5,50.8680113333,-0.0982925000,71.2000000000,-0.7500000000,4.1875000000,92.3750000000,image116.jpg,11722.3961410000
0.5333333611,34.0000000000,5,50.8680116667,-0.0982930000,71.2000000000,0.4375000000,3.9375000000,93.6250000000,image117.jpg,11787.5268700000
0.5490196347,34.0000000000,5,50.8680125000,-0.0982936667,71.2000000000,1.1250000000,4.1250000000,96.6250000000,image118.jpg,11923.0673910000
0.5176470876,28.0000000000,5,50.8680128333,-0.0982941667,71.2000000000,-0.5625000000,5.1250000000,99.6250000000,image119.jpg,11986.9304120000
0.5411764979,18.0000000000,5,50.8680131667,-0.0982943333,71.2000000000,1.4375000000,2.0000000000,105.4375000000,image120.jpg,12118.8916100000
0.5411764979,16.0000000000,5,50.8680138333,-0.0982948333,71.2000000000,1.1875000000,2.7500000000,107.5625000000,image121.jpg,12186.9669740000
0.5411764979,15.0000000000,5,50.8680143333,-0.0982953333,71.2000000000,-0.6250000000,3.5625000000,110.5000000000,image122.jpg,12319.8485890000
0.5411764979,17.0000000000,5,50.8680150000,-0.0982958333,71.2000000000,0.6875000000,3.6875000000,110.6250000000,image123.jpg,12389.4621300000
0.5490196347,17.0000000000,5,50.8680153333,-0.0982963333,71.2000000000,-1.6250000000,7.0625000000,112.1250000000,image124.jpg,12520.2211930000
0.5411764979,17.0000000000,5,50.8680161667,-0.0982965000,71.1000000000,-0.5625000000,7.0625000000,113.8125000000,image125.jpg,12587.7010890000
0.5411764979,16.0000000000,5,50.8680170000,-0.0982970000,71.1000000000,0.5625000000,8.8750000000,114.9375000000,image126.jpg,12720.7827030000
0.5411764979,-4.0000000000,5,50.8680175000,-0.0982973333,71.1000000000,-0.2500000000,6.0625000000,116.5000000000,image127.jpg,12786.8895780000
0.4549019635,0.0000000000,5,50.8680181667,-0.0982976667,71.1000000000,-3.4375000000,3.8750000000,118.0625000000,image128.jpg,12919.9292140000
0.5411764979,0.0000000000,5,50.8680191667,-0.0982980000,71.1000000000,-3.0625000000,5.8125000000,117.9375000000,image129.jpg,12991.5225470000
0.5411764979,1.0000000000,5,50.8680200000,-0.0982980000,71.1000000000,-1.5625000000,4.5625000000,118.1250000000,image130.jpg,13119.0553590000
0.4862745106,0.0000000000,5,50.8680205000,-0.0982986667,71.1000000000,-0.8750000000,4.0000000000,118.2500000000,image131.jpg,13188.2057760000
0.5490196347,1.0000000000,5,50.8680211667,-0.0982993333,71.1000000000,-1.6250000000,4.1875000000,118.9375000000,image132.jpg,13319.9947340000
0.5490196347,0.0000000000,5,50.8680220000,-0.0982993333,71.1000000000,-0.6250000000,7.2500000000,117.3750000000,image133.jpg,13386.5012970000
0.5490196347,0.0000000000,5,50.8680221667,-0.0982995000,71.1000000000,2.5000000000,7.3125000000,117.7500000000,image134.jpg,13523.6055150000
0.5568627715,0.0000000000,5,50.8680226667,-0.0983000000,71.1000000000,4.6250000000,4.1875000000,116.7500000000,image135.jpg,13589.2199950000
0.5490196347,-8.0000000000,5,50.8680233333,-0.0983006667,71.1000000000,1.1250000000,7.3750000000,116.1250000000,image136.jpg,13723.6466610000
0.5490196347,-11.0000000000,5,50.8680241667,-0.0983008333,71.1000000000,1.7500000000,3.0625000000,116.8750000000,image137.jpg,13789.3398900000
0.5490196347,-8.0000000000,5,50.8680245000,-0.0983010000,71.1000000000,0.6250000000,-0.8125000000,114.5625000000,image138.jpg,13925.0004630000
0.5490196347,-1.0000000000,5,50.8680251667,-0.0983013333,71.1000000000,0.4375000000,0.3125000000,113.3750000000,image139.jpg,13987.6962970000
0.5019608140,0.0000000000,5,50.8680258333,-0.0983018333,71.1000000000,-1.9375000000,4.0625000000,110.9375000000,image140.jpg,14125.0483280000
0.5725490451,0.0000000000,5,50.8680263333,-0.0983023333,71.1000000000,-5.0000000000,5.7500000000,110.5000000000,image141.jpg,14187.1992130000
0.5568627715,0.0000000000,5,50.8680268333,-0.0983026667,71.1000000000,-5.4375000000,8.5000000000,110.8750000000,image142.jpg,14324.5159840000
0.5098039508,1.0000000000,5,50.8680278333,-0.0983031667,71.1000000000,-3.2500000000,5.6250000000,111.0000000000,image143.jpg,14386.9666090000
0.5568627715,3.0000000000,5,50.8680285000,-0.0983041667,71.1000000000,1.1250000000,4.0000000000,109.3125000000,image144.jpg,14525.1482230000
0.5568627715,6.0000000000,5,50.8680293333,-0.0983046667,71.1000000000,-0.1250000000,4.3750000000,108.1875000000,image145.jpg,14587.1045250000
0.5725490451,22.0000000000,5,50.8680306667,-0.0983055000,71.1000000000,-7.5625000000,5.3750000000,109.4375000000,image146.jpg,14731.6286400000
0.5568627715,27.0000000000,nan,nan,nan,nan,-6.0000000000,8.5000000000,110.6250000000,image147.jpg,14787.5274420000
0.4705882370,29.0000000000,5,50.8680313333,-0.0983055000,71.1000000000,1.0625000000,8.6875000000,114.3125000000,image148.jpg,14854.9621300000
0.5568627715,27.0000000000,5,50.8680318333,-0.0983065000,71.1000000000,4.4375000000,4.8125000000,118.4375000000,image149.jpg,14987.6524420000
0.5568627715,22.0000000000,5,50.8680325000,-0.0983070000,71.1000000000,4.5625000000,7.3750000000,119.7500000000,image150.jpg,15054.9141610000
0.5568627715,11.0000000000,5,50.8680336667,-0.0983068333,71.0000000000,-5.3750000000,6.6875000000,120.8750000000,image151.jpg,15191.9864000000
0.5568627715,5.0000000000,5,50.8680340000,-0.0983065000,71.1000000000,-6.0000000000,5.6250000000,123.3125000000,image152.jpg,15256.6975980000
0.5568627715,0.0000000000,5,50.8680348333,-0.0983063333,71.1000000000,0.5000000000,4.7500000000,124.9375000000,image153.jpg,15391.2596810000
0.5568627715,0.0000000000,5,50.8680355000,-0.0983068333,71.1000000000,0.8125000000,4.7500000000,124.7500000000,image154.jpg,15456.1455150000
0.4784313738,-23.0000000000,5,50.8680363333,-0.0983068333,71.1000000000,-1.8750000000,0.5000000000,124.3125000000,image155.jpg,15593.7660880000
0.5568627715,-35.0000000000,5,50.8680370000,-0.0983068333,71.1000000000,-3.3750000000,3.1250000000,124.3750000000,image156.jpg,15658.0566600000
0.5333333611,-35.0000000000,5,50.8680378333,-0.0983066667,71.1000000000,-4.3125000000,2.6250000000,123.0000000000,image157.jpg,15794.0877540000
0.5803921819,-34.0000000000,5,50.8680383333,-0.0983073333,71.1000000000,-1.8750000000,1.3750000000,120.8750000000,image158.jpg,15855.0827540000
0.5647059083,-35.0000000000,5,50.8680388333,-0.0983081667,71.1000000000,-3.9375000000,5.4375000000,113.5625000000,image159.jpg,15991.7408790000
0.5333333611,-33.0000000000,5,50.8680393333,-0.0983081667,71.1000000000,-6.5625000000,8.4375000000,112.1875000000,image160.jpg,16055.8107750000
0.5725490451,-15.0000000000,5,50.8680398333,-0.0983085000,71.1000000000,-3.1875000000,6.3750000000,105.0625000000,image161.jpg,16193.4906710000
0.5725490451,0.0000000000,5,50.8680405000,-0.0983091667,71.1000000000,-1.1875000000,6.1875000000,103.0625000000,image162.jpg,16255.8608270000
0.5568627715,11.0000000000,5,50.8680408333,-0.0983101667,71.1000000000,-0.1250000000,4.5625000000,99.6875000000,image163.jpg,16392.7314520000
0.5882353187,19.0000000000,5,50.8680415000,-0.0983111667,71.1000000000,0.0000000000,7.1875000000,99.7500000000,image164.jpg,16456.1102540000
0.5803921819,25.0000000000,5,50.8680421667,-0.0983118333,71.1000000000,2.9375000000,6.5000000000,101.5000000000,image165.jpg,16594.2380660000
0.5725490451,25.0000000000,5,50.8680428333,-0.0983123333,71.1000000000,4.3750000000,6.0625000000,102.3125000000,image166.jpg,16660.8442120000
0.5411764979,11.0000000000,5,50.8680431667,-0.0983133333,71.1000000000,5.1250000000,7.4375000000,105.5000000000,image167.jpg,16791.9232750000
0.5490196347,7.0000000000,5,50.8680436667,-0.0983136667,71.1000000000,5.6875000000,7.7500000000,106.5625000000,image168.jpg,16858.9108790000
0.5960784554,0.0000000000,5,50.8680446667,-0.0983140000,71.1000000000,0.8750000000,4.8125000000,109.0625000000,image169.jpg,16993.2067640000
0.5803921819,1.0000000000,5,50.8680455000,-0.0983145000,71.1000000000,0.1250000000,4.3750000000,109.5000000000,image170.jpg,17059.9352020000
0.5803921819,-1.0000000000,5,50.8680461667,-0.0983151667,71.1000000000,-0.3125000000,4.6250000000,110.8125000000,image171.jpg,17193.5409310000
0.5490196347,-11.0000000000,5,50.8680466667,-0.0983158333,71.1000000000,1.1250000000,3.3750000000,111.0000000000,image172.jpg,17259.6523890000
0.5803921819,-17.0000000000,5,50.8680473333,-0.0983165000,71.1000000000,-1.4375000000,9.6875000000,110.1875000000,image173.jpg,17393.3130140000
0.5803921819,-10.0000000000,5,50.8680481667,-0.0983166667,71.1000000000,-2.1250000000,6.7500000000,110.2500000000,image174.jpg,17457.6332220000
0.5490196347,-1.0000000000,5,50.8680490000,-0.0983173333,71.1000000000,-1.6875000000,7.0000000000,106.3750000000,image175.jpg,17596.6490560000
0.5803921819,2.0000000000,5,50.8680496667,-0.0983181667,71.1000000000,-5.3750000000,6.1875000000,106.0625000000,image176.jpg,17657.4759830000
0.5803921819,18.0000000000,5,50.8680506667,-0.0983185000,71.1000000000,-0.1875000000,3.6875000000,105.1250000000,image177.jpg,17795.4782220000
0.5803921819,20.0000000000,5,50.8680511667,-0.0983196667,71.1000000000,1.8125000000,4.8125000000,106.1250000000,image178.jpg,17860.6607220000
0.5803921819,22.0000000000,5,50.8680516667,-0.0983205000,71.1000000000,0.6875000000,4.8125000000,108.1250000000,image179.jpg,17991.9278570000
0.5568627715,20.0000000000,5,50.8680523333,-0.0983205000,71.1000000000,-2.6875000000,6.7500000000,109.3750000000,image180.jpg,18059.2461390000
0.5803921819,19.0000000000,5,50.8680531667,-0.0983208333,71.1000000000,-1.7500000000,5.8750000000,115.3750000000,image181.jpg,18192.2042640000
0.5803921819,18.0000000000,5,50.8680538333,-0.0983218333,71.1000000000,-3.0625000000,4.0625000000,118.0625000000,image182.jpg,18259.4959820000
0.5882353187,4.0000000000,5,50.8680546667,-0.0983220000,71.1000000000,-4.0000000000,5.5625000000,120.6250000000,image183.jpg,18391.6160870000
0.5803921819,2.0000000000,5,50.8680553333,-0.0983221667,71.1000000000,-4.9375000000,4.5625000000,121.9375000000,image184.jpg,18459.6563990000
0.5960784554,0.0000000000,5,50.8680561667,-0.0983223333,71.1000000000,-1.4375000000,2.6875000000,122.6250000000,image185.jpg,18596.0834820000
0.5960784554,0.0000000000,5,50.8680570000,-0.0983231667,71.1000000000,-2.6250000000,4.3125000000,122.6250000000,image186.jpg,18659.0212950000
0.5490196347,-5.0000000000,5,50.8680578333,-0.0983230000,71.1000000000,-2.0625000000,6.3125000000,122.7500000000,image187.jpg,18794.1965550000
0.5882353187,-5.0000000000,5,50.8680583333,-0.0983231667,71.1000000000,-2.8750000000,4.3750000000,122.7500000000,image188.jpg,18859.6378570000
0.5803921819,-3.0000000000,5,50.8680591667,-0.0983240000,71.1000000000,-1.1250000000,4.7500000000,121.0625000000,image189.jpg,18992.7658780000
0.4941176474,-3.0000000000,5,50.8680598333,-0.0983241667,71.1000000000,-0.8750000000,0.8750000000,120.8125000000,image190.jpg,19058.5592630000
0.5960784554,0.0000000000,5,50.8680605000,-0.0983246667,71.1000000000,-1.0000000000,3.8125000000,119.6875000000,image191.jpg,19197.1305130000
0.5333333611,-1.0000000000,5,50.8680613333,-0.0983250000,71.1000000000,-0.8125000000,2.2500000000,120.3750000000,image192.jpg,19258.5444720000
0.5882353187,-1.0000000000,5,50.8680621667,-0.0983255000,71.1000000000,-7.0000000000,6.7500000000,118.5000000000,image193.jpg,19398.4703050000
0.5882353187,-1.0000000000,5,50.8680630000,-0.0983253333,71.0000000000,-4.6250000000,7.1875000000,119.8750000000,image194.jpg,19463.5567110000
0.5882353187,0.0000000000,5,50.8680635000,-0.0983256667,71.0000000000,-2.0625000000,2.7500000000,119.0000000000,image195.jpg,19596.2028570000
0.5803921819,1.0000000000,5,50.8680645000,-0.0983265000,71.0000000000,-3.3125000000,3.9375000000,117.6875000000,image196.jpg,19661.9969190000
0.5803921819,0.0000000000,5,50.8680653333,-0.0983266667,71.0000000000,-5.0625000000,2.3125000000,117.8125000000,image197.jpg,19795.7452010000
0.5882353187,0.0000000000,5,50.8680660000,-0.0983266667,71.0000000000,-4.4375000000,3.6250000000,117.8750000000,image198.jpg,19860.3331690000
0.5333333611,4.0000000000,5,50.8680668333,-0.0983275000,71.0000000000,-1.6875000000,3.8750000000,117.4375000000,image199.jpg,19994.6328570000
0.5882353187,9.0000000000,2,50.8680676667,-0.0983281667,71.0000000000,-3.5000000000,0.7500000000,117.0625000000,image200.jpg,20059.5236380000
0.5882353187,19.0000000000,2,50.8680686667,-0.0983283333,71.0000000000,-3.0000000000,0.6250000000,118.1875000000,image201.jpg,20203.8040550000
0.5333333611,18.0000000000,2,50.8680695000,-0.0983288333,71.0000000000,-1.0625000000,2.2500000000,118.0000000000,image202.jpg,20260.6568150000
0.5882353187,6.0000000000,5,50.8680701667,-0.0983295000,70.9000000000,-1.3125000000,-0.0625000000,121.3750000000,image203.jpg,20397.2456690000
0.5333333611,3.0000000000,nan,nan,nan,nan,-2.3750000000,1.3125000000,122.8750000000,image204.jpg,20462.6317110000
0.5882353187,2.0000000000,nan,nan,nan,nan,-0.3125000000,1.5000000000,123.4375000000,image205.jpg,20526.4893150000
0.5882353187,1.0000000000,5,50.8680721667,-0.0983298333,70.9000000000,0.6875000000,1.8750000000,123.1875000000,image206.jpg,20596.4154610000
0.5333333611,1.0000000000,5,50.8680728333,-0.0983303333,70.9000000000,0.8125000000,2.4375000000,123.5625000000,image207.jpg,20731.5308250000
0.5882353187,0.0000000000,5,50.8680735000,-0.0983306667,70.9000000000,0.4375000000,3.3125000000,123.2500000000,image208.jpg,20796.7741590000
0.5882353187,0.0000000000,5,50.8680743333,-0.0983310000,70.9000000000,4.0000000000,4.5625000000,123.8750000000,image209.jpg,20928.4031690000
0.5882353187,1.0000000000,5,50.8680751667,-0.0983313333,70.9000000000,4.8125000000,6.6250000000,122.9375000000,image210.jpg,20996.6513980000
0.5882353187,0.0000000000,5,50.8680758333,-0.0983316667,70.9000000000,3.6250000000,10.3750000000,122.1250000000,image211.jpg,21128.4057730000
0.5019608140,1.0000000000,2,50.8680765000,-0.0983318333,70.9000000000,3.2500000000,9.4375000000,121.0625000000,image212.jpg,21196.6575440000
0.5960784554,0.0000000000,2,50.8680773333,-0.0983321667,70.9000000000,1.1250000000,8.5000000000,121.5625000000,image213.jpg,21327.4658770000
0.6039215922,0.0000000000,5,50.8680780000,-0.0983326667,70.9000000000,1.1250000000,9.1875000000,121.3750000000,image214.jpg,21396.0495750000
0.5960784554,7.0000000000,5,50.8680788333,-0.0983330000,70.9000000000,0.6250000000,7.9375000000,121.6875000000,image215.jpg,21527.0683250000
0.5960784554,19.0000000000,5,50.8680796667,-0.0983333333,70.9000000000,3.1250000000,5.7500000000,121.6875000000,image216.jpg,21595.3969710000
0.5960784554,19.0000000000,5,50.8680805000,-0.0983336667,70.9000000000,0.6250000000,4.0000000000,121.1875000000,image217.jpg,21728.3108250000
0.5960784554,14.0000000000,5,50.8680813333,-0.0983341667,70.9000000000,-1.0000000000,3.3750000000,123.6250000000,image218.jpg,21797.7962410000
0.5803921819,1.0000000000,5,50.8680823333,-0.0983343333,70.9000000000,-2.0000000000,6.1875000000,127.3750000000,image219.jpg,21929.6178560000
0.6274510026,0.0000000000,5,50.8680830000,-0.0983345000,70.9000000000,1.8750000000,6.3750000000,129.0625000000,image220.jpg,21993.8529600000
0.6196078658,0.0000000000,5,50.8680836667,-0.0983348333,70.9000000000,0.3750000000,6.3125000000,125.4375000000,image221.jpg,22131.8631160000
0.6117647290,1.0000000000,5,50.8680841667,-0.0983350000,70.9000000000,-0.4375000000,7.3750000000,125.8750000000,image222.jpg,22195.5974910000
0.6117647290,-1.0000000000,5,50.8680850000,-0.0983350000,70.9000000000,1.0000000000,4.7500000000,126.3125000000,image223.jpg,22331.2780120000
0.5725490451,-4.0000000000,5,50.8680860000,-0.0983353333,71.0000000000,3.9375000000,5.7500000000,125.8750000000,image224.jpg,22395.0502000000
0.6274510026,-6.0000000000,5,50.8680868333,-0.0983358333,70.9000000000,-1.1250000000,2.6875000000,124.9375000000,image225.jpg,22530.2418660000
0.6117647290,-6.0000000000,5,50.8680873333,-0.0983360000,70.9000000000,-1.0625000000,4.9375000000,124.2500000000,image226.jpg,22594.9415020000
0.5725490451,-4.0000000000,5,50.8680888333,-0.0983361667,71.0000000000,0.2500000000,6.1250000000,123.6250000000,image227.jpg,22736.1895740000
0.6039215922,-3.0000000000,nan,nan,nan,nan,-0.7500000000,6.5000000000,122.8125000000,image228.jpg,22795.9091060000
0.5647059083,-2.0000000000,5,50.8680896667,-0.0983365000,71.0000000000,-2.2500000000,6.5000000000,122.2500000000,image229.jpg,22867.8456160000
0.5725490451,0.0000000000,5,50.8680906667,-0.0983368333,70.9000000000,-2.1250000000,5.5000000000,121.9375000000,image230.jpg,22997.6067620000
0.6196078658,0.0000000000,5,50.8680913333,-0.0983368333,71.0000000000,1.0000000000,5.0625000000,121.6875000000,image231.jpg,23063.7478030000
0.5647059083,3.0000000000,5,50.8680921667,-0.0983371667,71.0000000000,-1.3750000000,6.8125000000,121.1250000000,image232.jpg,23199.8493140000
0.5960784554,6.0000000000,5,50.8680926667,-0.0983371667,71.0000000000,0.5625000000,6.2500000000,120.7500000000,image233.jpg,23264.6111890000
0.5960784554,8.0000000000,5,50.8680936667,-0.0983378333,71.0000000000,-1.3125000000,8.1875000000,120.1250000000,image234.jpg,23399.3586890000
0.5647059083,7.0000000000,5,50.8680945000,-0.0983380000,71.0000000000,1.8125000000,7.1250000000,121.3750000000,image235.jpg,23465.7249910000
0.5647059083,4.0000000000,5,50.8680948333,-0.0983386667,71.0000000000,-1.8750000000,4.7500000000,121.3125000000,image236.jpg,23604.4467100000
0.6117647290,2.0000000000,5,50.8680955000,-0.0983388333,71.0000000000,-0.8750000000,5.0625000000,121.3125000000,image237.jpg,23664.0269180000
0.6039215922,-4.0000000000,5,50.8680961667,-0.0983390000,71.0000000000,-1.5000000000,3.6875000000,120.4375000000,image238.jpg,23800.1726470000
0.5647059083,-12.0000000000,5,50.8680966667,-0.0983390000,71.0000000000,1.0000000000,2.7500000000,120.0625000000,image239.jpg,23864.0363970000
0.6039215922,-26.0000000000,5,50.8680970000,-0.0983395000,71.0000000000,3.5625000000,5.1250000000,118.7500000000,image240.jpg,24001.4293660000
0.5647059083,-28.0000000000,5,50.8680971667,-0.0983396667,71.0000000000,3.4375000000,5.9375000000,117.4375000000,image241.jpg,24063.8302510000
0.5803921819,-28.0000000000,5,50.8680973333,-0.0983396667,71.0000000000,0.6250000000,8.1250000000,113.5000000000,image242.jpg,24200.5808760000
0.6039215922,-29.0000000000,5,50.8680978333,-0.0983396667,71.0000000000,3.1250000000,7.1875000000,112.1875000000,image243.jpg,24269.4755110000
0.5803921819,-28.0000000000,5,50.8680983333,-0.0983403333,71.0000000000,6.0625000000,6.6875000000,107.2500000000,image244.jpg,24403.5208760000
0.6196078658,-22.0000000000,5,50.8680985000,-0.0983410000,71.0000000000,6.0625000000,6.1875000000,104.5000000000,image245.jpg,24468.4292610000
0.6588235497,-14.0000000000,5,50.8680985000,-0.0983410000,71.0000000000,3.8125000000,5.5625000000,99.6250000000,image246.jpg,24599.3978550000
0.6196078658,-6.0000000000,5,50.8680993333,-0.0983413333,71.0000000000,4.0000000000,3.8750000000,96.8125000000,image247.jpg,24667.6073860000
0.6588235497,9.0000000000,5,50.8680998333,-0.0983423333,71.0000000000,8.9375000000,3.8750000000,92.8125000000,image248.jpg,24800.2129590000
0.6509804130,9.0000000000,5,50.8681000000,-0.0983433333,71.0000000000,9.0625000000,5.3125000000,91.8750000000,image249.jpg,24867.5461880000
0.6509804130,14.0000000000,5,50.8681005000,-0.0983438333,71.0000000000,5.8750000000,6.3125000000,89.9375000000,image250.jpg,24998.4880110000
0.6509804130,19.0000000000,5,50.8681010000,-0.0983443333,71.0000000000,5.1875000000,4.5625000000,89.6250000000,image251.jpg,25067.3840010000
0.6509804130,28.0000000000,5,50.8681015000,-0.0983448333,71.0000000000,7.5625000000,6.6875000000,89.1250000000,image252.jpg,25204.8163440000
0.6431372762,30.0000000000,5,50.8681020000,-0.0983456667,71.0000000000,9.3125000000,5.6875000000,91.1875000000,image253.jpg,25266.4919690000
0.5882353187,34.0000000000,5,50.8681025000,-0.0983465000,71.0000000000,5.8125000000,1.8750000000,93.8750000000,image254.jpg,25399.7744690000
0.6509804130,34.0000000000,5,50.8681028333,-0.0983471667,71.0000000000,4.9375000000,1.3125000000,95.6250000000,image255.jpg,25466.6754070000
0.5960784554,34.0000000000,5,50.8681030000,-0.0983476667,71.0000000000,7.3750000000,1.3125000000,100.1250000000,image256.jpg,25599.9833230000
0.6509804130,34.0000000000,5,50.8681035000,-0.0983480000,71.0000000000,7.1875000000,0.3750000000,101.1875000000,image257.jpg,25667.9534800000
nan,0.0000000000,5,50.8681040000,-0.0983488333,71.0000000000,5.2500000000,2.1250000000,103.0625000000,image258.jpg,25806.0308750000
nan,0.0000000000,5,50.8681045000,-0.0983490000,71.0000000000,2.9375000000,3.3125000000,102.9375000000,image259.jpg,25874.2329590000
nan,0.0000000000,5,50.8681050000,-0.0983491667,71.0000000000,2.1875000000,3.3750000000,107.7500000000,image260.jpg,26007.2857190000
nan,0.0000000000,5,50.8681055000,-0.0983495000,71.0000000000,1.4375000000,3.9375000000,111.5625000000,image261.jpg,26073.8519690000
nan,0.0000000000,5,50.8681061667,-0.0983501667,71.0000000000,0.0000000000,3.8750000000,112.1875000000,image262.jpg,26208.5844170000
nan,0.0000000000,5,50.8681065000,-0.0983500000,71.0000000000,0.1875000000,4.0000000000,112.1250000000,image263.jpg,26272.6461880000
0.6745098233,0.0000000000,5,50.8681063333,-0.0983496667,71.0000000000,0.1875000000,3.8125000000,111.5000000000,image264.jpg,26401.3243130000
0.7607843280,1.0000000000,5,50.8681063333,-0.0983498333,71.0000000000,0.3125000000,3.7500000000,111.0625000000,image265.jpg,26466.8961880000
0.8705882430,0.0000000000,nan,nan,nan,nan,4.6875000000,6.5625000000,112.3750000000,image266.jpg,26599.8744170000
0.8156862855,0.0000000000,5,50.8681065000,-0.0983503333,70.9000000000,1.5625000000,6.5625000000,113.5000000000,image267.jpg,26668.6613960000
0.6745098233,1.0000000000,5,50.8681070000,-0.0983501667,70.9000000000,-0.5000000000,4.6250000000,113.7500000000,image268.jpg,26803.4208750000
0.7607843280,0.0000000000,5,50.8681076667,-0.0983501667,71.0000000000,1.8125000000,4.8125000000,112.8125000000,image269.jpg,26866.9457710000
0.7529411912,0.0000000000,5,50.8681083333,-0.0983510000,70.9000000000,1.0625000000,5.0625000000,112.0000000000,image270.jpg,26997.8946770000
0.7607843280,0.0000000000,5,50.8681090000,-0.0983511667,71.0000000000,3.4375000000,5.8750000000,111.3750000000,image271.jpg,27075.2362390000
0.7529411912,0.0000000000,5,50.8681091667,-0.0983515000,71.0000000000,2.6250000000,7.3125000000,108.8125000000,image272.jpg,27204.4602500000
0.6823529601,1.0000000000,5,50.8681093333,-0.0983520000,71.0000000000,0.6875000000,6.8125000000,107.0625000000,image273.jpg,27267.7163960000
0.7529411912,0.0000000000,5,50.8681098333,-0.0983518333,71.0000000000,2.3750000000,4.0000000000,103.8125000000,image274.jpg,27404.4048330000
0.7529411912,0.0000000000,5,50.8681105000,-0.0983521667,71.0000000000,4.8750000000,8.4375000000,103.3750000000,image275.jpg,27467.8971770000
0.7529411912,1.0000000000,5,50.8681105000,-0.0983528333,71.0000000000,2.7500000000,5.2500000000,100.9375000000,image276.jpg,27608.8616560000
0.7529411912,2.0000000000,5,50.8681110000,-0.0983526667,71.0000000000,4.1250000000,6.7500000000,100.5625000000,image277.jpg,27668.4151450000
0.7529411912,4.0000000000,5,50.8681113333,-0.0983531667,71.0000000000,2.3750000000,5.4375000000,99.0000000000,image278.jpg,27811.3488430000
0.7686274648,4.0000000000,5,50.8681113333,-0.0983536667,71.0000000000,3.5000000000,4.1875000000,98.5625000000,image279.jpg,27869.7710830000
0.7215686440,3.0000000000,2,50.8681115000,-0.0983541667,71.0000000000,5.7500000000,4.0625000000,97.3125000000,image280.jpg,28003.0830100000
0.7215686440,3.0000000000,2,50.8681118333,-0.0983545000,71.0000000000,5.4375000000,7.3750000000,97.8125000000,image281.jpg,28066.9167600000
0.7607843280,3.0000000000,2,50.8681121667,-0.0983546667,71.0000000000,4.5625000000,6.8750000000,96.1250000000,image282.jpg,28204.9295720000
0.7529411912,3.0000000000,2,50.8681133333,-0.0983550000,71.0000000000,5.3125000000,7.2500000000,95.7500000000,image283.jpg,28266.6236870000
0.7529411912,3.0000000000,5,50.8681131667,-0.0983555000,71.1000000000,4.8125000000,7.2500000000,94.5625000000,image284.jpg,28405.6079580000
0.7215686440,13.0000000000,5,50.8681133333,-0.0983556667,71.1000000000,8.1250000000,9.1875000000,95.6250000000,image285.jpg,28470.5527490000
0.7529411912,30.0000000000,5,50.8681133333,-0.0983560000,71.1000000000,12.0000000000,10.0000000000,93.9375000000,image286.jpg,28602.6402490000
0.7529411912,34.0000000000,5,50.8681133333,-0.0983563333,71.1000000000,12.9375000000,10.1250000000,93.6875000000,image287.jpg,28670.9818120000
0.7372549176,33.0000000000,5,50.8681138333,-0.0983565000,71.1000000000,10.0000000000,8.9375000000,96.1875000000,image288.jpg,28805.2737910000
0.7764706016,34.0000000000,2,50.8681143333,-0.0983568333,71.1000000000,10.7500000000,8.3125000000,96.3750000000,image289.jpg,28870.8668640000
0.7764706016,34.0000000000,2,50.8681150000,-0.0983576667,71.1000000000,7.6250000000,8.9375000000,100.3750000000,image290.jpg,29005.1797280000
0.7372549176,34.0000000000,2,50.8681153333,-0.0983575000,71.1000000000,5.0625000000,7.6250000000,101.3750000000,image291.jpg,29071.0795720000
0.7764706016,35.0000000000,2,50.8681156667,-0.0983576667,71.1000000000,2.4375000000,8.0625000000,105.2500000000,image292.jpg,29205.2614990000
0.7372549176,34.0000000000,2,50.8681161667,-0.0983576667,71.1000000000,3.3125000000,7.1875000000,106.8750000000,image293.jpg,29270.6826970000
0.7764706016,33.0000000000,2,50.8681165000,-0.0983580000,71.1000000000,3.6250000000,4.6250000000,110.3750000000,image294.jpg,29405.4680090000
nan,0.0000000000,2,50.8681170000,-0.0983585000,71.1000000000,3.9375000000,2.3750000000,112.0625000000,image295.jpg,29477.2649890000
nan,0.0000000000,2,50.8681176667,-0.0983586667,71.1000000000,5.0625000000,3.3750000000,116.0625000000,image296.jpg,29607.8623840000
nan,0.0000000000,2,50.8681181667,-0.0983581667,71.1000000000,3.5625000000,5.0000000000,117.2500000000,image297.jpg,29676.4972800000
nan,0.0000000000,2,50.8681185000,-0.0983588333,71.1000000000,-2.5000000000,8.7500000000,121.2500000000,image298.jpg,29807.8066030000
nan,0.0000000000,2,50.8681188333,-0.0983590000,71.2000000000,-5.1250000000,8.8750000000,121.5625000000,image299.jpg,29876.4457180000
0.7843137383,0.0000000000,2,50.8681190000,-0.0983586667,71.1000000000,-4.1875000000,9.0000000000,120.8125000000,image300.jpg,30002.0254050000
0.8941176534,0.0000000000,2,50.8681185000,-0.0983585000,71.1000000000,-3.6875000000,8.7500000000,120.1250000000,image301.jpg,30070.6355610000
0.8705882430,1.0000000000,2,50.8681185000,-0.0983588333,71.1000000000,0.3750000000,9.3125000000,122.3750000000,image302.jpg,30205.1509780000
0.8862745166,0.0000000000,2,50.8681186667,-0.0983593333,71.1000000000,-1.3750000000,9.2500000000,121.1250000000,image303.jpg,30270.1166030000
0.8313725591,0.0000000000,2,50.8681193333,-0.0983598333,71.1000000000,-3.1250000000,11.0625000000,118.5000000000,image304.jpg,30402.7392590000
0.8705882430,0.0000000000,2,50.8681201667,-0.0983600000,71.1000000000,0.5625000000,10.0000000000,118.8750000000,image305.jpg,30470.7540510000
0.8705882430,1.0000000000,2,50.8681203333,-0.0983611667,71.2000000000,1.5000000000,8.6250000000,117.0000000000,image306.jpg,30605.8323320000
0.8156862855,1.0000000000,2,50.8681213333,-0.0983628333,71.0000000000,0.3125000000,7.5625000000,115.6875000000,image307.jpg,30672.0256650000
0.8627451062,1.0000000000,2,50.8681221667,-0.0983635000,71.0000000000,-1.3125000000,5.8750000000,113.8125000000,image308.jpg,30804.4193630000
0.8627451062,0.0000000000,2,50.8681228333,-0.0983646667,71.1000000000,0.9375000000,4.5000000000,112.4375000000,image309.jpg,30869.3992590000
0.8627451062,0.0000000000,2,50.8681233333,-0.0983660000,71.0000000000,2.5000000000,5.6250000000,111.1250000000,image310.jpg,31008.7800920000
0.8627451062,0.0000000000,2,50.8681240000,-0.0983665000,71.0000000000,3.4375000000,5.8125000000,109.1250000000,image311.jpg,31072.3472270000
0.7686274648,5.0000000000,2,50.8681246667,-0.0983670000,70.9000000000,2.6250000000,9.1250000000,107.7500000000,image312.jpg,31216.0799880000
0.8627451062,13.0000000000,2,50.8681251667,-0.0983671667,70.9000000000,2.8125000000,10.2500000000,107.6875000000,image313.jpg,31273.5590500000
0.8549019694,19.0000000000,5,50.8681256667,-0.0983670000,71.0000000000,2.6250000000,10.5000000000,106.6250000000,image314.jpg,31410.5004040000
0.7686274648,21.0000000000,5,50.8681263333,-0.0983675000,71.0000000000,1.8125000000,9.4375000000,105.8125000000,image315.jpg,31475.1510290000
0.8549019694,18.0000000000,2,50.8681268333,-0.0983678333,71.0000000000,-0.3125000000,7.0625000000,107.2500000000,image316.jpg,31607.5089980000
0.8549019694,16.0000000000,2,50.8681275000,-0.0983685000,71.0000000000,0.5625000000,4.5625000000,109.1875000000,image317.jpg,31673.9807170000
0.8627451062,9.0000000000,2,50.8681280000,-0.0983690000,71.0000000000,-1.8125000000,4.6875000000,111.0000000000,image318.jpg,31810.5177480000
0.8549019694,8.0000000000,2,50.8681285000,-0.0983690000,71.0000000000,-0.6250000000,4.1875000000,112.1250000000,image319.jpg,31871.9673830000
0.8549019694,0.0000000000,2,50.8681293333,-0.0983695000,70.9000000000,-3.1875000000,5.6875000000,112.0625000000,image320.jpg,32011.2015500000
0.8549019694,0.0000000000,2,50.8681300000,-0.0983698333,71.0000000000,-2.1875000000,6.5625000000,112.1875000000,image321.jpg,32072.9300400000
0.8235294223,0.0000000000,2,50.8681305000,-0.0983701667,70.9000000000,-0.5000000000,7.6250000000,110.5000000000,image322.jpg,32207.9364980000
0.8235294223,-1.0000000000,2,50.8681311667,-0.0983708333,70.9000000000,-0.5625000000,7.9375000000,110.0625000000,image323.jpg,32272.3083210000
0.8235294223,-1.0000000000,5,50.8681316667,-0.0983710000,71.0000000000,2.6875000000,10.0000000000,107.3750000000,image324.jpg,32408.1255600000
0.8549019694,0.0000000000,5,50.8681320000,-0.0983713333,71.0000000000,2.6875000000,9.7500000000,106.9375000000,image325.jpg,32475.8567060000
0.8549019694,0.0000000000,5,50.8681325000,-0.0983715000,71.0000000000,4.0625000000,5.1250000000,104.9375000000,image326.jpg,32610.0801960000
0.8235294223,2.0000000000,5,50.8681330000,-0.0983718333,71.0000000000,3.6250000000,6.0000000000,104.6250000000,image327.jpg,32675.6266020000
0.8549019694,0.0000000000,2,50.8681336667,-0.0983725000,71.1000000000,2.6875000000,4.7500000000,102.8125000000,image328.jpg,32807.8651960000
nan,0.0000000000,2,50.8681343333,-0.0983731667,71.1000000000,2.4375000000,5.6875000000,102.6250000000,image329.jpg,32882.8662890000
nan,0.0000000000,2,50.8681348333,-0.0983735000,71.1000000000,2.8125000000,5.1875000000,100.6875000000,image330.jpg,33013.7456640000
nan,0.0000000000,2,50.8681350000,-0.0983738333,71.1000000000,5.7500000000,6.6250000000,99.3750000000,image331.jpg,33082.0875390000
nan,0.0000000000,2,50.8681355000,-0.0983743333,71.1000000000,4.1250000000,7.3125000000,96.1875000000,image332.jpg,33212.3358730000
nan,0.0000000000,2,50.8681361667,-0.0983746667,71.1000000000,3.8750000000,7.3125000000,95.4375000000,image333.jpg,33281.2667580000
0.8627451062,-2.0000000000,5,50.8681366667,-0.0983751667,71.1000000000,3.5625000000,7.2500000000,95.5000000000,image334.jpg,33407.5093620000
0.8235294223,0.0000000000,5,50.8681368333,-0.0983748333,71.1000000000,3.5000000000,7.1250000000,95.6875000000,image335.jpg,33473.6251430000
0.9882352948,0.0000000000,5,50.8681363333,-0.0983746667,71.1000000000,6.5625000000,8.1250000000,94.2500000000,image336.jpg,33605.8332680000
0.8941176534,-1.0000000000,5,50.8681363333,-0.0983751667,71.1000000000,7.5625000000,7.3125000000,92.5625000000,image337.jpg,33673.7765490000
0.9333333373,-1.0000000000,5,50.8681366667,-0.0983760000,71.1000000000,5.8125000000,6.6250000000,91.7500000000,image338.jpg,33805.6485290000
0.9333333373,0.0000000000,5,50.8681368333,-0.0983766667,71.1000000000,5.5000000000,5.9375000000,91.0625000000,image339.jpg,33874.5431120000
0.9333333373,3.0000000000,5,50.8681371667,-0.0983773333,71.1000000000,4.0000000000,6.5625000000,89.0625000000,image340.jpg,34010.3328510000
0.9333333373,9.0000000000,5,50.8681378333,-0.0983778333,71.1000000000,3.6250000000,4.5000000000,88.6875000000,image341.jpg,34081.9076950000
0.9333333373,16.0000000000,5,50.8681380000,-0.0983790000,71.1000000000,5.6250000000,5.4375000000,87.0000000000,image342.jpg,34212.2390490000
0.9333333373,13.0000000000,5,50.8681381667,-0.0983798333,71.1000000000,6.3125000000,4.2500000000,86.4375000000,image343.jpg,34275.9120180000
0.8470588326,7.0000000000,5,50.8681386667,-0.0983803333,71.1000000000,2.5625000000,5.6875000000,86.2500000000,image344.jpg,34413.6207680000
0.9333333373,5.0000000000,5,50.8681390000,-0.0983808333,71.1000000000,1.5000000000,6.8125000000,86.4375000000,image345.jpg,34476.9679030000
0.9333333373,4.0000000000,5,50.8681395000,-0.0983816667,71.1000000000,2.8125000000,4.7500000000,82.3750000000,image346.jpg,34612.5165490000
0.8470588326,5.0000000000,2,50.8681398333,-0.0983821667,71.1000000000,3.1250000000,5.6875000000,80.8750000000,image347.jpg,34676.1632160000
0.9333333373,3.0000000000,2,50.8681400000,-0.0983831667,71.1000000000,3.6875000000,4.5625000000,81.0000000000,image348.jpg,34811.8349860000
0.8470588326,3.0000000000,2,50.8681408333,-0.0983840000,71.1000000000,3.8125000000,6.3125000000,80.8750000000,image349.jpg,34875.8274860000
0.9333333373,3.0000000000,2,50.8681410000,-0.0983850000,71.1000000000,4.5625000000,4.3125000000,79.6250000000,image350.jpg,35007.1294130000
0.9333333373,2.0000000000,2,50.8681413333,-0.0983856667,71.1000000000,5.5625000000,5.8750000000,78.0625000000,image351.jpg,35076.1613410000
0.9333333373,0.0000000000,2,50.8681418333,-0.0983865000,71.1000000000,4.2500000000,4.8125000000,71.0000000000,image352.jpg,35213.5434760000
0.9333333373,-3.0000000000,2,50.8681423333,-0.0983873333,71.1000000000,5.1875000000,4.0625000000,70.2500000000,image353.jpg,35274.9884760000
0.9333333373,-14.0000000000,5,50.8681421667,-0.0983883333,71.1000000000,5.7500000000,5.6875000000,66.8750000000,image354.jpg,35414.0802990000
0.8941176534,-20.0000000000,5,50.8681423333,-0.0983896667,71.1000000000,8.5000000000,4.5625000000,66.1250000000,image355.jpg,35474.9886840000
0.9019607902,-15.0000000000,5,50.8681423333,-0.0983911667,71.1000000000,5.9375000000,4.3125000000,61.5000000000,image356.jpg,35612.5357670000
nan,0.0000000000,5,50.8681423333,-0.0983918333,71.1000000000,5.9375000000,4.3125000000,58.3750000000,image357.jpg,35685.1182150000
nan,0.0000000000,5,50.8681423333,-0.0983928333,71.1000000000,9.0000000000,2.5625000000,55.2500000000,image358.jpg,35816.0285800000
nan,0.0000000000,5,50.8681423333,-0.0983938333,71.1000000000,9.4375000000,2.9375000000,52.3750000000,image359.jpg,35884.7670170000
nan,0.0000000000,5,50.8681425000,-0.0983946667,71.1000000000,7.3750000000,2.3750000000,47.6875000000,image360.jpg,36016.4251420000
nan,0.0000000000,5,50.8681421667,-0.0983958333,71.1000000000,7.8125000000,1.7500000000,46.8125000000,image361.jpg,36084.9627990000
0.9254902005,35.0000000000,5,50.8681420000,-0.0983965000,71.1000000000,7.6250000000,1.6875000000,46.7500000000,image362.jpg,36210.1574340000
0.9176470637,33.0000000000,5,50.8681420000,-0.0983963333,71.1000000000,6.1875000000,1.9375000000,47.2500000000,image363.jpg,36279.1698820000
0.8313725591,33.0000000000,5,50.8681425000,-0.0983961667,71.1000000000,11.0625000000,3.0000000000,46.5625000000,image364.jpg,36410.4517570000
0.9176470637,34.0000000000,5,50.8681425000,-0.0983965000,71.1000000000,13.7500000000,2.9375000000,46.3125000000,image365.jpg,36480.3033190000
0.9176470637,34.0000000000,5,50.8681421667,-0.0983973333,71.1000000000,12.1250000000,2.1250000000,49.5000000000,image366.jpg,36611.2461320000
0.9176470637,35.0000000000,5,50.8681421667,-0.0983983333,71.1000000000,10.1250000000,2.0000000000,52.6250000000,image367.jpg,36688.5364440000
0.9176470637,34.0000000000,5,50.8681423333,-0.0983993333,71.1000000000,10.5000000000,3.5625000000,55.0625000000,image368.jpg,36822.3452460000
0.8313725591,33.0000000000,5,50.8681425000,-0.0984003333,71.1000000000,8.7500000000,3.5625000000,56.7500000000,image369.jpg,36878.9342570000
0.9176470637,33.0000000000,5,50.8681426667,-0.0984010000,71.1000000000,7.7500000000,4.6250000000,61.1250000000,image370.jpg,37013.8342560000
0.9176470637,33.0000000000,5,50.8681428333,-0.0984018333,71.1000000000,10.6875000000,5.8125000000,63.0000000000,image371.jpg,37078.9774860000
0.9176470637,21.0000000000,5,50.8681430000,-0.0984021667,71.1000000000,11.9375000000,5.3125000000,67.7500000000,image372.jpg,37211.7299860000
0.9254902005,15.0000000000,5,50.8681430000,-0.0984021667,71.1000000000,11.3125000000,4.7500000000,68.1875000000,image373.jpg,37279.0181110000
0.9254902005,7.0000000000,5,50.8681433333,-0.0984028333,71.1000000000,9.2500000000,5.5000000000,71.0625000000,image374.jpg,37411.7114440000
0.9176470637,0.0000000000,5,50.8681436667,-0.0984035000,71.1000000000,7.3750000000,3.8125000000,71.3125000000,image375.jpg,37484.2692560000
0.8313725591,1.0000000000,5,50.8681438333,-0.0984043333,71.1000000000,5.6875000000,3.8125000000,69.3750000000,image376.jpg,37613.5220170000
0.9176470637,0.0000000000,5,50.8681443333,-0.0984050000,71.1000000000,7.5625000000,2.6875000000,69.0000000000,image377.jpg,37681.6888400000
0.9176470637,0.0000000000,5,50.8681441667,-0.0984058333,71.1000000000,8.3750000000,5.7500000000,67.0000000000,image378.jpg,37811.2152460000
0.8392156959,1.0000000000,5,50.8681441667,-0.0984068333,71.1000000000,7.3750000000,6.3750000000,66.1250000000,image379.jpg,37879.8092040000
0.9254902005,0.0000000000,5,50.8681446667,-0.0984071667,71.1000000000,9.3750000000,3.6875000000,63.2500000000,image380.jpg,38010.2291000000
0.8862745166,0.0000000000,5,50.8681446667,-0.0984085000,71.1000000000,7.4375000000,3.8125000000,63.4375000000,image381.jpg,38081.8445160000
0.8862745166,0.0000000000,5,50.8681451667,-0.0984091667,71.2000000000,4.8125000000,2.3750000000,60.1875000000,image382.jpg,38217.2927980000
0.9176470637,0.0000000000,5,50.8681451667,-0.0984098333,71.2000000000,6.3750000000,2.8125000000,58.2500000000,image383.jpg,38279.8133710000
0.8862745166,0.0000000000,5,50.8681453333,-0.0984105000,71.2000000000,9.6250000000,0.0000000000,56.6250000000,image384.jpg,38424.3385270000
0.9254902005,7.0000000000,5,50.8681455000,-0.0984115000,71.2000000000,10.3125000000,-0.9375000000,56.4375000000,image385.jpg,38482.3421210000
0.9254902005,26.0000000000,5,50.8681455000,-0.0984121667,71.2000000000,7.5000000000,-2.1875000000,54.2500000000,image386.jpg,38618.6338910000
0.8862745166,33.0000000000,5,50.8681455000,-0.0984131667,71.2000000000,8.8750000000,-0.3125000000,54.2500000000,image387.jpg,38679.0534750000
0.8862745166,34.0000000000,5,50.8681455000,-0.0984141667,71.2000000000,16.5625000000,-2.9375000000,57.5000000000,image388.jpg,38816.0610270000
0.9176470637,33.0000000000,5,50.8681455000,-0.0984153333,71.1000000000,15.0000000000,-2.1875000000,59.4375000000,image389.jpg,38878.9768080000
0.9176470637,33.0000000000,5,50.8681460000,-0.0984153333,71.2000000000,15.3750000000,-2.1250000000,60.3125000000,image390.jpg,39016.0270160000
0.8862745166,33.0000000000,5,50.8681463333,-0.0984155000,71.1000000000,16.8750000000,-1.1250000000,60.7500000000,image391.jpg,39078.9712870000
0.9725490212,34.0000000000,5,50.8681461667,-0.0984158333,71.1000000000,15.9375000000,-1.3750000000,60.7500000000,image392.jpg,39216.0470160000
0.9960784316,32.0000000000,5,50.8681463333,-0.0984158333,71.1000000000,16.0000000000,-1.0625000000,60.8750000000,image393.jpg,39279.1058700000
1.0039216280,29.0000000000,5,50.8681463333,-0.0984158333,71.1000000000,13.2500000000,-0.7500000000,54.6875000000,image394.jpg,39418.5008180000
1.0039216280,30.0000000000,5,50.8681463333,-0.0984160000,71.1000000000,14.1250000000,-0.8750000000,54.1875000000,image395.jpg,39479.2525370000
1.0039216280,30.0000000000,5,50.8681463333,-0.0984165000,71.1000000000,12.3125000000,-0.1250000000,58.2500000000,image396.jpg,39616.6792550000
1.0039216280,34.0000000000,5,50.8681465000,-0.0984168333,71.1000000000,13.2500000000,0.6250000000,60.8125000000,image397.jpg,39683.9564950000
1.0039216280,35.0000000000,5,50.8681466667,-0.0984176667,71.1000000000,12.7500000000,0.7500000000,64.6250000000,image398.jpg,39816.7328490000
1.0039216280,34.0000000000,5,50.8681471667,-0.0984183333,71.1000000000,12.6250000000,0.0625000000,67.1875000000,image399.jpg,39884.2058180000
1.0039216280,35.0000000000,5,50.8681473333,-0.0984191667,71.1000000000,11.3125000000,0.8125000000,71.9375000000,image400.jpg,40016.1411820000
nan,0.0000000000,5,50.8681478333,-0.0984200000,71.1000000000,9.6875000000,3.4375000000,74.5000000000,image401.jpg,40089.2073800000
nan,0.0000000000,5,50.8681480000,-0.0984210000,71.2000000000,9.9375000000,2.0000000000,78.8750000000,image402.jpg,40222.9661820000
nan,0.0000000000,5,50.8681485000,-0.0984216667,71.1000000000,10.2500000000,2.1250000000,80.5000000000,image403.jpg,40289.5513910000
nan,0.0000000000,5,50.8681488333,-0.0984228333,71.1000000000,5.6250000000,2.9375000000,84.5000000000,image404.jpg,40420.9559220000
nan,0.0000000000,5,50.8681495000,-0.0984230000,71.1000000000,3.4375000000,2.5000000000,83.5000000000,image405.jpg,40490.2287340000
1.0039216280,-2.0000000000,5,50.8681496667,-0.0984231667,71.1000000000,2.9375000000,2.6875000000,84.1875000000,image406.jpg,40615.1895680000
1.0039216280,-10.0000000000,5,50.8681496667,-0.0984228333,71.1000000000,3.6875000000,2.8750000000,84.3125000000,image407.jpg,40683.9981610000
1.0039216280,-23.0000000000,5,50.8681496667,-0.0984230000,71.1000000000,6.8750000000,4.9375000000,84.3125000000,image408.jpg,40815.7531090000
1.0039216280,-24.0000000000,5,50.8681498333,-0.0984235000,71.1000000000,6.4375000000,3.8125000000,83.4375000000,image409.jpg,40883.8947760000
1.0039216280,-27.0000000000,5,50.8681501667,-0.0984248333,71.1000000000,3.5000000000,3.2500000000,79.2500000000,image410.jpg,41015.0159740000
1.0039216280,-28.0000000000,5,50.8681508333,-0.0984255000,71.1000000000,5.4375000000,2.7500000000,76.0000000000,image411.jpg,41084.0411820000
1.0039216280,-14.0000000000,5,50.8681511667,-0.0984268333,71.1000000000,5.9375000000,0.5625000000,68.5625000000,image412.jpg,41217.1480570000
1.0039216280,-3.0000000000,5,50.8681511667,-0.0984280000,71.1000000000,6.9375000000,2.5000000000,65.1875000000,image413.jpg,41284.4077970000
1.0039216280,0.0000000000,5,50.8681513333,-0.0984293333,71.1000000000,9.3125000000,-0.1250000000,59.2500000000,image414.jpg,41415.9693590000
1.0039216280,0.0000000000,5,50.8681513333,-0.0984306667,71.1000000000,8.1875000000,1.6250000000,58.0625000000,image415.jpg,41483.0700880000
1.0039216280,2.0000000000,5,50.8681515000,-0.0984318333,71.1000000000,8.0000000000,1.8750000000,55.1875000000,image416.jpg,41616.0401920000
1.0039216280,1.0000000000,5,50.8681520000,-0.0984333333,71.1000000000,7.5000000000,-0.3750000000,189.3750000000,image417.jpg,41683.9028480000
1.0039216280,26.0000000000,5,50.8681523333,-0.0984343333,71.1000000000,9.4375000000,-2.5000000000,188.5000000000,image418.jpg,41814.7337860000
1.0039216280,33.0000000000,5,50.8681525000,-0.0984355000,71.0000000000,11.5625000000,-0.3125000000,187.0625000000,image419.jpg,41882.7108690000
1.0039216280,33.0000000000,5,50.8681531667,-0.0984366667,71.0000000000,9.6875000000,0.7500000000,188.8125000000,image420.jpg,42015.4018070000
1.0039216280,35.0000000000,5,50.8681533333,-0.0984378333,71.0000000000,9.4375000000,2.1250000000,190.5000000000,image421.jpg,42083.6440460000
1.0039216280,34.0000000000,5,50.8681536667,-0.0984390000,71.0000000000,7.1250000000,5.1250000000,193.3125000000,image422.jpg,42219.7558170000
1.0039216280,18.0000000000,2,50.8681543333,-0.0984396667,71.0000000000,9.8125000000,5.1250000000,197.5000000000,image423.jpg,42284.2474320000
1.0039216280,1.0000000000,5,50.8681541667,-0.0984403333,71.1000000000,12.0000000000,7.6875000000,203.2500000000,image424.jpg,42418.6235250000
1.0039216280,0.0000000000,5,50.8681541667,-0.0984416667,71.1000000000,11.9375000000,9.7500000000,203.6875000000,image425.jpg,42484.9916500000
1.0039216280,-4.0000000000,2,50.8681541667,-0.0984423333,71.1000000000,13.1250000000,5.5625000000,201.1250000000,image426.jpg,42618.7609730000
