gps quality,lat,lon,altitude,roll,pitch,yaw,image name,timestamp
4,50.8651123333,-0.0919466667,71.7000000000,3.2500000000,-5.1875000000,359.9375000000,image0.jpg,2.4151570000
4,50.8651123333,-0.0919468333,71.8000000000,3.2500000000,-5.1875000000,359.9375000000,image1.jpg,201.6755210000
4,50.8651123333,-0.0919468333,71.8000000000,3.2500000000,-5.1875000000,359.9375000000,image2.jpg,401.6954170000
4,50.8651123333,-0.0919468333,71.8000000000,3.2500000000,-5.1875000000,359.9375000000,image3.jpg,602.4404170000
4,50.8651123333,-0.0919468333,71.7000000000,3.2500000000,-5.1875000000,359.9375000000,image4.jpg,802.7548440000
4,50.8651123333,-0.0919468333,71.7000000000,3.2500000000,-5.1875000000,359.9375000000,image5.jpg,1003.0779690000
4,50.8651123333,-0.0919468333,71.7000000000,3.2500000000,-5.1875000000,359.9375000000,image6.jpg,1202.8453650000
4,50.8651121667,-0.0919468333,71.8000000000,3.2500000000,-5.1875000000,359.9375000000,image7.jpg,1402.0168230000
4,50.8651123333,-0.0919468333,71.7000000000,4.0000000000,-5.0000000000,358.8750000000,image8.jpg,1602.1025520000
4,50.8651118333,-0.0919461667,71.7000000000,2.9375000000,-5.3125000000,358.6875000000,image9.jpg,1802.3564060000
4,50.8651108333,-0.0919455000,71.7000000000,3.7500000000,-6.0000000000,358.1250000000,image10.jpg,2003.1061460000
4,50.8651096667,-0.0919445000,71.7000000000,2.6875000000,-6.8750000000,356.5000000000,image11.jpg,2203.1902600000
4,50.8651086667,-0.0919435000,71.7000000000,0.6250000000,-6.6250000000,356.5000000000,image12.jpg,2403.5000000000
4,50.8651075000,-0.0919423333,71.7000000000,2.6250000000,-5.3750000000,356.5000000000,image13.jpg,2603.5597390000
4,50.8651063333,-0.0919411667,71.7000000000,1.0625000000,-5.5625000000,355.8750000000,image14.jpg,2802.4724470000
4,50.8651053333,-0.0919401667,71.7000000000,1.3125000000,-6.3750000000,355.6250000000,image15.jpg,3002.6575510000
4,50.8651043333,-0.0919388333,71.7000000000,2.3125000000,-6.2500000000,355.2500000000,image16.jpg,3202.9120300000
4,50.8651033333,-0.0919378333,71.7000000000,2.0000000000,-6.6875000000,353.3125000000,image17.jpg,3402.7308320000
4,50.8651025000,-0.0919366667,71.7000000000,1.8750000000,-6.1250000000,351.1250000000,image18.jpg,3602.8319780000
4,50.8651016667,-0.0919355000,71.6000000000,1.6875000000,-6.3750000000,348.5000000000,image19.jpg,3802.9234890000
4,50.8651010000,-0.0919343333,71.6000000000,3.2500000000,-6.6875000000,347.1875000000,image20.jpg,4002.9864050000
4,50.8651000000,-0.0919331667,71.6000000000,2.2500000000,-6.9375000000,346.6875000000,image21.jpg,4202.9803110000
4,50.8650993333,-0.0919318333,71.6000000000,3.3125000000,-6.6875000000,346.3125000000,image22.jpg,4403.1120300000
4,50.8650985000,-0.0919305000,71.6000000000,1.6875000000,-5.7500000000,345.9375000000,image23.jpg,4603.3960400000
4,50.8650976667,-0.0919293333,71.6000000000,1.3125000000,-5.5625000000,346.0000000000,image24.jpg,4803.2345820000
4,50.8650968333,-0.0919281667,71.6000000000,2.1250000000,-5.0000000000,345.9375000000,image25.jpg,5003.3316650000
4,50.8650960000,-0.0919270000,71.6000000000,1.2500000000,-5.0000000000,346.2500000000,image26.jpg,5203.3385400000
4,50.8650951667,-0.0919256667,71.6000000000,1.3125000000,-5.2500000000,346.0625000000,image27.jpg,5403.4960400000
4,50.8650943333,-0.0919245000,71.6000000000,1.3125000000,-5.6875000000,346.3750000000,image28.jpg,5603.4896860000
4,50.8650935000,-0.0919233333,71.6000000000,1.3750000000,-5.1875000000,346.3750000000,image29.jpg,5803.5079150000
4,50.8650926667,-0.0919220000,71.5000000000,1.1875000000,-5.8125000000,346.1875000000,image30.jpg,6004.3577590000
4,50.8650916667,-0.0919206667,71.5000000000,1.1250000000,-6.9375000000,346.1250000000,image31.jpg,6204.5813520000
4,50.8650908333,-0.0919193333,71.5000000000,0.5000000000,-6.6250000000,346.1875000000,image32.jpg,6405.1713000000
4,50.8650900000,-0.0919181667,71.5000000000,0.7500000000,-6.2500000000,345.4375000000,image33.jpg,6605.2020810000
4,50.8650891667,-0.0919168333,71.5000000000,0.8750000000,-5.7500000000,343.3125000000,image34.jpg,6804.8974460000
4,50.8650885000,-0.0919153333,71.5000000000,1.2500000000,-5.9375000000,340.0000000000,image35.jpg,7004.2024980000
4,50.8650880000,-0.0919140000,71.5000000000,-0.1250000000,-5.0625000000,336.6875000000,image36.jpg,7204.2761960000
4,50.8650873333,-0.0919128333,71.5000000000,0.9375000000,-4.8750000000,334.0000000000,image37.jpg,7404.7451540000
4,50.8650870000,-0.0919115000,71.5000000000,1.3125000000,-3.5000000000,330.7500000000,image38.jpg,7605.5839560000
4,50.8650865000,-0.0919098333,71.5000000000,0.8125000000,-4.8750000000,328.8750000000,image39.jpg,7805.5972890000
4,50.8650860000,-0.0919085000,71.5000000000,2.0000000000,-4.4375000000,328.6875000000,image40.jpg,8005.4529140000
4,50.8650853333,-0.0919070000,71.5000000000,0.1875000000,-4.5000000000,329.4375000000,image41.jpg,8205.2558830000
4,50.8650850000,-0.0919056667,71.5000000000,1.1250000000,-3.7500000000,329.1875000000,image42.jpg,8404.7180700000
4,50.8650843333,-0.0919040000,71.5000000000,0.0000000000,-4.5625000000,329.4375000000,image43.jpg,8604.7097890000
4,50.8650836667,-0.0919025000,71.5000000000,-2.2500000000,-6.0000000000,331.3125000000,image44.jpg,8805.6233820000
4,50.8650830000,-0.0919010000,71.5000000000,-1.5625000000,-6.0625000000,333.7500000000,image45.jpg,9005.8560390000
4,50.8650823333,-0.0918995000,71.5000000000,0.0000000000,-4.0000000000,336.8750000000,image46.jpg,9206.1546320000
4,50.8650816667,-0.0918983333,71.4000000000,1.1250000000,-3.1250000000,339.0000000000,image47.jpg,9406.2027570000
4,50.8650810000,-0.0918970000,71.4000000000,0.0625000000,-2.7500000000,337.4375000000,image48.jpg,9605.1296840000
4,50.8650805000,-0.0918955000,71.4000000000,0.8125000000,-4.1875000000,334.2500000000,image49.jpg,9805.2118720000
4,50.8650796667,-0.0918938333,71.4000000000,1.1250000000,-5.4375000000,331.6250000000,image50.jpg,10005.3195800000
4,50.8650791667,-0.0918925000,71.4000000000,0.9375000000,-6.2500000000,331.6875000000,image51.jpg,10206.1984340000
4,50.8650786667,-0.0918908333,71.4000000000,0.6250000000,-5.3125000000,332.3125000000,image52.jpg,10405.5240070000
4,50.8650780000,-0.0918895000,71.4000000000,2.6875000000,-4.5000000000,334.0625000000,image53.jpg,10605.5694230000
4,50.8650773333,-0.0918881667,71.4000000000,2.3125000000,-3.3750000000,335.6875000000,image54.jpg,10805.6805170000
4,50.8650765000,-0.0918870000,71.4000000000,1.1875000000,-3.1875000000,338.9375000000,image55.jpg,11005.6873400000
4,50.8650758333,-0.0918853333,71.4000000000,3.3750000000,-3.6250000000,341.0000000000,image56.jpg,11206.2446840000
4,50.8650746667,-0.0918841667,71.4000000000,2.1250000000,-6.5625000000,342.3125000000,image57.jpg,11406.0995790000
4,50.8650740000,-0.0918826667,71.4000000000,1.5625000000,-5.3750000000,344.5625000000,image58.jpg,11605.8982250000
4,50.8650731667,-0.0918816667,71.4000000000,2.3750000000,-7.1875000000,347.4375000000,image59.jpg,11806.0258290000
4,50.8650720000,-0.0918805000,71.4000000000,6.3125000000,-8.6250000000,349.4375000000,image60.jpg,12006.0646310000
4,50.8650711667,-0.0918790000,71.3000000000,6.7500000000,-7.1875000000,351.2500000000,image61.jpg,12206.2859330000
4,50.8650705000,-0.0918778333,71.3000000000,9.3750000000,-6.8125000000,353.3750000000,image62.jpg,12406.3526520000
4,50.8650693333,-0.0918770000,71.3000000000,11.3125000000,-2.6250000000,355.4375000000,image63.jpg,12606.4343190000
4,50.8650685000,-0.0918758333,71.3000000000,9.3750000000,-3.8125000000,359.3125000000,image64.jpg,12807.0201000000
4,50.8650671667,-0.0918750000,71.3000000000,8.1875000000,-6.0000000000,3.6875000000,image65.jpg,13007.7676000000
4,50.8650660000,-0.0918748333,71.3000000000,7.1250000000,-8.8750000000,7.3750000000,image66.jpg,13207.7085370000
4,50.8650648333,-0.0918743333,71.2000000000,7.1250000000,-7.8125000000,10.5625000000,image67.jpg,13407.9436410000
4,50.8650635000,-0.0918740000,71.2000000000,7.3125000000,-7.4375000000,13.0625000000,image68.jpg,13607.6847350000
4,50.8650625000,-0.0918736667,71.2000000000,10.1875000000,-5.0625000000,15.1250000000,image69.jpg,13806.9473390000
4,50.8650616667,-0.0918731667,71.3000000000,12.4375000000,-3.8750000000,17.5000000000,image70.jpg,14006.9382240000
5,50.8650608333,-0.0918723333,71.2000000000,11.5000000000,-3.6875000000,19.3125000000,image71.jpg,14207.6482760000
5,50.8650595000,-0.0918723333,71.2000000000,11.2500000000,-6.8125000000,21.0625000000,image72.jpg,14408.0623910000
5,50.8650583333,-0.0918720000,71.3000000000,12.0625000000,-7.7500000000,23.3125000000,image73.jpg,14608.3576510000
5,50.8650568333,-0.0918725000,71.3000000000,9.6875000000,-5.1875000000,25.0000000000,image74.jpg,14808.1754640000
5,50.8650560000,-0.0918725000,71.3000000000,10.9375000000,-2.3125000000,26.3125000000,image75.jpg,15008.5935880000
5,50.8650550000,-0.0918721667,71.3000000000,12.5000000000,0.0625000000,27.6250000000,image76.jpg,15208.2257760000
5,50.8650538333,-0.0918716667,71.3000000000,12.0000000000,-2.1875000000,29.1250000000,image77.jpg,15407.6805670000
5,50.8650526667,-0.0918718333,71.3000000000,12.2500000000,-3.6250000000,29.5625000000,image78.jpg,15608.7882240000
5,50.8650516667,-0.0918716667,71.3000000000,12.5625000000,-5.0625000000,27.3750000000,image79.jpg,15809.5772860000
5,50.8650503333,-0.0918718333,71.3000000000,12.7500000000,-6.8750000000,25.8125000000,image80.jpg,16008.8306190000
5,50.8650485000,-0.0918718333,71.2000000000,12.1250000000,-5.7500000000,24.3125000000,image81.jpg,16208.9644210000
5,50.8650473333,-0.0918716667,71.2000000000,10.7500000000,-3.8125000000,24.0000000000,image82.jpg,16408.3198900000
5,50.8650465000,-0.0918710000,71.2000000000,11.6250000000,-3.0000000000,22.2500000000,image83.jpg,16608.0279630000
5,50.8650453333,-0.0918705000,71.2000000000,9.5000000000,-4.8125000000,21.1250000000,image84.jpg,16808.1722340000
5,50.8650436667,-0.0918710000,71.2000000000,9.4375000000,-5.8125000000,20.1250000000,image85.jpg,17008.6787960000
5,50.8650423333,-0.0918710000,71.2000000000,9.7500000000,-7.4375000000,19.3750000000,image86.jpg,17208.3744210000
5,50.8650411667,-0.0918706667,71.2000000000,5.3125000000,-5.0000000000,19.0625000000,image87.jpg,17408.3999420000
5,50.8650401667,-0.0918700000,71.2000000000,5.6250000000,-4.9375000000,18.6875000000,image88.jpg,17608.4754620000
5,50.8650386667,-0.0918698333,71.2000000000,9.1875000000,-3.9375000000,17.3750000000,image89.jpg,17808.3624940000
5,50.8650375000,-0.0918691667,71.1000000000,5.8750000000,-4.3125000000,16.5625000000,image90.jpg,18008.5318160000
5,50.8650358333,-0.0918686667,71.0000000000,5.0000000000,-5.3750000000,16.6875000000,image91.jpg,18209.2444730000
5,50.8650343333,-0.0918680000,71.0000000000,4.3750000000,-6.8125000000,17.3750000000,image92.jpg,18408.5777540000
5,50.8650330000,-0.0918678333,71.0000000000,1.1875000000,-6.8750000000,16.9375000000,image93.jpg,18608.7053580000
5,50.8650320000,-0.0918666667,70.9000000000,3.5625000000,-7.1875000000,19.6250000000,image94.jpg,18808.7868680000
5,50.8650305000,-0.0918668333,71.0000000000,2.7500000000,-4.3750000000,24.0000000000,image95.jpg,19008.9782740000
4,50.8650296667,-0.0918675000,71.0000000000,3.6875000000,-3.6875000000,24.1875000000,image96.jpg,19208.9490040000
4,50.8650280000,-0.0918671667,71.0000000000,4.4375000000,-4.1875000000,23.6875000000,image97.jpg,19409.0150970000
4,50.8650266667,-0.0918668333,70.9000000000,3.3125000000,-4.6250000000,23.3125000000,image98.jpg,19609.6822850000
4,50.8650256667,-0.0918663333,70.9000000000,3.3750000000,-4.5000000000,25.3125000000,image99.jpg,19810.2740030000
4,50.8650245000,-0.0918661667,70.9000000000,3.9375000000,-4.6875000000,25.1875000000,image100.jpg,20010.2558260000
4,50.8650226667,-0.0918663333,70.8000000000,2.8750000000,-4.5000000000,25.5000000000,image101.jpg,20210.3437950000
4,50.8650215000,-0.0918661667,70.9000000000,3.5625000000,-4.6875000000,25.2500000000,image102.jpg,20410.1973880000
4,50.8650201667,-0.0918656667,70.8000000000,3.5000000000,-4.5000000000,24.3125000000,image103.jpg,20609.5020240000
4,50.8650191667,-0.0918655000,70.9000000000,4.4375000000,-4.1250000000,24.9375000000,image104.jpg,20809.4954610000
4,50.8650181667,-0.0918653333,70.8000000000,2.9375000000,-4.3750000000,24.8125000000,image105.jpg,21009.8809300000
4,50.8650166667,-0.0918651667,70.8000000000,2.7500000000,-6.2500000000,24.3125000000,image106.jpg,21210.5963990000
4,50.8650153333,-0.0918648333,70.8000000000,2.4375000000,-5.3125000000,24.4375000000,image107.jpg,21410.6690550000
4,50.8650138333,-0.0918650000,70.8000000000,3.7500000000,-5.3750000000,25.3125000000,image108.jpg,21610.7372840000
4,50.8650125000,-0.0918653333,70.8000000000,2.6875000000,-4.9375000000,24.0625000000,image109.jpg,21810.7143670000
4,50.8650111667,-0.0918648333,70.8000000000,3.0000000000,-4.4375000000,23.0000000000,image110.jpg,22009.9352520000
4,50.8650096667,-0.0918645000,70.7000000000,2.5625000000,-4.8125000000,21.8125000000,image111.jpg,22209.9914500000
4,50.8650085000,-0.0918638333,70.7000000000,3.0625000000,-4.5000000000,20.3125000000,image112.jpg,22410.5523880000
4,50.8650071667,-0.0918638333,70.7000000000,2.5625000000,-4.0000000000,19.3125000000,image113.jpg,22611.0692630000
4,50.8650061667,-0.0918635000,70.7000000000,2.0000000000,-4.6250000000,18.9375000000,image114.jpg,22811.1453560000
4,50.8650050000,-0.0918633333,70.7000000000,3.5625000000,-5.6250000000,19.1875000000,image115.jpg,23011.1971790000
4,50.8650036667,-0.0918626667,70.7000000000,2.9375000000,-6.3750000000,18.5625000000,image116.jpg,23210.7706690000
4,50.8650023333,-0.0918625000,70.7000000000,2.0625000000,-4.8125000000,18.4375000000,image117.jpg,23410.3461370000
4,50.8650010000,-0.0918625000,70.7000000000,2.1250000000,-4.1250000000,17.8125000000,image118.jpg,23610.4009810000
4,50.8649998333,-0.0918613333,70.6000000000,2.5000000000,-4.6250000000,16.6875000000,image119.jpg,23811.1463460000
4,50.8649983333,-0.0918613333,70.6000000000,1.3125000000,-5.6875000000,15.6875000000,image120.jpg,24010.5430640000
4,50.8649968333,-0.0918608333,70.6000000000,1.9375000000,-4.5000000000,15.7500000000,image121.jpg,24210.6883250000
4,50.8649955000,-0.0918603333,70.6000000000,2.5625000000,-4.8750000000,15.8750000000,image122.jpg,24410.7280120000
4,50.8649941667,-0.0918598333,70.6000000000,1.2500000000,-5.0625000000,15.6250000000,image123.jpg,24610.7823870000
4,50.8649930000,-0.0918593333,70.5000000000,2.4375000000,-4.8750000000,14.7500000000,image124.jpg,24810.8512930000
4,50.8649915000,-0.0918586667,70.5000000000,1.1875000000,-4.7500000000,13.5625000000,image125.jpg,25010.8803550000
4,50.8649905000,-0.0918580000,70.4000000000,2.3125000000,-4.8125000000,13.3125000000,image126.jpg,25210.9521780000
4,50.8649895000,-0.0918571667,70.5000000000,1.8125000000,-5.1250000000,16.1875000000,image127.jpg,25411.0174390000
4,50.8649878333,-0.0918570000,70.4000000000,2.0625000000,-5.4375000000,17.0625000000,image128.jpg,25610.9984280000
4,50.8649866667,-0.0918563333,70.4000000000,2.2500000000,-5.0625000000,17.3125000000,image129.jpg,25811.1412930000
4,50.8649848333,-0.0918563333,70.4000000000,1.6875000000,-4.1875000000,17.2500000000,image130.jpg,26011.1688450000
5,50.8649836667,-0.0918558333,70.4000000000,0.7500000000,-4.8125000000,15.0625000000,image131.jpg,26211.2152510000
5,50.8649825000,-0.0918553333,70.3000000000,2.8125000000,-5.3750000000,14.6250000000,image132.jpg,26411.7287920000
5,50.8649815000,-0.0918546667,70.3000000000,3.0000000000,-4.8750000000,14.2500000000,image133.jpg,26612.2925420000
5,50.8649800000,-0.0918541667,70.3000000000,2.5625000000,-3.8125000000,15.1250000000,image134.jpg,26812.3846260000
2,50.8649786667,-0.0918541667,70.3000000000,3.2500000000,-3.0625000000,15.2500000000,image135.jpg,27012.4335320000
5,50.8649780000,-0.0918531667,70.3000000000,3.4375000000,-4.1250000000,14.8750000000,image136.jpg,27212.2752500000
5,50.8649773333,-0.0918523333,70.3000000000,4.5625000000,-4.1875000000,14.1875000000,image137.jpg,27411.5866050000
5,50.8649760000,-0.0918518333,70.3000000000,4.4375000000,-3.8125000000,13.5625000000,image138.jpg,27611.6979590000
5,50.8649751667,-0.0918508333,70.2000000000,4.4375000000,-3.8750000000,12.8750000000,image139.jpg,27812.2875420000
5,50.8649736667,-0.0918503333,70.2000000000,4.2500000000,-3.6875000000,12.4375000000,image140.jpg,28012.7492090000
5,50.8649730000,-0.0918491667,70.2000000000,3.8750000000,-3.5625000000,12.1875000000,image141.jpg,28212.8734790000
5,50.8649718333,-0.0918488333,70.2000000000,3.8750000000,-3.0625000000,11.8125000000,image142.jpg,28412.9315000000
5,50.8649703333,-0.0918490000,70.2000000000,3.7500000000,-2.9375000000,10.6250000000,image143.jpg,28612.0668650000
2,50.8649683333,-0.0918491667,70.1000000000,3.2500000000,-3.0000000000,10.6250000000,image144.jpg,28812.0999890000
2,50.8649671667,-0.0918486667,70.1000000000,2.3125000000,-3.3125000000,13.1250000000,image145.jpg,29012.2531660000
5,50.8649665000,-0.0918473333,70.1000000000,5.3125000000,-4.0000000000,13.0625000000,image146.jpg,29213.0553540000
5,50.8649648333,-0.0918468333,70.1000000000,2.3125000000,-3.5625000000,12.1250000000,image147.jpg,29413.1599370000
5,50.8649638333,-0.0918463333,70.1000000000,3.0000000000,-4.0625000000,12.8750000000,image148.jpg,29613.2282700000
5,50.8649625000,-0.0918455000,70.1000000000,1.2500000000,-3.2500000000,12.0625000000,image149.jpg,29813.6053020000
5,50.8649613333,-0.0918450000,70.1000000000,1.8750000000,-3.8750000000,12.3125000000,image150.jpg,30012.4863950000
5,50.8649601667,-0.0918445000,70.1000000000,2.5000000000,-4.3750000000,12.0000000000,image151.jpg,30212.5727490000
5,50.8649593333,-0.0918435000,70.0000000000,2.7500000000,-4.4375000000,11.8750000000,image152.jpg,30412.9056660000
5,50.8649578333,-0.0918428333,70.0000000000,2.5000000000,-4.2500000000,11.5000000000,image153.jpg,30612.7066030000
5,50.8649571667,-0.0918423333,70.0000000000,3.1875000000,-3.4375000000,11.3125000000,image154.jpg,30812.7821760000
2,50.8649563333,-0.0918411667,70.0000000000,3.2500000000,-3.1875000000,10.9375000000,image155.jpg,31012.8466550000
5,50.8649548333,-0.0918408333,70.0000000000,-0.6250000000,0.0000000000,11.1250000000,image156.jpg,31212.9232180000
5,50.8649541667,-0.0918400000,70.1000000000,2.8750000000,-1.6875000000,10.5000000000,image157.jpg,31413.0365510000
5,50.8649531667,-0.0918396667,70.1000000000,-1.8750000000,-1.1875000000,11.2500000000,image158.jpg,31613.0414990000
2,50.8649518333,-0.0918396667,70.1000000000,-4.0625000000,-5.9375000000,11.9375000000,image159.jpg,31813.3557700000
2,50.8649510000,-0.0918393333,70.1000000000,-1.4375000000,-4.1250000000,10.5000000000,image160.jpg,32013.1530610000
5,50.8649506667,-0.0918376667,70.1000000000,-2.3750000000,-4.7500000000,12.5000000000,image161.jpg,32213.2633210000
5,50.8649498333,-0.0918370000,70.2000000000,-2.6875000000,-3.8125000000,12.8750000000,image162.jpg,32413.3109780000
5,50.8649493333,-0.0918360000,70.2000000000,-1.2500000000,-3.5625000000,12.6250000000,image163.jpg,32613.4920190000
5,50.8649481667,-0.0918353333,70.2000000000,-1.3125000000,-3.1875000000,13.1875000000,image164.jpg,32813.4740500000
5,50.8649471667,-0.0918345000,70.2000000000,0.0625000000,-3.4375000000,13.1250000000,image165.jpg,33013.7032690000
5,50.8649461667,-0.0918335000,70.2000000000,-2.3750000000,-5.6250000000,13.3750000000,image166.jpg,33214.5338420000
5,50.8649455000,-0.0918325000,70.2000000000,-1.2500000000,-6.0625000000,14.8125000000,image167.jpg,33414.6057690000
5,50.8649446667,-0.0918316667,70.2000000000,-1.9375000000,-3.4375000000,17.0625000000,image168.jpg,33614.6741020000
5,50.8649435000,-0.0918315000,70.2000000000,-0.8750000000,-2.8750000000,17.7500000000,image169.jpg,33814.7579560000
5,50.8649428333,-0.0918311667,70.3000000000,-0.2500000000,-2.6875000000,17.6250000000,image170.jpg,34013.8209770000
5,50.8649410000,-0.0918310000,70.2000000000,0.1250000000,-4.3125000000,18.0000000000,image171.jpg,34213.9681120000
5,50.8649398333,-0.0918311667,70.2000000000,-0.6250000000,-3.5625000000,15.2500000000,image172.jpg,34414.2655080000
5,50.8649380000,-0.0918310000,70.2000000000,1.1250000000,-4.0625000000,14.1250000000,image173.jpg,34615.1364980000
5,50.8649371667,-0.0918308333,70.2000000000,0.8750000000,-4.3750000000,13.4375000000,image174.jpg,34815.1400910000
5,50.8649361667,-0.0918295000,70.2000000000,0.3125000000,-5.3125000000,13.1875000000,image175.jpg,35015.1956120000
5,50.8649351667,-0.0918290000,70.2000000000,-0.5000000000,-4.0000000000,13.1250000000,image176.jpg,35215.1986330000
5,50.8649338333,-0.0918280000,70.1000000000,2.0000000000,-4.7500000000,13.0625000000,image177.jpg,35414.3842060000
5,50.8649325000,-0.0918268333,70.1000000000,0.6875000000,-5.6875000000,12.3125000000,image178.jpg,35614.4528510000
5,50.8649318333,-0.0918260000,70.1000000000,1.5000000000,-5.5000000000,11.2500000000,image179.jpg,35815.1352470000
2,50.8649306667,-0.0918250000,70.1000000000,1.5625000000,-5.7500000000,11.8750000000,image180.jpg,36015.5604550000
5,50.8649298333,-0.0918245000,70.1000000000,1.1875000000,-4.5000000000,11.6250000000,image181.jpg,36215.7166010000
5,50.8649286667,-0.0918231667,70.1000000000,1.8750000000,-4.6875000000,11.5625000000,image182.jpg,36415.6987370000
5,50.8649280000,-0.0918225000,70.2000000000,0.5625000000,-4.1875000000,10.5625000000,image183.jpg,36614.9756640000
5,50.8649268333,-0.0918220000,70.2000000000,0.7500000000,-3.5000000000,10.8750000000,image184.jpg,36814.8485800000
5,50.8649258333,-0.0918211667,70.2000000000,2.6875000000,-4.1250000000,10.6250000000,image185.jpg,37014.9743610000
5,50.8649241667,-0.0918210000,70.2000000000,1.5625000000,-4.8750000000,10.3125000000,image186.jpg,37215.7462360000
5,50.8649226667,-0.0918203333,70.2000000000,1.8125000000,-3.1875000000,10.3750000000,image187.jpg,37415.0257150000
5,50.8649213333,-0.0918198333,70.2000000000,0.0000000000,-2.0000000000,9.3750000000,image188.jpg,37615.1501420000
2,50.8649200000,-0.0918198333,70.2000000000,-0.5625000000,-3.3125000000,8.2500000000,image189.jpg,37815.2324340000
2,50.8649191667,-0.0918190000,70.2000000000,-1.5625000000,-4.9375000000,7.3125000000,image190.jpg,38015.2507670000
5,50.8649178333,-0.0918181667,70.2000000000,1.6250000000,-5.9375000000,6.8125000000,image191.jpg,38215.3459750000
5,50.8649165000,-0.0918175000,70.1000000000,-2.8125000000,-8.8750000000,3.8750000000,image192.jpg,38415.5806110000
5,50.8649153333,-0.0918165000,70.1000000000,0.3125000000,-6.3125000000,1.9375000000,image193.jpg,38615.4742040000
2,50.8649146667,-0.0918160000,70.2000000000,-0.3125000000,-5.4375000000,359.9375000000,image194.jpg,38815.5699860000
2,50.8649133333,-0.0918150000,70.1000000000,-0.6250000000,-4.6875000000,359.8125000000,image195.jpg,39015.6317040000
5,50.8649125000,-0.0918141667,70.2000000000,-1.0625000000,-3.6875000000,359.3125000000,image196.jpg,39215.5741520000
5,50.8649113333,-0.0918138333,70.2000000000,-4.8125000000,-0.5000000000,359.0625000000,image197.jpg,39415.7218600000
5,50.8649106667,-0.0918131667,70.2000000000,-3.7500000000,0.9375000000,1.0000000000,image198.jpg,39615.8380580000
2,50.8649100000,-0.0918126667,70.2000000000,-0.2500000000,-1.0000000000,0.6250000000,image199.jpg,39816.6859750000
2,50.8649086667,-0.0918113333,70.2000000000,6.8750000000,0.0625000000,1.5000000000,image200.jpg,40016.9045160000
5,50.8649076667,-0.0918111667,70.2000000000,0.0000000000,-5.4375000000,0.6875000000,image201.jpg,40217.0162350000
2,50.8649060000,-0.0918108333,70.1000000000,-3.8125000000,-5.9375000000,2.3750000000,image202.jpg,40417.1477450000
2,50.8649051667,-0.0918090000,70.1000000000,5.4375000000,-7.3750000000,2.8125000000,image203.jpg,40616.2256620000
2,50.8649043333,-0.0918088333,70.1000000000,-1.6250000000,-4.5000000000,358.3750000000,image204.jpg,40816.3148810000
2,50.8649026667,-0.0918085000,70.1000000000,-1.0000000000,-2.1875000000,359.0000000000,image205.jpg,41016.5805580000
2,50.8649021667,-0.0918078333,70.2000000000,-1.2500000000,-3.1250000000,1.8125000000,image206.jpg,41217.3020680000
2,50.8649010000,-0.0918071667,70.2000000000,1.6875000000,-3.6250000000,6.5000000000,image207.jpg,41417.4271720000
2,50.8649005000,-0.0918071667,70.2000000000,0.7500000000,-1.1875000000,5.6875000000,image208.jpg,41617.5181620000
2,50.8648998333,-0.0918073333,70.2000000000,-0.8125000000,2.0625000000,4.8750000000,image209.jpg,41817.3362870000
2,50.8648991667,-0.0918065000,70.2000000000,-1.8750000000,1.7500000000,6.2500000000,image210.jpg,42016.6071200000
5,50.8648981667,-0.0918063333,70.2000000000,3.8125000000,-4.4375000000,4.6875000000,image211.jpg,42216.7214950000
2,50.8648971667,-0.0918056667,70.3000000000,1.6875000000,-6.5000000000,2.1875000000,image212.jpg,42417.2984220000
2,50.8648955000,-0.0918050000,70.2000000000,0.5000000000,-8.6875000000,1.5000000000,image213.jpg,42618.0400360000
2,50.8648946667,-0.0918038333,70.2000000000,4.2500000000,-7.1875000000,2.0625000000,image214.jpg,42817.9914950000
2,50.8648933333,-0.0918033333,70.2000000000,6.2500000000,-5.2500000000,5.5625000000,image215.jpg,43017.9564940000
5,50.8648916667,-0.0918026667,70.3000000000,4.0000000000,-4.6875000000,11.1875000000,image216.jpg,43217.4380570000
5,50.8648903333,-0.0918020000,70.2000000000,4.2500000000,-4.1875000000,12.6250000000,image217.jpg,43417.0832130000
2,50.8648900000,-0.0918011667,70.3000000000,4.9375000000,-4.2500000000,11.8125000000,image218.jpg,43617.1669110000
2,50.8648891667,-0.0918005000,70.4000000000,5.3125000000,-4.3125000000,12.0625000000,image219.jpg,43817.7628480000
2,50.8648881667,-0.0918000000,70.4000000000,6.4375000000,-3.1875000000,13.3750000000,image220.jpg,44017.2991500000
2,50.8648876667,-0.0917996667,70.4000000000,7.0625000000,-3.0000000000,15.1250000000,image221.jpg,44217.3713900000
2,50.8648865000,-0.0917993333,70.4000000000,5.7500000000,-2.3125000000,14.8125000000,image222.jpg,44417.5196710000
2,50.8648856667,-0.0917986667,70.4000000000,10.0000000000,-3.9375000000,15.8125000000,image223.jpg,44617.5098270000
2,50.8648843333,-0.0917985000,70.5000000000,10.4375000000,-3.0000000000,18.1250000000,image224.jpg,44817.5833170000
2,50.8648835000,-0.0917983333,70.5000000000,9.8750000000,-2.7500000000,18.6250000000,image225.jpg,45017.7361290000
5,50.8648820000,-0.0917980000,70.5000000000,13.0000000000,-3.3750000000,19.8125000000,image226.jpg,45217.7138890000
5,50.8648806667,-0.0917983333,70.5000000000,12.1875000000,-3.7500000000,21.4375000000,image227.jpg,45417.8573790000
5,50.8648805000,-0.0917976667,70.6000000000,11.6250000000,-2.5000000000,22.1875000000,image228.jpg,45617.8934210000
2,50.8648800000,-0.0917978333,70.6000000000,11.7500000000,-2.3125000000,22.0000000000,image229.jpg,45817.8863890000
2,50.8648790000,-0.0917973333,70.7000000000,12.5625000000,-4.0000000000,15.7500000000,image230.jpg,46017.9374830000
5,50.8648778333,-0.0917970000,70.6000000000,10.6250000000,-5.8125000000,10.4375000000,image231.jpg,46218.0245140000
2,50.8648771667,-0.0917961667,70.6000000000,8.5000000000,-6.6250000000,6.0000000000,image232.jpg,46418.9181600000
2,50.8648761667,-0.0917963333,70.7000000000,8.3125000000,-3.8125000000,5.0000000000,image233.jpg,46619.1195140000
2,50.8648758333,-0.0917955000,70.7000000000,7.7500000000,-1.3750000000,4.8125000000,image234.jpg,46819.1802430000
2,50.8648748333,-0.0917953333,70.8000000000,6.3125000000,-2.0625000000,5.4375000000,image235.jpg,47019.2263370000
5,50.8648733333,-0.0917953333,70.8000000000,9.4375000000,-2.6250000000,6.4375000000,image236.jpg,47218.3552430000
5,50.8648726667,-0.0917945000,70.8000000000,8.8750000000,-1.6875000000,7.0000000000,image237.jpg,47418.4407640000
2,50.8648723333,-0.0917946667,70.9000000000,8.3125000000,-2.2500000000,7.5625000000,image238.jpg,47618.6887840000
2,50.8648710000,-0.0917936667,70.9000000000,10.6875000000,-0.5000000000,10.6875000000,image239.jpg,47819.5497220000
2,50.8648700000,-0.0917943333,71.0000000000,11.4375000000,-0.9375000000,14.1875000000,image240.jpg,48019.5546180000
5,50.8648686667,-0.0917936667,71.0000000000,11.8750000000,-0.8125000000,14.7500000000,image241.jpg,48219.7177950000
5,50.8648675000,-0.0917931667,71.0000000000,11.6250000000,-1.8125000000,14.3125000000,image242.jpg,48419.4280550000
5,50.8648663333,-0.0917923333,71.0000000000,12.5000000000,-2.6875000000,13.1875000000,image243.jpg,48618.8307630000
2,50.8648653333,-0.0917921667,71.0000000000,14.2500000000,-2.6875000000,12.2500000000,image244.jpg,48818.8860230000
2,50.8648646667,-0.0917910000,71.1000000000,15.8750000000,-2.1250000000,9.6875000000,image245.jpg,49019.5773780000
5,50.8648640000,-0.0917910000,71.2000000000,16.5000000000,-3.0000000000,11.0000000000,image246.jpg,49220.0309190000
5,50.8648631667,-0.0917900000,71.2000000000,16.3750000000,-3.9375000000,14.3125000000,image247.jpg,49420.0926900000
5,50.8648623333,-0.0917893333,71.2000000000,17.5000000000,-3.4375000000,17.1250000000,image248.jpg,49620.1555540000
5,50.8648608333,-0.0917891667,71.2000000000,15.8125000000,-1.2500000000,18.6250000000,image249.jpg,49819.2671690000
5,50.8648606667,-0.0917883333,71.3000000000,17.6875000000,-0.2500000000,19.9375000000,image250.jpg,50019.6012310000
5,50.8648593333,-0.0917883333,71.3000000000,16.6875000000,-2.3125000000,19.3750000000,image251.jpg,50219.6126900000
5,50.8648581667,-0.0917875000,71.3000000000,14.6250000000,-2.2500000000,20.0625000000,image252.jpg,50420.0659190000
5,50.8648571667,-0.0917871667,71.3000000000,14.6250000000,-2.7500000000,19.9375000000,image253.jpg,50619.5275330000
5,50.8648563333,-0.0917865000,71.3000000000,14.6250000000,-2.1250000000,18.3125000000,image254.jpg,50819.5243560000
2,50.8648560000,-0.0917855000,71.4000000000,14.3750000000,-1.5000000000,19.0625000000,image255.jpg,51019.6350330000
5,50.8648543333,-0.0917855000,71.4000000000,15.3750000000,-1.0625000000,19.8125000000,image256.jpg,51219.7127410000
5,50.8648535000,-0.0917845000,71.4000000000,13.7500000000,-3.2500000000,19.2500000000,image257.jpg,51419.7740430000
5,50.8648518333,-0.0917843333,71.4000000000,16.6250000000,-2.6250000000,19.7500000000,image258.jpg,51620.0950330000
5,50.8648513333,-0.0917836667,71.4000000000,16.0000000000,-1.4375000000,19.6250000000,image259.jpg,51819.9688350000
5,50.8648503333,-0.0917833333,71.4000000000,15.5625000000,-0.8750000000,20.6875000000,image260.jpg,52020.0000850000
5,50.8648495000,-0.0917820000,71.4000000000,15.5000000000,-1.9375000000,23.1250000000,image261.jpg,52220.1106580000
5,50.8648478333,-0.0917813333,71.4000000000,15.8750000000,-2.8750000000,23.5625000000,image262.jpg,52420.1238350000
5,50.8648466667,-0.0917808333,71.4000000000,15.3750000000,-2.3125000000,21.6250000000,image263.jpg,52620.2099800000
5,50.8648455000,-0.0917803333,71.4000000000,15.8125000000,-1.5625000000,20.1875000000,image264.jpg,52820.3210220000
5,50.8648445000,-0.0917795000,71.4000000000,17.0000000000,-2.3750000000,18.6250000000,image265.jpg,53021.2758660000
5,50.8648430000,-0.0917793333,71.4000000000,17.3125000000,-2.6875000000,18.5625000000,image266.jpg,53221.3487300000
5,50.8648420000,-0.0917785000,71.4000000000,16.5000000000,-3.0625000000,17.0625000000,image267.jpg,53421.6151880000
5,50.8648408333,-0.0917776667,71.4000000000,14.8750000000,-3.3750000000,15.8750000000,image268.jpg,53621.5094590000
2,50.8648390000,-0.0917773333,71.4000000000,14.7500000000,-2.7500000000,14.7500000000,image269.jpg,53820.6346670000
2,50.8648376667,-0.0917768333,71.4000000000,10.9375000000,-3.5625000000,11.7500000000,image270.jpg,54020.7022190000
5,50.8648368333,-0.0917760000,71.4000000000,9.8750000000,-2.3750000000,11.1875000000,image271.jpg,54221.0693550000
5,50.8648358333,-0.0917753333,71.4000000000,7.4375000000,-2.1250000000,10.3125000000,image272.jpg,54421.9322710000
5,50.8648345000,-0.0917741667,71.4000000000,4.3125000000,-1.3125000000,9.8750000000,image273.jpg,54621.9419070000
5,50.8648335000,-0.0917736667,71.4000000000,4.1875000000,-1.9375000000,13.3750000000,image274.jpg,54821.9574270000
5,50.8648318333,-0.0917735000,71.5000000000,4.3125000000,-1.5000000000,16.8750000000,image275.jpg,55021.6281040000
5,50.8648310000,-0.0917730000,71.5000000000,6.0000000000,-0.5625000000,20.8125000000,image276.jpg,55221.1079480000
5,50.8648296667,-0.0917721667,71.6000000000,7.6250000000,-1.8125000000,22.0625000000,image277.jpg,55421.1741980000
5,50.8648281667,-0.0917725000,71.6000000000,6.1875000000,-1.5625000000,21.5625000000,image278.jpg,55621.8034170000
2,50.8648265000,-0.0917723333,71.6000000000,6.5625000000,-0.4375000000,20.1875000000,image279.jpg,55822.3833120000
2,50.8648248333,-0.0917723333,71.6000000000,5.2500000000,-0.4375000000,16.5625000000,image280.jpg,56022.3305000000
5,50.8648245000,-0.0917713333,71.6000000000,4.0000000000,-1.2500000000,15.1250000000,image281.jpg,56222.5596660000
5,50.8648231667,-0.0917701667,71.5000000000,3.8750000000,-0.6875000000,14.8125000000,image282.jpg,56421.5223750000
2,50.8648218333,-0.0917693333,71.6000000000,2.9375000000,-0.2500000000,15.0000000000,image283.jpg,56621.6765410000
2,50.8648210000,-0.0917693333,71.5000000000,3.5000000000,-1.9375000000,14.6250000000,image284.jpg,56821.9007600000
2,50.8648196667,-0.0917680000,71.5000000000,1.3750000000,-1.5625000000,14.0000000000,image285.jpg,57021.7789370000
5,50.8648185000,-0.0917681667,71.5000000000,1.7500000000,-0.0625000000,13.6875000000,image286.jpg,57221.8109680000
5,50.8648181667,-0.0917681667,71.5000000000,0.1875000000,-0.4375000000,13.6875000000,image287.jpg,57421.8815930000
5,50.8648166667,-0.0917685000,71.6000000000,-1.4375000000,-0.3125000000,13.8125000000,image288.jpg,57621.9614890000
2,50.8648156667,-0.0917681667,71.6000000000,0.0000000000,-1.1875000000,13.3125000000,image289.jpg,57822.0291970000
2,50.8648145000,-0.0917678333,71.6000000000,-4.1250000000,-1.8125000000,13.5625000000,image290.jpg,58022.1025820000
5,50.8648130000,-0.0917670000,71.6000000000,-1.5625000000,-1.8750000000,13.8750000000,image291.jpg,58222.4060200000
5,50.8648118333,-0.0917666667,71.6000000000,-2.6250000000,-1.3125000000,14.0625000000,image292.jpg,58422.2495610000
2,50.8648106667,-0.0917665000,71.6000000000,-3.8125000000,-1.0625000000,13.7500000000,image293.jpg,58622.3137280000
2,50.8648095000,-0.0917655000,71.6000000000,-3.6250000000,-1.1250000000,14.0625000000,image294.jpg,58822.5237800000
2,50.8648085000,-0.0917648333,71.5000000000,-3.0000000000,-1.2500000000,13.3125000000,image295.jpg,59022.4505510000
5,50.8648078333,-0.0917638333,71.5000000000,-2.1875000000,-0.1875000000,13.1875000000,image296.jpg,59222.5066970000
2,50.8648066667,-0.0917635000,71.5000000000,-1.7500000000,-0.5625000000,13.0625000000,image297.jpg,59423.0602380000
2,50.8648058333,-0.0917625000,71.5000000000,-0.4375000000,0.1250000000,13.0000000000,image298.jpg,59623.8354460000
2,50.8648043333,-0.0917618333,71.6000000000,0.6250000000,0.3125000000,13.0000000000,image299.jpg,59823.7388320000
2,50.8648028333,-0.0917611667,71.6000000000,-1.5000000000,-0.0625000000,12.5625000000,image300.jpg,60023.8349250000
5,50.8648018333,-0.0917606667,71.6000000000,1.1875000000,1.8125000000,13.1250000000,image301.jpg,60223.6720090000
5,50.8648008333,-0.0917600000,71.6000000000,-1.5000000000,-1.6875000000,11.8750000000,image302.jpg,60422.8745090000
5,50.8647995000,-0.0917593333,71.7000000000,-0.6875000000,-2.9375000000,11.6250000000,image303.jpg,60623.0500290000
2,50.8647986667,-0.0917586667,71.7000000000,-0.2500000000,-1.1250000000,9.0000000000,image304.jpg,60823.6968000000
2,50.8647981667,-0.0917575000,71.7000000000,0.4375000000,-1.8125000000,8.5000000000,image305.jpg,61024.0797170000
5,50.8647973333,-0.0917573333,71.7000000000,-1.0000000000,-0.6250000000,8.6875000000,image306.jpg,61224.2856020000
5,50.8647970000,-0.0917565000,71.7000000000,-1.2500000000,0.0000000000,9.7500000000,image307.jpg,61424.1765400000
2,50.8647963333,-0.0917550000,71.8000000000,-1.5625000000,-0.5000000000,8.9375000000,image308.jpg,61623.3948210000
2,50.8647945000,-0.0917551667,71.8000000000,-2.1875000000,0.0000000000,7.9375000000,image309.jpg,61823.4846640000
2,50.8647931667,-0.0917545000,71.8000000000,-2.4375000000,0.1250000000,7.1875000000,image310.jpg,62023.7388310000
5,50.8647923333,-0.0917536667,71.7000000000,2.2500000000,0.5625000000,7.0000000000,image311.jpg,62224.5964350000
5,50.8647920000,-0.0917518333,71.7000000000,2.0625000000,0.4375000000,5.1250000000,image312.jpg,62424.4961220000
5,50.8647911667,-0.0917516667,71.7000000000,-1.5000000000,-2.6250000000,6.3750000000,image313.jpg,62624.8507580000
5,50.8647905000,-0.0917503333,71.7000000000,1.2500000000,-3.1250000000,6.8125000000,image314.jpg,62824.5025290000
5,50.8647891667,-0.0917496667,71.7000000000,-2.2500000000,-1.6250000000,7.1250000000,image315.jpg,63023.9051330000
5,50.8647878333,-0.0917495000,71.7000000000,-4.1250000000,-1.9375000000,9.2500000000,image316.jpg,63224.0368510000
5,50.8647865000,-0.0917490000,71.7000000000,-1.4375000000,-1.1875000000,9.8125000000,image317.jpg,63424.7621120000
5,50.8647851667,-0.0917483333,71.7000000000,-2.6875000000,-0.8125000000,9.0000000000,image318.jpg,63624.1124240000
5,50.8647840000,-0.0917478333,71.7000000000,-2.1250000000,-0.0625000000,9.3750000000,image319.jpg,63824.2169030000
5,50.8647831667,-0.0917471667,71.7000000000,-1.9375000000,0.3750000000,9.1250000000,image320.jpg,64024.2020590000
5,50.8647820000,-0.0917465000,71.7000000000,-2.1875000000,2.1875000000,9.3750000000,image321.jpg,64224.2181530000
5,50.8647808333,-0.0917455000,71.7000000000,-0.7500000000,1.0625000000,8.8750000000,image322.jpg,64424.3489860000
5,50.8647796667,-0.0917450000,71.7000000000,-0.2500000000,-1.1875000000,8.6875000000,image323.jpg,64624.4780490000
5,50.8647785000,-0.0917443333,71.7000000000,0.3125000000,0.5625000000,9.0000000000,image324.jpg,64824.6197150000
2,50.8647775000,-0.0917438333,71.6000000000,2.5000000000,0.8750000000,8.9375000000,image325.jpg,65024.5848190000
5,50.8647770000,-0.0917428333,71.6000000000,3.2500000000,-0.5000000000,8.4375000000,image326.jpg,65224.7403920000
5,50.8647758333,-0.0917416667,71.5000000000,0.1250000000,-1.6250000000,8.0000000000,image327.jpg,65424.8086730000
2,50.8647750000,-0.0917405000,71.5000000000,0.2500000000,-0.8750000000,9.1250000000,image328.jpg,65624.8885690000
2,50.8647738333,-0.0917401667,71.5000000000,-0.3750000000,-1.8750000000,8.0625000000,image329.jpg,65824.8931000000
2,50.8647735000,-0.0917396667,71.4000000000,-0.1875000000,-1.3125000000,12.1250000000,image330.jpg,66025.7596110000
5,50.8647725000,-0.0917400000,71.4000000000,-1.7500000000,-1.2500000000,16.5000000000,image331.jpg,66226.2433610000
2,50.8647718333,-0.0917385000,71.4000000000,-3.2500000000,-1.0000000000,14.9375000000,image332.jpg,66426.2061210000
2,50.8647706667,-0.0917391667,71.4000000000,-1.7500000000,0.6250000000,15.1875000000,image333.jpg,66626.2649230000
2,50.8647700000,-0.0917385000,71.4000000000,0.9375000000,2.2500000000,13.0625000000,image334.jpg,66825.2464850000
2,50.8647688333,-0.0917383333,71.3000000000,-1.1250000000,1.3750000000,11.3125000000,image335.jpg,67025.1532560000
5,50.8647685000,-0.0917381667,71.3000000000,-1.5000000000,-0.3125000000,9.4375000000,image336.jpg,67225.5628390000
2,50.8647671667,-0.0917375000,71.4000000000,-2.3125000000,-2.1250000000,7.8125000000,image337.jpg,67426.3257040000
2,50.8647661667,-0.0917370000,71.4000000000,0.9375000000,0.1250000000,8.5000000000,image338.jpg,67626.7443500000
2,50.8647645000,-0.0917363333,71.4000000000,-1.6250000000,-1.5000000000,11.0000000000,image339.jpg,67826.5221620000
2,50.8647635000,-0.0917361667,71.4000000000,-0.8750000000,-1.7500000000,12.1875000000,image340.jpg,68026.1190370000
5,50.8647621667,-0.0917355000,71.4000000000,-0.0625000000,0.9375000000,11.2500000000,image341.jpg,68225.7239330000
5,50.8647613333,-0.0917345000,71.3000000000,-1.8125000000,-1.6250000000,10.1250000000,image342.jpg,68425.8074220000
2,50.8647598333,-0.0917338333,71.4000000000,0.1250000000,-2.4375000000,10.0000000000,image343.jpg,68626.5440370000
2,50.8647593333,-0.0917331667,71.4000000000,-0.8125000000,-0.3750000000,11.0000000000,image344.jpg,68826.9539850000
2,50.8647578333,-0.0917330000,71.4000000000,-1.7500000000,-1.5000000000,11.3750000000,image345.jpg,69027.3227350000
5,50.8647578333,-0.0917320000,71.4000000000,-3.0000000000,-3.0000000000,10.6250000000,image346.jpg,69227.2909120000
5,50.8647566667,-0.0917313333,71.4000000000,-1.0000000000,-0.6250000000,11.8125000000,image347.jpg,69426.1396610000
2,50.8647553333,-0.0917306667,71.4000000000,-0.3750000000,-0.5000000000,12.3750000000,image348.jpg,69626.2480470000
2,50.8647541667,-0.0917300000,71.4000000000,0.6250000000,-0.8125000000,12.4375000000,image349.jpg,69826.6447130000
2,50.8647545000,-0.0917290000,71.6000000000,0.7500000000,0.0000000000,12.3750000000,image350.jpg,70026.3055470000
5,50.8647536667,-0.0917280000,71.6000000000,1.6250000000,2.0000000000,14.0625000000,image351.jpg,70226.4175260000
2,50.8647533333,-0.0917280000,71.7000000000,3.0000000000,3.0000000000,13.8125000000,image352.jpg,70426.5844530000
2,50.8647530000,-0.0917278333,71.7000000000,3.7500000000,4.1875000000,14.8750000000,image353.jpg,70626.7002860000
2,50.8647515000,-0.0917276667,71.7000000000,4.6875000000,-0.7500000000,15.0000000000,image354.jpg,70826.7353380000
2,50.8647498333,-0.0917266667,71.7000000000,2.7500000000,-4.3750000000,14.5000000000,image355.jpg,71026.6709110000
5,50.8647481667,-0.0917260000,71.7000000000,4.3750000000,-0.3750000000,14.0000000000,image356.jpg,71227.1575250000
2,50.8647470000,-0.0917256667,71.7000000000,3.3125000000,-0.3750000000,12.0000000000,image357.jpg,71426.9459110000
2,50.8647458333,-0.0917246667,71.7000000000,4.1250000000,-1.8750000000,10.3750000000,image358.jpg,71627.0107020000
2,50.8647441667,-0.0917248333,71.7000000000,3.4375000000,-1.8750000000,9.3125000000,image359.jpg,71827.0551810000
2,50.8647433333,-0.0917246667,71.7000000000,4.0625000000,-0.6875000000,9.2500000000,image360.jpg,72027.3667960000
2,50.8647425000,-0.0917245000,71.6000000000,3.0000000000,-0.5625000000,10.3125000000,image361.jpg,72227.4686710000
2,50.8647416667,-0.0917241667,71.6000000000,3.2500000000,-0.5625000000,10.5000000000,image362.jpg,72427.7591390000
2,50.8647398333,-0.0917230000,71.6000000000,2.6875000000,0.1875000000,10.1250000000,image363.jpg,72628.6197640000
2,50.8647385000,-0.0917225000,71.7000000000,3.3125000000,0.0000000000,10.5625000000,image364.jpg,72828.5841910000
2,50.8647371667,-0.0917216667,71.7000000000,3.5625000000,0.2500000000,10.8750000000,image365.jpg,73028.6381500000
5,50.8647353333,-0.0917208333,71.7000000000,4.6250000000,1.0625000000,11.1875000000,image366.jpg,73228.1695560000
5,50.8647345000,-0.0917198333,71.7000000000,3.9375000000,0.5000000000,11.6875000000,image367.jpg,73427.6366390000
5,50.8647331667,-0.0917193333,71.7000000000,3.9375000000,0.9375000000,12.6875000000,image368.jpg,73627.7321600000
2,50.8647321667,-0.0917186667,71.7000000000,3.0625000000,-0.1250000000,12.5000000000,image369.jpg,73828.7850240000
2,50.8647315000,-0.0917176667,71.7000000000,5.1250000000,0.3750000000,12.0625000000,image370.jpg,74029.2445030000
2,50.8647310000,-0.0917171667,71.6000000000,4.1875000000,0.8750000000,12.6250000000,image371.jpg,74229.1799200000
2,50.8647303333,-0.0917170000,71.6000000000,6.6250000000,-0.8750000000,12.8125000000,image372.jpg,74429.2355970000
2,50.8647295000,-0.0917163333,71.6000000000,4.6875000000,-0.6875000000,12.3125000000,image373.jpg,74628.3198160000
2,50.8647283333,-0.0917161667,71.5000000000,8.0625000000,-1.8750000000,12.7500000000,image374.jpg,74828.2361700000
2,50.8647275000,-0.0917156667,71.5000000000,5.5625000000,-1.6250000000,12.8125000000,image375.jpg,75028.6339820000
5,50.8647265000,-0.0917160000,71.6000000000,8.5000000000,-0.1875000000,13.5625000000,image376.jpg,75229.4099200000
5,50.8647261667,-0.0917160000,71.6000000000,7.6250000000,0.5625000000,12.5625000000,image377.jpg,75429.6088260000
5,50.8647246667,-0.0917146667,71.6000000000,8.0625000000,0.0000000000,13.1875000000,image378.jpg,75632.0844510000
2,50.8647236667,-0.0917141667,71.6000000000,9.5000000000,1.1250000000,12.6875000000,image379.jpg,75831.2616380000
2,50.8647226667,-0.0917135000,71.6000000000,8.3125000000,1.2500000000,11.5000000000,image380.jpg,76031.6844510000
5,50.8647215000,-0.0917130000,71.6000000000,9.2500000000,1.4375000000,11.5000000000,image381.jpg,76230.0615860000
2,50.8647206667,-0.0917121667,71.6000000000,10.6250000000,1.3750000000,10.7500000000,image382.jpg,76430.6022110000
2,50.8647191667,-0.0917115000,71.6000000000,10.6875000000,0.0000000000,11.6875000000,image383.jpg,76631.4080440000
2,50.8647181667,-0.0917106667,71.5000000000,11.0000000000,0.0000000000,11.3125000000,image384.jpg,76830.9921590000
2,50.8647168333,-0.0917098333,71.5000000000,10.6250000000,-0.1875000000,11.0625000000,image385.jpg,77031.0559090000
2,50.8647155000,-0.0917090000,71.5000000000,12.0625000000,0.0000000000,10.0000000000,image386.jpg,77232.0934610000
2,50.8647140000,-0.0917076667,71.4000000000,10.1250000000,-0.2500000000,9.5000000000,image387.jpg,77431.1543460000
2,50.8647138333,-0.0917080000,71.4000000000,10.8125000000,-0.1250000000,9.4375000000,image388.jpg,77631.4510650000
2,50.8647140000,-0.0917083333,71.4000000000,10.3125000000,-1.0625000000,9.3750000000,image389.jpg,77831.4340850000
2,50.8647138333,-0.0917083333,71.4000000000,9.4375000000,-2.6875000000,9.1875000000,image390.jpg,78032.1880960000
5,50.8647138333,-0.0917086667,71.5000000000,9.1250000000,-3.1875000000,9.1875000000,image391.jpg,78231.6217940000
5,50.8647138333,-0.0917088333,71.5000000000,8.9375000000,-3.5000000000,9.1250000000,image392.jpg,78431.4324710000
5,50.8647140000,-0.0917090000,71.5000000000,8.7500000000,-3.6875000000,9.1250000000,image393.jpg,78631.4715330000
5,50.8647141667,-0.0917091667,71.5000000000,8.6875000000,-3.8750000000,9.1250000000,image394.jpg,78831.5376270000
5,50.8647140000,-0.0917091667,71.6000000000,8.5625000000,-4.0000000000,9.0625000000,image395.jpg,79031.5739290000
5,50.8647141667,-0.0917091667,71.6000000000,8.5000000000,-4.0625000000,9.0625000000,image396.jpg,79232.6510640000
5,50.8647141667,-0.0917091667,71.6000000000,8.5000000000,-4.1250000000,9.0625000000,image397.jpg,79433.2939810000
5,50.8647143333,-0.0917091667,71.6000000000,8.5000000000,-4.1250000000,9.0625000000,image398.jpg,79633.3462720000
5,50.8647141667,-0.0917091667,71.6000000000,8.5000000000,-4.1250000000,9.0625000000,image399.jpg,79833.2837720000
5,50.8647140000,-0.0917091667,71.6000000000,8.5000000000,-4.1250000000,9.0625000000,image400.jpg,80033.0487720000
5,50.8647140000,-0.0917091667,71.6000000000,8.5000000000,-4.1250000000,9.0625000000,image401.jpg,80232.3683030000
5,50.8647141667,-0.0917093333,71.6000000000,8.5000000000,-4.1250000000,9.0625000000,image402.jpg,80432.5030950000
5,50.8647140000,-0.0917093333,71.6000000000,8.5000000000,-4.1250000000,9.0625000000,image403.jpg,80633.2681470000
5,50.8647140000,-0.0917091667,71.6000000000,8.5000000000,-4.1250000000,9.0625000000,image404.jpg,80833.5453340000
5,50.8647138333,-0.0917093333,71.6000000000,8.5000000000,-4.1250000000,9.0625000000,image405.jpg,81034.7631470000
5,50.8647140000,-0.0917095000,71.6000000000,8.5000000000,-4.1250000000,9.0625000000,image406.jpg,81234.0180940000
5,50.8647138333,-0.0917093333,71.6000000000,8.5000000000,-4.1250000000,9.0625000000,image407.jpg,81432.8624170000
5,50.8647138333,-0.0917093333,71.6000000000,8.5000000000,-4.1250000000,9.0625000000,image408.jpg,81633.4540840000
5,50.8647138333,-0.0917095000,71.6000000000,8.5000000000,-4.1250000000,9.0625000000,image409.jpg,81833.6296050000
5,50.8647136667,-0.0917096667,71.6000000000,8.5000000000,-4.1250000000,9.0625000000,image410.jpg,82034.3925210000
5,50.8647136667,-0.0917096667,71.6000000000,8.5000000000,-4.1250000000,9.0625000000,image411.jpg,82234.5920520000
5,50.8647136667,-0.0917096667,71.6000000000,8.5000000000,-4.1250000000,9.0625000000,image412.jpg,82435.0047090000
5,50.8647136667,-0.0917095000,71.6000000000,8.5000000000,-4.1250000000,9.0625000000,image413.jpg,82635.2971040000
5,50.8647133333,-0.0917096667,71.6000000000,8.5000000000,-4.1250000000,9.0625000000,image414.jpg,82833.9738230000
5,50.8647133333,-0.0917096667,71.6000000000,8.5000000000,-4.1250000000,9.0625000000,image415.jpg,83034.0979900000
5,50.8647133333,-0.0917096667,71.6000000000,8.5000000000,-4.1250000000,9.0625000000,image416.jpg,83234.3826250000
5,50.8647130000,-0.0917096667,71.7000000000,8.5000000000,-4.1250000000,9.0625000000,image417.jpg,83435.3399690000
5,50.8647130000,-0.0917098333,71.7000000000,8.5000000000,-4.1250000000,9.0625000000,image418.jpg,83635.3483020000
5,50.8647126667,-0.0917098333,71.7000000000,8.5000000000,-4.1250000000,9.0625000000,image419.jpg,83835.5330930000
5,50.8647126667,-0.0917098333,71.7000000000,8.5000000000,-4.1250000000,9.0625000000,image420.jpg,84035.4032500000
5,50.8647125000,-0.0917098333,71.7000000000,8.5000000000,-4.1250000000,9.0625000000,image421.jpg,84234.4635100000
5,50.8647125000,-0.0917098333,71.7000000000,8.5000000000,-4.1250000000,9.0625000000,image422.jpg,84434.5277810000
5,50.8647123333,-0.0917098333,71.7000000000,8.5000000000,-4.1250000000,9.0625000000,image423.jpg,84635.3643950000
5,50.8647123333,-0.0917098333,71.7000000000,8.5000000000,-4.1250000000,9.0625000000,image424.jpg,84835.8272080000
5,50.8647123333,-0.0917100000,71.7000000000,8.5000000000,-4.1250000000,9.0625000000,image425.jpg,85035.0791350000
5,50.8647123333,-0.0917098333,71.7000000000,8.5000000000,-4.1250000000,9.0625000000,image426.jpg,85235.2816870000
5,50.8647121667,-0.0917098333,71.7000000000,8.5000000000,-4.1250000000,9.0625000000,image427.jpg,85435.3260620000
5,50.8647121667,-0.0917098333,71.7000000000,8.5000000000,-4.1250000000,9.0625000000,image428.jpg,85635.4379370000
5,50.8647121667,-0.0917098333,71.6000000000,8.5000000000,-4.1250000000,9.0625000000,image429.jpg,85835.9742390000
5,50.8647120000,-0.0917098333,71.6000000000,8.5000000000,-4.1250000000,9.0625000000,image430.jpg,86036.9716340000
5,50.8647120000,-0.0917098333,71.6000000000,8.5000000000,-4.1250000000,9.0625000000,image431.jpg,86237.2993430000
5,50.8647118333,-0.0917098333,71.6000000000,8.5000000000,-4.1250000000,9.0625000000,image432.jpg,86437.4304360000
5,50.8647116667,-0.0917100000,71.6000000000,8.5000000000,-4.1250000000,9.0625000000,image433.jpg,86637.4558010000
5,50.8647115000,-0.0917098333,71.6000000000,8.5000000000,-4.1250000000,9.0625000000,image434.jpg,86836.5874150000
5,50.8647116667,-0.0917098333,71.6000000000,8.5000000000,-4.1250000000,9.0625000000,image435.jpg,87036.5038730000
5,50.8647115000,-0.0917100000,71.6000000000,8.5000000000,-4.1250000000,9.0625000000,image436.jpg,87236.7369980000
5,50.8647113333,-0.0917098333,71.6000000000,8.5000000000,-4.1250000000,9.0625000000,image437.jpg,87438.5692900000
5,50.8647113333,-0.0917098333,71.6000000000,8.5000000000,-4.1250000000,9.0625000000,image438.jpg,87639.0639250000
5,50.8647113333,-0.0917098333,71.6000000000,8.5000000000,-4.1250000000,9.0625000000,image439.jpg,87837.7765820000
5,50.8647111667,-0.0917098333,71.6000000000,8.5000000000,-4.1250000000,9.0625000000,image440.jpg,88038.1805920000
5,50.8647111667,-0.0917098333,71.6000000000,8.5000000000,-4.1250000000,9.0625000000,image441.jpg,88237.1397060000
5,50.8647111667,-0.0917098333,71.6000000000,8.5000000000,-4.1250000000,9.0625000000,image442.jpg,88437.1076750000
5,50.8647110000,-0.0917100000,71.6000000000,8.5000000000,-4.1250000000,9.0625000000,image443.jpg,88637.6209560000
5,50.8647108333,-0.0917100000,71.6000000000,8.5000000000,-4.1250000000,9.0625000000,image444.jpg,88838.3601750000
5,50.8647108333,-0.0917100000,71.6000000000,8.5000000000,-4.1250000000,9.0625000000,image445.jpg,89038.4267370000
5,50.8647106667,-0.0917100000,71.6000000000,8.5000000000,-4.1250000000,9.0625000000,image446.jpg,89238.5611640000
5,50.8647106667,-0.0917098333,71.6000000000,8.5000000000,-4.1250000000,9.0625000000,image447.jpg,89437.7510600000
5,50.8647105000,-0.0917098333,71.6000000000,8.5000000000,-4.1250000000,9.0625000000,image448.jpg,89637.5706950000
5,50.8647105000,-0.0917096667,71.6000000000,8.5000000000,-4.1250000000,9.0625000000,image449.jpg,89837.5811640000
5,50.8647105000,-0.0917096667,71.5000000000,8.5000000000,-4.1250000000,9.0625000000,image450.jpg,90038.4204870000
5,50.8647103333,-0.0917096667,71.5000000000,8.5000000000,-4.1250000000,9.0625000000,image451.jpg,90238.6124660000
5,50.8647103333,-0.0917095000,71.5000000000,8.5000000000,-4.1250000000,9.0625000000,image452.jpg,90438.9826220000
5,50.8647103333,-0.0917095000,71.5000000000,8.5000000000,-4.1250000000,9.0625000000,image453.jpg,90639.4110080000
5,50.8647103333,-0.0917093333,71.5000000000,8.5000000000,-4.1250000000,9.0625000000,image454.jpg,90838.3872570000
5,50.8647101667,-0.0917093333,71.4000000000,8.5000000000,-4.1250000000,9.0625000000,image455.jpg,91038.3590800000
5,50.8647101667,-0.0917093333,71.4000000000,8.5000000000,-4.1250000000,9.0625000000,image456.jpg,91238.9776740000
5,50.8647100000,-0.0917091667,71.4000000000,8.5000000000,-4.1250000000,9.0625000000,image457.jpg,91439.6135590000
5,50.8647098333,-0.0917091667,71.4000000000,8.5000000000,-4.1250000000,9.0625000000,image458.jpg,91640.5267360000
5,50.8647096667,-0.0917091667,71.4000000000,8.5000000000,-4.1250000000,9.0625000000,image459.jpg,91838.7351740000
5,50.8647096667,-0.0917091667,71.4000000000,8.5000000000,-4.1250000000,9.0625000000,image460.jpg,92039.0112150000
5,50.8647095000,-0.0917091667,71.4000000000,8.5000000000,-4.1250000000,9.0625000000,image461.jpg,92238.9269970000
5,50.8647095000,-0.0917090000,71.3000000000,8.5000000000,-4.1250000000,9.0625000000,image462.jpg,92439.2048090000
5,50.8647093333,-0.0917091667,71.3000000000,8.5000000000,-4.1250000000,9.0625000000,image463.jpg,92640.0648090000
5,50.8647091667,-0.0917090000,71.3000000000,8.5000000000,-4.1250000000,9.0625000000,image464.jpg,92840.5973610000
5,50.8647090000,-0.0917091667,71.3000000000,8.5000000000,-4.1250000000,9.0625000000,image465.jpg,93040.6982460000
5,50.8647088333,-0.0917093333,71.3000000000,8.5000000000,-4.1250000000,9.0625000000,image466.jpg,93241.0349650000
5,50.8647086667,-0.0917091667,71.3000000000,8.5000000000,-4.1250000000,9.0625000000,image467.jpg,93439.6625690000
5,50.8647086667,-0.0917091667,71.3000000000,8.5000000000,-4.1250000000,9.0625000000,image468.jpg,93639.8560580000
5,50.8647085000,-0.0917090000,71.2000000000,8.5000000000,-4.1250000000,9.0625000000,image469.jpg,93840.1229850000
5,50.8647083333,-0.0917090000,71.2000000000,8.5000000000,-4.1250000000,9.0625000000,image470.jpg,94040.6226210000
5,50.8647083333,-0.0917090000,71.2000000000,8.5000000000,-4.1250000000,9.0625000000,image471.jpg,94241.1329850000
5,50.8647080000,-0.0917090000,71.2000000000,8.5000000000,-4.1250000000,9.0625000000,image472.jpg,94441.0559020000
5,50.8647080000,-0.0917090000,71.2000000000,8.5000000000,-4.1250000000,9.0625000000,image473.jpg,94641.4450160000
5,50.8647078333,-0.0917090000,71.2000000000,8.5000000000,-4.1250000000,9.0625000000,image474.jpg,94840.3322560000
5,50.8647075000,-0.0917090000,71.2000000000,8.5000000000,-4.1250000000,9.0625000000,image475.jpg,95040.3062660000
5,50.8647073333,-0.0917090000,71.2000000000,8.5000000000,-4.1250000000,9.0625000000,image476.jpg,95241.7696520000
5,50.8647071667,-0.0917088333,71.2000000000,8.5000000000,-4.1250000000,9.0625000000,image477.jpg,95441.4064740000
5,50.8647070000,-0.0917090000,71.2000000000,8.5000000000,-4.1250000000,9.0625000000,image478.jpg,95641.5711100000
5,50.8647070000,-0.0917090000,71.2000000000,8.5000000000,-4.1250000000,9.0625000000,image479.jpg,95841.8559530000
5,50.8647066667,-0.0917090000,71.2000000000,8.5000000000,-4.1250000000,9.0625000000,image480.jpg,96041.2668910000
5,50.8647065000,-0.0917090000,71.1000000000,8.5000000000,-4.1250000000,9.0625000000,image481.jpg,96240.9943910000
5,50.8647065000,-0.0917090000,71.1000000000,8.5000000000,-4.1250000000,9.0625000000,image482.jpg,96440.9791300000
5,50.8647061667,-0.0917091667,71.2000000000,8.5000000000,-4.1250000000,9.0625000000,image483.jpg,96641.6757970000
5,50.8647061667,-0.0917091667,71.1000000000,8.5000000000,-4.1250000000,9.0625000000,image484.jpg,96842.2736610000
5,50.8647060000,-0.0917091667,71.2000000000,8.5000000000,-4.1250000000,9.0625000000,image485.jpg,97042.2035570000
5,50.8647056667,-0.0917090000,71.1000000000,8.5000000000,-4.1250000000,9.0625000000,image486.jpg,97242.2159530000
5,50.8647055000,-0.0917091667,71.2000000000,8.5000000000,-4.1250000000,9.0625000000,image487.jpg,97441.4293380000
5,50.8647053333,-0.0917091667,71.1000000000,8.5000000000,-4.1250000000,9.0625000000,image488.jpg,97641.7205360000
5,50.8647051667,-0.0917091667,71.2000000000,8.5000000000,-4.1250000000,9.0625000000,image489.jpg,97841.8243900000
5,50.8647050000,-0.0917091667,71.1000000000,8.5000000000,-4.1250000000,9.0625000000,image490.jpg,98042.6827760000
5,50.8647048333,-0.0917091667,71.1000000000,8.5000000000,-4.1250000000,9.0625000000,image491.jpg,98241.9264730000
5,50.8647048333,-0.0917091667,71.1000000000,8.5000000000,-4.1250000000,9.0625000000,image492.jpg,98441.9404320000
5,50.8647046667,-0.0917091667,71.1000000000,8.5000000000,-4.1250000000,9.0625000000,image493.jpg,98641.8991820000
5,50.8647046667,-0.0917091667,71.1000000000,8.5000000000,-4.1250000000,9.0625000000,image494.jpg,98841.9052750000
5,50.8647045000,-0.0917091667,71.1000000000,8.5000000000,-4.1250000000,9.0625000000,image495.jpg,99042.0215770000
5,50.8647041667,-0.0917093333,71.1000000000,8.5000000000,-4.1250000000,9.0625000000,image496.jpg,99242.7972020000
5,50.8647040000,-0.0917093333,71.1000000000,8.5000000000,-4.1250000000,9.0625000000,image497.jpg,99443.2494420000
5,50.8647040000,-0.0917091667,71.1000000000,8.5000000000,-4.1250000000,9.0625000000,image498.jpg,99643.2889210000
5,50.8647038333,-0.0917093333,71.1000000000,8.5000000000,-4.1250000000,9.0625000000,image499.jpg,99843.5197540000
