gps quality,lat,lon,altitude,roll,pitch,yaw,image name,timestamp
4,50.8634135000,-0.0939528333,56.6000000000,0.1875000000,-1.1250000000,349.1250000000,image0.jpg,3.6342120000
4,50.8634138333,-0.0939520000,56.6000000000,0.1875000000,-1.1250000000,349.1250000000,image1.jpg,202.7254100000
4,50.8634140000,-0.0939520000,56.6000000000,0.1875000000,-1.1250000000,349.1250000000,image2.jpg,401.6916150000
4,50.8634138333,-0.0939520000,56.6000000000,0.1875000000,-1.1250000000,349.1250000000,image3.jpg,601.8941010000
4,50.8634140000,-0.0939520000,56.6000000000,0.1875000000,-1.1250000000,349.1250000000,image4.jpg,802.5849440000
4,50.8634138333,-0.0939520000,56.6000000000,0.1875000000,-1.1250000000,349.1250000000,image5.jpg,1002.8701330000
4,50.8634138333,-0.0939520000,56.6000000000,0.1875000000,-1.1250000000,349.1250000000,image6.jpg,1203.1651650000
5,50.8634138333,-0.0939520000,56.6000000000,0.1875000000,-1.1250000000,349.1250000000,image7.jpg,1402.1858460000
5,50.8634138333,-0.0939520000,56.6000000000,0.1875000000,-1.1250000000,349.1250000000,image8.jpg,1602.2227160000
5,50.8634138333,-0.0939520000,56.6000000000,0.1875000000,-1.1250000000,349.1250000000,image9.jpg,1802.7319020000
5,50.8634138333,-0.0939520000,56.6000000000,-0.7500000000,-1.9375000000,349.1875000000,image10.jpg,2003.4799290000
5,50.8634138333,-0.0939516667,56.6000000000,-3.5000000000,-3.9375000000,349.0625000000,image11.jpg,2203.4187840000
5,50.8634135000,-0.0939508333,56.6000000000,-0.2500000000,-2.3125000000,348.2500000000,image12.jpg,2403.4719550000
5,50.8634135000,-0.0939508333,56.6000000000,0.3125000000,-2.3750000000,348.4375000000,image13.jpg,2602.6115870000
5,50.8634136667,-0.0939515000,56.6000000000,1.0625000000,-1.4375000000,348.9375000000,image14.jpg,2802.8301650000
5,50.8634141667,-0.0939528333,56.6000000000,3.2500000000,-2.1250000000,349.1250000000,image15.jpg,3002.7582910000
5,50.8634148333,-0.0939543333,56.6000000000,2.3125000000,-1.5625000000,349.4375000000,image16.jpg,3202.8659380000
4,50.8634155000,-0.0939561667,56.6000000000,3.1875000000,-1.9375000000,350.0000000000,image17.jpg,3402.9842100000
4,50.8634163333,-0.0939576667,56.6000000000,3.5000000000,-0.9375000000,353.3125000000,image18.jpg,3603.0531610000
4,50.8634168333,-0.0939588333,56.6000000000,4.5000000000,-0.9375000000,356.8750000000,image19.jpg,3803.0440450000
4,50.8634178333,-0.0939601667,56.6000000000,4.6250000000,-0.8125000000,357.1250000000,image20.jpg,4003.1379940000
4,50.8634185000,-0.0939615000,56.6000000000,5.3750000000,-2.3125000000,357.6250000000,image21.jpg,4203.2180910000
4,50.8634193333,-0.0939626667,56.6000000000,4.0625000000,-2.7500000000,0.1250000000,image22.jpg,4403.3395390000
4,50.8634201667,-0.0939640000,56.7000000000,5.5625000000,-2.4375000000,1.5625000000,image23.jpg,4603.4161460000
4,50.8634210000,-0.0939650000,56.6000000000,3.9375000000,-3.8750000000,1.6875000000,image24.jpg,4803.4565050000
4,50.8634218333,-0.0939658333,56.6000000000,1.0625000000,-2.0000000000,2.5000000000,image25.jpg,5004.0618300000
4,50.8634225000,-0.0939671667,56.6000000000,3.4375000000,-1.9375000000,2.7500000000,image26.jpg,5204.5712760000
4,50.8634233333,-0.0939680000,56.6000000000,2.8125000000,-1.3125000000,3.7500000000,image27.jpg,5404.6215830000
4,50.8634241667,-0.0939690000,56.7000000000,2.0625000000,-1.2500000000,4.8750000000,image28.jpg,5604.4894520000
4,50.8634251667,-0.0939701667,56.6000000000,0.5000000000,-1.9375000000,4.3750000000,image29.jpg,5803.7902190000
4,50.8634258333,-0.0939711667,56.7000000000,0.8750000000,-2.6875000000,3.2500000000,image30.jpg,6003.9540080000
4,50.8634270000,-0.0939725000,56.7000000000,-1.3125000000,-3.8125000000,2.8125000000,image31.jpg,6204.8393160000
4,50.8634280000,-0.0939738333,56.6000000000,-0.8125000000,-4.8125000000,2.8125000000,image32.jpg,6405.0014380000
4,50.8634290000,-0.0939750000,56.6000000000,-2.0625000000,-3.1250000000,2.9375000000,image33.jpg,6605.0043510000
4,50.8634298333,-0.0939763333,56.6000000000,-1.3125000000,-1.7500000000,1.8125000000,image34.jpg,6803.9844080000
4,50.8634308333,-0.0939775000,56.6000000000,-1.0625000000,-0.6875000000,1.3750000000,image35.jpg,7004.0471080000
4,50.8634315000,-0.0939785000,56.6000000000,0.9375000000,0.1875000000,3.5625000000,image36.jpg,7204.9152300000
4,50.8634325000,-0.0939796667,56.7000000000,-1.6250000000,-0.7500000000,6.4375000000,image37.jpg,7405.1667220000
4,50.8634336667,-0.0939810000,56.7000000000,-0.6250000000,-1.6875000000,7.0000000000,image38.jpg,7605.2231730000
4,50.8634346667,-0.0939821667,56.7000000000,-2.2500000000,-1.3750000000,7.1875000000,image39.jpg,7804.3388460000
4,50.8634360000,-0.0939833333,56.7000000000,-1.5625000000,-0.3125000000,7.5000000000,image40.jpg,8004.4141500000
4,50.8634371667,-0.0939846667,56.7000000000,-2.0000000000,-1.2500000000,8.5625000000,image41.jpg,8204.8813060000
4,50.8634381667,-0.0939861667,56.7000000000,-0.8125000000,-1.1250000000,9.4375000000,image42.jpg,8404.5510610000
4,50.8634395000,-0.0939870000,56.7000000000,-2.5000000000,-1.7500000000,10.4375000000,image43.jpg,8604.6393840000
4,50.8634405000,-0.0939890000,56.7000000000,1.4375000000,-0.7500000000,7.3750000000,image44.jpg,8804.7146880000
4,50.8634418333,-0.0939898333,56.7000000000,-2.0000000000,-3.8125000000,6.0000000000,image45.jpg,9004.8372290000
4,50.8634426667,-0.0939915000,56.7000000000,1.5625000000,-4.4375000000,4.3750000000,image46.jpg,9205.1368940000
4,50.8634440000,-0.0939925000,56.7000000000,-0.3750000000,-0.1875000000,5.0000000000,image47.jpg,9404.9835650000
4,50.8634448333,-0.0939943333,56.7000000000,4.0000000000,-2.5625000000,4.5000000000,image48.jpg,9605.0485050000
4,50.8634460000,-0.0939960000,56.7000000000,4.0000000000,-3.4375000000,2.6875000000,image49.jpg,9805.1176630000
4,50.8634470000,-0.0939971667,56.7000000000,5.6250000000,-1.0625000000,2.1875000000,image50.jpg,10005.1963520000
4,50.8634476667,-0.0939988333,56.7000000000,10.5000000000,0.0625000000,1.6250000000,image51.jpg,10205.2462400000
4,50.8634486667,-0.0940000000,56.7000000000,5.9375000000,-2.3125000000,3.6875000000,image52.jpg,10406.3985110000
4,50.8634496667,-0.0940016667,56.7000000000,10.1875000000,-2.6875000000,6.6250000000,image53.jpg,10606.3547070000
4,50.8634506667,-0.0940026667,56.7000000000,6.0000000000,-0.2500000000,8.8750000000,image54.jpg,10806.4352700000
4,50.8634518333,-0.0940036667,56.7000000000,6.8125000000,-0.5625000000,9.9375000000,image55.jpg,11005.4658960000
4,50.8634528333,-0.0940045000,56.7000000000,6.8125000000,-1.6250000000,9.3750000000,image56.jpg,11205.5584380000
4,50.8634538333,-0.0940060000,56.7000000000,7.5625000000,-0.2500000000,5.7500000000,image57.jpg,11406.2847960000
4,50.8634548333,-0.0940070000,56.7000000000,3.0625000000,-2.7500000000,2.0625000000,image58.jpg,11606.8219990000
4,50.8634553333,-0.0940083333,56.7000000000,7.1250000000,-2.0625000000,358.5000000000,image59.jpg,11806.7487170000
4,50.8634560000,-0.0940096667,56.7000000000,6.1250000000,-4.0000000000,356.8750000000,image60.jpg,12006.1858290000
4,50.8634570000,-0.0940108333,56.7000000000,6.6250000000,-2.1250000000,357.0000000000,image61.jpg,12205.9608890000
4,50.8634575000,-0.0940125000,56.7000000000,9.0625000000,-2.6250000000,357.1875000000,image62.jpg,12406.3341950000
4,50.8634585000,-0.0940136667,56.7000000000,7.1875000000,-2.6250000000,357.1875000000,image63.jpg,12607.0140980000
4,50.8634593333,-0.0940155000,56.7000000000,7.3750000000,-3.3750000000,358.0000000000,image64.jpg,12807.1214300000
4,50.8634603333,-0.0940171667,56.7000000000,6.9375000000,-2.1875000000,358.3125000000,image65.jpg,13007.0615320000
4,50.8634613333,-0.0940185000,56.7000000000,4.5625000000,-0.5000000000,358.5000000000,image66.jpg,13206.2247010000
4,50.8634623333,-0.0940198333,56.7000000000,4.0625000000,-2.2500000000,1.7500000000,image67.jpg,13406.5522800000
4,50.8634633333,-0.0940208333,56.7000000000,6.0000000000,-0.1875000000,4.6875000000,image68.jpg,13606.5692010000
4,50.8634640000,-0.0940220000,56.7000000000,6.5625000000,0.3750000000,5.6875000000,image69.jpg,13806.4441510000
4,50.8634650000,-0.0940233333,56.7000000000,10.6250000000,1.6875000000,6.0625000000,image70.jpg,14006.5066410000
4,50.8634660000,-0.0940248333,56.7000000000,11.5625000000,0.0000000000,4.1875000000,image71.jpg,14206.6642820000
4,50.8634671667,-0.0940266667,56.7000000000,5.5000000000,-2.8125000000,0.6250000000,image72.jpg,14406.6954210000
4,50.8634681667,-0.0940285000,56.8000000000,5.3750000000,-0.5625000000,354.8750000000,image73.jpg,14606.7657230000
4,50.8634691667,-0.0940303333,56.7000000000,2.8125000000,1.8125000000,352.3750000000,image74.jpg,14806.8614410000
4,50.8634701667,-0.0940323333,56.8000000000,6.1250000000,-1.5625000000,353.4375000000,image75.jpg,15006.8573730000
4,50.8634713333,-0.0940345000,56.8000000000,4.6250000000,-2.2500000000,355.0000000000,image76.jpg,15207.0126180000
4,50.8634725000,-0.0940368333,56.8000000000,6.9375000000,-1.8125000000,0.1250000000,image77.jpg,15407.0630780000
4,50.8634740000,-0.0940385000,56.8000000000,2.7500000000,-1.0000000000,1.5625000000,image78.jpg,15607.9503630000
4,50.8634753333,-0.0940406667,56.8000000000,3.1250000000,-0.6875000000,357.4375000000,image79.jpg,15808.1547720000
4,50.8634766667,-0.0940423333,56.8000000000,-2.3125000000,-1.7500000000,351.0625000000,image80.jpg,16008.2266880000
4,50.8634773333,-0.0940446667,56.8000000000,4.3125000000,-3.3750000000,347.5000000000,image81.jpg,16207.7765530000
4,50.8634781667,-0.0940471667,56.8000000000,6.1250000000,-1.5625000000,347.1250000000,image82.jpg,16407.3939650000
4,50.8634791667,-0.0940495000,56.8000000000,8.1875000000,-1.6250000000,348.8750000000,image83.jpg,16607.7789880000
4,50.8634798333,-0.0940520000,56.8000000000,7.6250000000,-2.7500000000,349.8125000000,image84.jpg,16808.4943040000
4,50.8634810000,-0.0940538333,56.8000000000,7.6875000000,0.7500000000,352.0000000000,image85.jpg,17008.5581480000
4,50.8634821667,-0.0940561667,56.8000000000,8.1875000000,-3.3750000000,354.5000000000,image86.jpg,17208.5261120000
4,50.8634831667,-0.0940583333,56.8000000000,9.0625000000,-2.8125000000,355.0625000000,image87.jpg,17407.7607340000
4,50.8634846667,-0.0940605000,56.8000000000,11.1875000000,-5.5000000000,355.6875000000,image88.jpg,17607.9905580000
4,50.8634856667,-0.0940630000,56.8000000000,10.0625000000,-2.3125000000,356.8750000000,image89.jpg,17808.8845610000
4,50.8634870000,-0.0940650000,56.8000000000,11.5000000000,-3.5000000000,359.8125000000,image90.jpg,18008.9038240000
4,50.8634881667,-0.0940671667,56.8000000000,10.6250000000,-1.0625000000,0.1250000000,image91.jpg,18209.1350010000
4,50.8634895000,-0.0940691667,56.8000000000,7.7500000000,-2.6250000000,0.3125000000,image92.jpg,18408.0968790000
4,50.8634908333,-0.0940708333,56.8000000000,6.7500000000,-3.2500000000,2.5625000000,image93.jpg,18608.1690560000
4,50.8634923333,-0.0940726667,56.8000000000,5.3750000000,-2.7500000000,3.3750000000,image94.jpg,18808.1529040000
4,50.8634936667,-0.0940746667,56.8000000000,4.2500000000,-2.6875000000,3.7500000000,image95.jpg,19008.2535680000
4,50.8634950000,-0.0940763333,56.8000000000,7.6250000000,-3.8750000000,4.5625000000,image96.jpg,19208.3697520000
4,50.8634963333,-0.0940783333,56.8000000000,6.1250000000,-2.5625000000,5.3750000000,image97.jpg,19408.3319870000
4,50.8634980000,-0.0940803333,56.8000000000,7.1250000000,-2.1250000000,6.6875000000,image98.jpg,19608.4741590000
4,50.8634995000,-0.0940820000,56.8000000000,5.1250000000,-1.7500000000,7.1875000000,image99.jpg,19808.5828440000
4,50.8635008333,-0.0940835000,56.8000000000,6.6875000000,-3.1875000000,7.8750000000,image100.jpg,20008.5921590000
4,50.8635025000,-0.0940855000,56.8000000000,4.3125000000,-3.6875000000,7.6250000000,image101.jpg,20208.7376640000
4,50.8635040000,-0.0940868333,56.8000000000,2.6250000000,-0.8125000000,6.4375000000,image102.jpg,20408.8044760000
4,50.8635053333,-0.0940885000,56.8000000000,4.2500000000,-1.2500000000,5.3750000000,image103.jpg,20608.9020150000
4,50.8635065000,-0.0940903333,56.8000000000,3.1250000000,-1.8750000000,5.2500000000,image104.jpg,20855.5582590000
4,50.8635078333,-0.0940916667,56.9000000000,10.6875000000,-1.1875000000,6.1875000000,image105.jpg,21011.0431240000
4,50.8635091667,-0.0940938333,56.8000000000,7.5625000000,-2.5625000000,5.7500000000,image106.jpg,21210.8713040000
4,50.8635106667,-0.0940956667,56.9000000000,6.4375000000,-3.8125000000,3.1250000000,image107.jpg,21411.0227980000
4,50.8635118333,-0.0940975000,56.9000000000,3.8750000000,-2.9375000000,356.0625000000,image108.jpg,21610.0679510000
4,50.8635130000,-0.0940993333,56.9000000000,-0.9375000000,-1.6875000000,351.4375000000,image109.jpg,21810.1408560000
4,50.8635138333,-0.0941015000,56.9000000000,0.0625000000,-2.2500000000,344.6875000000,image110.jpg,22011.0946460000
4,50.8635148333,-0.0941036667,56.9000000000,-0.2500000000,2.3750000000,341.8125000000,image111.jpg,22211.2611390000
4,50.8635155000,-0.0941056667,56.9000000000,2.1875000000,-0.5000000000,342.1875000000,image112.jpg,22411.2741520000
4,50.8635161667,-0.0941081667,56.9000000000,6.3750000000,-4.1250000000,341.1875000000,image113.jpg,22610.4155490000
4,50.8635168333,-0.0941106667,56.9000000000,4.1875000000,-3.8750000000,339.7500000000,image114.jpg,22810.4183540000
4,50.8635175000,-0.0941130000,56.9000000000,3.9375000000,-3.3125000000,340.3125000000,image115.jpg,23011.2200170000
4,50.8635183333,-0.0941155000,56.9000000000,5.1250000000,-1.8750000000,340.6875000000,image116.jpg,23211.4972850000
4,50.8635190000,-0.0941178333,56.9000000000,3.3750000000,0.7500000000,341.1875000000,image117.jpg,23411.5703450000
4,50.8635196667,-0.0941201667,56.9000000000,4.0000000000,-1.9375000000,342.6250000000,image118.jpg,23610.6962750000
4,50.8635206667,-0.0941228333,56.9000000000,5.1250000000,-3.3125000000,342.8125000000,image119.jpg,23810.7691270000
4,50.8635213333,-0.0941248333,56.9000000000,2.8125000000,-1.1875000000,338.9375000000,image120.jpg,24011.3288780000
4,50.8635218333,-0.0941273333,56.9000000000,6.8750000000,-2.3750000000,337.5625000000,image121.jpg,24210.9118630000
4,50.8635226667,-0.0941300000,56.9000000000,5.6875000000,-5.5000000000,337.5000000000,image122.jpg,24410.9698200000
4,50.8635233333,-0.0941325000,56.9000000000,9.1250000000,-2.3125000000,339.3750000000,image123.jpg,24610.9489280000
4,50.8635240000,-0.0941348333,56.9000000000,5.6875000000,-2.8125000000,342.6250000000,image124.jpg,24811.1219830000
4,50.8635250000,-0.0941373333,56.9000000000,4.8750000000,-4.1250000000,342.8750000000,image125.jpg,25011.4323730000
4,50.8635260000,-0.0941398333,56.9000000000,3.7500000000,-4.6875000000,341.4375000000,image126.jpg,25211.2553960000
4,50.8635268333,-0.0941421667,57.0000000000,1.6250000000,-4.1875000000,336.4375000000,image127.jpg,25411.3218940000
4,50.8635271667,-0.0941445000,57.0000000000,0.0000000000,-1.0000000000,328.8750000000,image128.jpg,25611.4006310000
4,50.8635276667,-0.0941468333,56.9000000000,4.1250000000,-1.7500000000,324.3750000000,image129.jpg,25811.4628060000
4,50.8635273333,-0.0941486667,56.9000000000,5.1875000000,-2.8750000000,318.1250000000,image130.jpg,26011.9777670000
4,50.8635273333,-0.0941508333,56.9000000000,2.7500000000,-2.4375000000,312.7500000000,image131.jpg,26212.6649580000
4,50.8635271667,-0.0941526667,56.9000000000,6.1875000000,-3.0000000000,310.3750000000,image132.jpg,26412.6348470000
4,50.8635270000,-0.0941546667,56.9000000000,1.0625000000,-5.0000000000,309.7500000000,image133.jpg,26612.5638530000
4,50.8635270000,-0.0941570000,56.9000000000,4.0000000000,-4.1250000000,313.5625000000,image134.jpg,26811.8269090000
4,50.8635266667,-0.0941588333,56.9000000000,3.7500000000,-1.7500000000,319.5000000000,image135.jpg,27012.0267320000
4,50.8635271667,-0.0941605000,56.9000000000,-1.5625000000,-0.8750000000,322.4375000000,image136.jpg,27212.9491160000
4,50.8635273333,-0.0941620000,56.9000000000,1.0625000000,3.6250000000,324.1875000000,image137.jpg,27412.9805640000
4,50.8635275000,-0.0941633333,57.0000000000,1.2500000000,-1.1250000000,322.6875000000,image138.jpg,27612.9650350000
4,50.8635276667,-0.0941658333,56.9000000000,-1.4375000000,-3.0625000000,319.7500000000,image139.jpg,27812.1554390000
4,50.8635278333,-0.0941670000,57.0000000000,-1.3750000000,-2.2500000000,320.7500000000,image140.jpg,28012.2155310000
4,50.8635276667,-0.0941681667,57.0000000000,4.6875000000,1.3750000000,319.5000000000,image141.jpg,28213.2463460000
4,50.8635276667,-0.0941696667,57.0000000000,4.5625000000,2.3125000000,318.5000000000,image142.jpg,28413.2823250000
4,50.8635278333,-0.0941715000,57.0000000000,2.4375000000,0.3125000000,317.0000000000,image143.jpg,28613.4065270000
4,50.8635278333,-0.0941731667,57.0000000000,5.1875000000,-1.6250000000,313.3125000000,image144.jpg,28812.5308930000
4,50.8635275000,-0.0941746667,57.0000000000,9.5625000000,-0.3750000000,311.3750000000,image145.jpg,29012.5967650000
4,50.8635273333,-0.0941763333,57.0000000000,7.9375000000,-0.6875000000,312.0000000000,image146.jpg,29212.9692340000
4,50.8635273333,-0.0941776667,57.0000000000,5.7500000000,-2.1875000000,314.8750000000,image147.jpg,29412.8018910000
4,50.8635271667,-0.0941793333,57.0000000000,11.6875000000,-1.7500000000,320.7500000000,image148.jpg,29612.8263590000
4,50.8635273333,-0.0941813333,57.0000000000,7.3750000000,-2.3750000000,321.6250000000,image149.jpg,29812.9344690000
4,50.8635275000,-0.0941830000,57.0000000000,6.3750000000,-2.8750000000,322.1250000000,image150.jpg,30012.9712800000
4,50.8635275000,-0.0941848333,57.0000000000,5.5625000000,-3.4375000000,323.3125000000,image151.jpg,30213.2857310000
4,50.8635276667,-0.0941870000,57.0000000000,4.7500000000,-2.5000000000,321.3750000000,image152.jpg,30413.1083360000
4,50.8635278333,-0.0941891667,57.0000000000,7.6250000000,-3.5625000000,317.0625000000,image153.jpg,30613.1631670000
4,50.8635276667,-0.0941908333,57.0000000000,3.8750000000,0.0000000000,312.4375000000,image154.jpg,30813.1981040000
4,50.8635276667,-0.0941926667,57.0000000000,5.1250000000,-1.0625000000,307.1875000000,image155.jpg,31013.2836100000
4,50.8635271667,-0.0941946667,57.0000000000,8.0625000000,-0.4375000000,302.7500000000,image156.jpg,31214.0618880000
4,50.8635268333,-0.0941963333,57.0000000000,5.0000000000,1.5000000000,301.0625000000,image157.jpg,31414.3604020000
4,50.8635266667,-0.0941980000,57.0000000000,5.6250000000,-0.6250000000,302.0625000000,image158.jpg,31614.4493970000
4,50.8635265000,-0.0942003333,57.0000000000,-1.3750000000,0.2500000000,300.2500000000,image159.jpg,31813.7965100000
4,50.8635266667,-0.0942018333,57.0000000000,-6.8750000000,-3.5625000000,298.9375000000,image160.jpg,32013.6130730000
4,50.8635263333,-0.0942040000,57.0000000000,-3.6250000000,-3.7500000000,294.8125000000,image161.jpg,32214.0027280000
4,50.8635256667,-0.0942053333,57.0000000000,-2.9375000000,-4.6250000000,287.6875000000,image162.jpg,32414.7169460000
4,50.8635253333,-0.0942073333,57.0000000000,-3.6875000000,-4.3125000000,285.6875000000,image163.jpg,32614.7792240000
4,50.8635246667,-0.0942086667,57.0000000000,1.8750000000,-4.7500000000,284.5625000000,image164.jpg,32814.6857820000
4,50.8635240000,-0.0942098333,56.9000000000,3.0625000000,-3.8750000000,282.5625000000,image165.jpg,33013.9811270000
4,50.8635233333,-0.0942118333,56.9000000000,4.1250000000,-5.3750000000,282.3750000000,image166.jpg,33214.3471880000
4,50.8635228333,-0.0942133333,56.9000000000,3.1875000000,-0.3750000000,283.9375000000,image167.jpg,33415.0678130000
4,50.8635221667,-0.0942150000,57.0000000000,4.5000000000,-3.9375000000,289.7500000000,image168.jpg,33615.1266530000
4,50.8635216667,-0.0942170000,56.9000000000,6.1250000000,-3.0625000000,294.6875000000,image169.jpg,33815.0228990000
4,50.8635213333,-0.0942186667,56.9000000000,4.5625000000,-1.4375000000,297.5625000000,image170.jpg,34014.3229300000
4,50.8635208333,-0.0942208333,56.9000000000,4.9375000000,-2.2500000000,298.1250000000,image171.jpg,34214.6383700000
4,50.8635201667,-0.0942228333,56.9000000000,9.5000000000,-4.0625000000,297.3750000000,image172.jpg,34414.4623810000
4,50.8635196667,-0.0942250000,56.9000000000,4.0000000000,-4.3125000000,300.1250000000,image173.jpg,34614.5243460000
4,50.8635193333,-0.0942271667,57.0000000000,10.7500000000,-2.3125000000,306.8750000000,image174.jpg,34814.6162570000
4,50.8635190000,-0.0942291667,56.9000000000,7.5625000000,-0.0625000000,311.0000000000,image175.jpg,35014.6628580000
4,50.8635191667,-0.0942316667,56.9000000000,3.3125000000,0.2500000000,313.8125000000,image176.jpg,35214.7504990000
4,50.8635191667,-0.0942338333,56.9000000000,5.9375000000,-3.6875000000,314.8125000000,image177.jpg,35414.8147550000
4,50.8635188333,-0.0942361667,56.9000000000,4.4375000000,-1.3125000000,313.9375000000,image178.jpg,35614.8878650000
4,50.8635190000,-0.0942381667,56.9000000000,1.8750000000,-1.1250000000,309.9375000000,image179.jpg,35814.9672770000
4,50.8635186667,-0.0942405000,56.9000000000,3.1250000000,-3.0625000000,305.3125000000,image180.jpg,36015.0303870000
4,50.8635183333,-0.0942428333,56.9000000000,6.1875000000,-2.7500000000,304.8750000000,image181.jpg,36215.1465680000
4,50.8635180000,-0.0942448333,57.0000000000,3.1875000000,-2.2500000000,305.0000000000,image182.jpg,36416.3542460000
4,50.8635178333,-0.0942476667,56.9000000000,3.5625000000,-3.3750000000,305.8125000000,image183.jpg,36616.1585690000
4,50.8635175000,-0.0942501667,57.0000000000,6.0625000000,-1.8125000000,305.3125000000,image184.jpg,36816.2036080000
4,50.8635171667,-0.0942523333,56.9000000000,0.1875000000,-4.3125000000,306.0625000000,image185.jpg,37015.3160970000
4,50.8635170000,-0.0942551667,56.9000000000,5.2500000000,-3.0625000000,309.0625000000,image186.jpg,37215.3059830000
4,50.8635170000,-0.0942575000,57.0000000000,0.0000000000,-2.9375000000,310.7500000000,image187.jpg,37416.3332030000
4,50.8635166667,-0.0942601667,57.0000000000,6.6250000000,-3.2500000000,313.7500000000,image188.jpg,37616.4718290000
4,50.8635168333,-0.0942626667,57.0000000000,4.8750000000,-0.8125000000,318.8750000000,image189.jpg,37816.5372830000
4,50.8635166667,-0.0942653333,57.0000000000,8.3125000000,-0.3750000000,319.9375000000,image190.jpg,38015.6934150000
4,50.8635170000,-0.0942678333,57.0000000000,8.2500000000,-0.0625000000,319.0000000000,image191.jpg,38215.7389740000
4,50.8635168333,-0.0942705000,57.0000000000,7.3750000000,-1.0000000000,320.1250000000,image192.jpg,38416.5459990000
4,50.8635170000,-0.0942730000,57.0000000000,13.9375000000,-0.1875000000,323.4375000000,image193.jpg,38616.8451890000
4,50.8635170000,-0.0942750000,57.0000000000,9.9375000000,1.0625000000,327.5625000000,image194.jpg,38816.9538170000
4,50.8635175000,-0.0942776667,57.0000000000,9.3125000000,-0.1875000000,332.8750000000,image195.jpg,39015.9760500000
4,50.8635178333,-0.0942798333,57.0000000000,9.8750000000,-2.1875000000,335.8750000000,image196.jpg,39216.0208280000
4,50.8635183333,-0.0942816667,57.1000000000,8.3750000000,-0.5000000000,340.1250000000,image197.jpg,39416.5229740000
4,50.8635191667,-0.0942838333,57.1000000000,9.2500000000,-1.1875000000,342.5000000000,image198.jpg,39616.1696500000
4,50.8635196667,-0.0942858333,57.1000000000,7.0000000000,-0.5000000000,344.5625000000,image199.jpg,39816.2730180000
4,50.8635203333,-0.0942878333,57.1000000000,6.5000000000,-0.8750000000,346.3125000000,image200.jpg,40016.3003490000
4,50.8635210000,-0.0942893333,57.1000000000,3.2500000000,-2.6875000000,345.4375000000,image201.jpg,40216.3848630000
4,50.8635216667,-0.0942911667,57.1000000000,6.0625000000,-4.3750000000,342.9375000000,image202.jpg,40416.6887920000
4,50.8635221667,-0.0942931667,57.1000000000,4.3125000000,-2.3125000000,339.3750000000,image203.jpg,40616.5217070000
4,50.8635226667,-0.0942953333,57.1000000000,5.3125000000,-3.2500000000,339.8125000000,image204.jpg,40816.5913790000
4,50.8635235000,-0.0942973333,57.1000000000,8.9375000000,-4.7500000000,340.2500000000,image205.jpg,41016.6336570000
4,50.8635238333,-0.0942996667,57.1000000000,7.3750000000,-4.0625000000,344.6875000000,image206.jpg,41216.8038430000
4,50.8635248333,-0.0943018333,57.1000000000,10.3125000000,-4.7500000000,353.2500000000,image207.jpg,41417.2398990000
4,50.8635256667,-0.0943036667,57.1000000000,6.4375000000,-2.8125000000,357.7500000000,image208.jpg,41617.8082920000
4,50.8635270000,-0.0943056667,57.1000000000,8.1875000000,-4.6875000000,215.7500000000,image209.jpg,41817.8802550000
4,50.8635281667,-0.0943076667,57.1000000000,5.3750000000,-5.9375000000,216.1875000000,image210.jpg,42017.8218090000
4,50.8635296667,-0.0943100000,57.1000000000,2.6250000000,-5.3750000000,213.6250000000,image211.jpg,42217.0974130000
4,50.8635310000,-0.0943118333,57.1000000000,1.3125000000,-3.8125000000,206.0000000000,image212.jpg,42417.3130650000
4,50.8635320000,-0.0943143333,57.1000000000,-1.6875000000,-5.5000000000,198.1250000000,image213.jpg,42618.1393580000
4,50.8635330000,-0.0943160000,57.1000000000,2.5625000000,-2.7500000000,193.1875000000,image214.jpg,42818.2170500000
4,50.8635328333,-0.0943183333,57.1000000000,3.3750000000,-0.6250000000,193.3750000000,image215.jpg,43018.3052100000
4,50.8635333333,-0.0943198333,57.1000000000,2.3125000000,-1.5000000000,193.4375000000,image216.jpg,43217.3994180000
4,50.8635338333,-0.0943221667,57.1000000000,1.9375000000,-0.6250000000,194.3125000000,image217.jpg,43417.4699220000
4,50.8635343333,-0.0943233333,57.1000000000,3.8125000000,2.5625000000,195.8750000000,image218.jpg,43618.5801570000
4,50.8635350000,-0.0943251667,57.1000000000,-1.4375000000,-0.5000000000,196.3125000000,image219.jpg,43818.5817070000
4,50.8635356667,-0.0943270000,57.1000000000,-2.4375000000,-2.3125000000,194.8750000000,image220.jpg,44018.6332020000
4,50.8635360000,-0.0943285000,57.2000000000,-2.9375000000,-3.3125000000,195.4375000000,image221.jpg,44217.7617830000
4,50.8635366667,-0.0943301667,57.1000000000,4.1875000000,-2.4375000000,198.8750000000,image222.jpg,44417.8126010000
4,50.8635370000,-0.0943313333,57.1000000000,4.8125000000,-3.1250000000,201.1250000000,image223.jpg,44618.5381180000
4,50.8635376667,-0.0943325000,57.1000000000,5.3750000000,-1.2500000000,204.6875000000,image224.jpg,44818.0251150000
4,50.8635381667,-0.0943336667,57.1000000000,6.5000000000,-3.3750000000,207.2500000000,image225.jpg,45018.0320810000
4,50.8635386667,-0.0943353333,57.1000000000,7.0000000000,-4.8125000000,207.4375000000,image226.jpg,45218.1428960000
4,50.8635395000,-0.0943368333,57.1000000000,9.0000000000,-5.4375000000,207.4375000000,image227.jpg,45418.1979320000
4,50.8635398333,-0.0943381667,57.1000000000,7.8125000000,-2.5625000000,204.2500000000,image228.jpg,45618.4886310000
4,50.8635405000,-0.0943396667,57.1000000000,6.2500000000,-3.3750000000,201.0625000000,image229.jpg,45818.3173260000
4,50.8635411667,-0.0943415000,57.1000000000,9.3125000000,-3.6250000000,202.2500000000,image230.jpg,46018.3641340000
4,50.8635416667,-0.0943431667,57.1000000000,7.8750000000,-4.0625000000,201.4375000000,image231.jpg,46218.4476050000
4,50.8635426667,-0.0943451667,57.1000000000,6.3750000000,-3.1875000000,203.8125000000,image232.jpg,46418.4501440000
4,50.8635433333,-0.0943470000,57.1000000000,10.5625000000,-2.6250000000,207.4375000000,image233.jpg,46619.2517510000
4,50.8635443333,-0.0943486667,57.1000000000,9.5625000000,-2.1250000000,212.5625000000,image234.jpg,46819.6072380000
4,50.8635451667,-0.0943503333,57.1000000000,12.7500000000,-1.6875000000,214.3125000000,image235.jpg,47019.6519090000
4,50.8635460000,-0.0943520000,57.1000000000,11.6250000000,-3.1250000000,214.5625000000,image236.jpg,47219.1364060000
4,50.8635468333,-0.0943536667,57.1000000000,11.7500000000,0.1250000000,216.4375000000,image237.jpg,47418.7843830000
4,50.8635476667,-0.0943550000,57.1000000000,10.0000000000,-2.3125000000,215.7500000000,image238.jpg,47619.2122610000
4,50.8635486667,-0.0943561667,57.1000000000,9.1875000000,-4.0625000000,215.6875000000,image239.jpg,47820.0465730000
4,50.8635498333,-0.0943575000,57.2000000000,6.5000000000,-0.5625000000,217.1250000000,image240.jpg,48020.0759850000
4,50.8635505000,-0.0943595000,57.1000000000,8.1875000000,-0.6875000000,217.6875000000,image241.jpg,48219.8636930000
4,50.8635516667,-0.0943606667,57.2000000000,4.2500000000,-2.6250000000,215.1875000000,image242.jpg,48419.1946570000
4,50.8635525000,-0.0943625000,57.2000000000,4.3750000000,-5.8750000000,209.7500000000,image243.jpg,48619.5817050000
4,50.8635533333,-0.0943640000,57.2000000000,5.3750000000,-4.4375000000,203.8125000000,image244.jpg,48820.2240490000
4,50.8635538333,-0.0943655000,57.2000000000,0.0000000000,-4.0625000000,198.3125000000,image245.jpg,49021.0050310000
4,50.8635545000,-0.0943676667,57.2000000000,6.4375000000,-1.0625000000,195.3750000000,image246.jpg,49220.3790660000
4,50.8635548333,-0.0943690000,57.2000000000,2.9375000000,-0.6875000000,195.6250000000,image247.jpg,49419.6201390000
4,50.8635555000,-0.0943705000,57.2000000000,2.4375000000,-3.8125000000,196.0000000000,image248.jpg,49619.8113120000
4,50.8635560000,-0.0943725000,57.2000000000,8.3750000000,-4.2500000000,195.1875000000,image249.jpg,49819.6962010000
4,50.8635565000,-0.0943743333,57.1000000000,2.1250000000,-5.8125000000,195.4375000000,image250.jpg,50019.7972230000
4,50.8635571667,-0.0943761667,57.1000000000,5.5000000000,-1.1250000000,196.1250000000,image251.jpg,50220.0394350000
4,50.8635576667,-0.0943775000,57.1000000000,5.2500000000,-1.3125000000,197.8125000000,image252.jpg,50420.0399420000
4,50.8635583333,-0.0943798333,57.1000000000,7.5000000000,-7.0000000000,198.9375000000,image253.jpg,50620.5224520000
4,50.8635591667,-0.0943818333,57.1000000000,1.8125000000,-6.8125000000,197.5625000000,image254.jpg,50820.2909940000
4,50.8635598333,-0.0943838333,57.1000000000,8.9375000000,-2.5000000000,200.0000000000,image255.jpg,51020.0931270000
4,50.8635605000,-0.0943856667,57.1000000000,5.4375000000,-1.4375000000,200.0000000000,image256.jpg,51220.4737680000
4,50.8635610000,-0.0943871667,57.2000000000,7.4375000000,-3.3125000000,202.2500000000,image257.jpg,51420.4729210000
4,50.8635616667,-0.0943895000,57.2000000000,8.8750000000,-2.1875000000,202.3750000000,image258.jpg,51620.7386730000
4,50.8635625000,-0.0943913333,57.2000000000,7.9375000000,-1.6250000000,205.3125000000,image259.jpg,51821.4161190000
4,50.8635633333,-0.0943928333,57.2000000000,9.1875000000,0.0000000000,209.8750000000,image260.jpg,52021.6177600000
4,50.8635643333,-0.0943946667,57.2000000000,9.5625000000,-4.7500000000,213.1875000000,image261.jpg,52221.9352790000
4,50.8635651667,-0.0943966667,57.2000000000,9.8125000000,-4.5000000000,212.3125000000,image262.jpg,52421.6412720000
4,50.8635660000,-0.0943978333,57.2000000000,5.0625000000,-4.6250000000,208.3750000000,image263.jpg,52620.9757240000
4,50.8635668333,-0.0943996667,57.2000000000,8.3750000000,-4.3750000000,204.0625000000,image264.jpg,52821.4236000000
4,50.8635675000,-0.0944015000,57.2000000000,3.3750000000,-2.3125000000,199.6250000000,image265.jpg,53022.2170290000
4,50.8635681667,-0.0944031667,57.2000000000,7.8750000000,-3.5625000000,199.8750000000,image266.jpg,53222.1260820000
4,50.8635685000,-0.0944055000,57.2000000000,9.2500000000,-4.3125000000,199.0000000000,image267.jpg,53421.7129680000
4,50.8635693333,-0.0944071667,57.2000000000,5.3125000000,-5.8750000000,200.3125000000,image268.jpg,53621.3343300000
4,50.8635700000,-0.0944095000,57.2000000000,7.6875000000,0.1250000000,201.6250000000,image269.jpg,53821.6545050000
4,50.8635705000,-0.0944106667,57.2000000000,6.0000000000,-4.6875000000,203.9375000000,image270.jpg,54022.3811670000
4,50.8635718333,-0.0944125000,57.2000000000,4.5625000000,-4.3125000000,207.1875000000,image271.jpg,54222.4905730000
4,50.8635721667,-0.0944135000,57.2000000000,5.3125000000,-6.8125000000,211.3750000000,image272.jpg,54422.4906110000
4,50.8635730000,-0.0944153333,57.2000000000,6.3125000000,-4.8750000000,216.6875000000,image273.jpg,54621.6171590000
4,50.8635743333,-0.0944170000,57.2000000000,6.1875000000,-2.1875000000,219.6250000000,image274.jpg,54822.0438900000
4,50.8635753333,-0.0944183333,57.2000000000,7.2500000000,-4.2500000000,219.3125000000,image275.jpg,55021.8454500000
4,50.8635765000,-0.0944201667,57.2000000000,4.3750000000,-2.5625000000,220.5625000000,image276.jpg,55221.9650110000
4,50.8635780000,-0.0944215000,57.2000000000,7.1250000000,-3.0000000000,221.3125000000,image277.jpg,55421.9161980000
4,50.8635790000,-0.0944230000,57.2000000000,0.6250000000,-2.9375000000,221.7500000000,image278.jpg,55622.0280000000
4,50.8635803333,-0.0944240000,57.2000000000,6.3750000000,-4.9375000000,226.1875000000,image279.jpg,55821.9323660000
4,50.8635813333,-0.0944256667,57.2000000000,4.3125000000,-6.0625000000,229.3125000000,image280.jpg,56022.3268070000
4,50.8635826667,-0.0944261667,57.2000000000,7.5000000000,-4.7500000000,229.6875000000,image281.jpg,56222.3177820000
4,50.8635838333,-0.0944275000,57.2000000000,7.3750000000,-2.4375000000,229.7500000000,image282.jpg,56422.5808770000
4,50.8635850000,-0.0944288333,57.2000000000,5.8125000000,-0.1875000000,230.1250000000,image283.jpg,56622.8136610000
4,50.8635858333,-0.0944291667,57.2000000000,6.8750000000,-1.5625000000,235.0000000000,image284.jpg,56822.8559880000
4,50.8635871667,-0.0944303333,57.2000000000,8.6875000000,-3.5000000000,241.4375000000,image285.jpg,57023.5829610000
4,50.8635885000,-0.0944305000,57.2000000000,1.6250000000,-4.1875000000,246.6875000000,image286.jpg,57223.8965210000
4,50.8635900000,-0.0944305000,57.2000000000,12.6875000000,0.4375000000,251.7500000000,image287.jpg,57423.7034970000
4,50.8635911667,-0.0944316667,57.2000000000,6.3750000000,-2.0000000000,251.3125000000,image288.jpg,57622.8835820000
4,50.8635926667,-0.0944311667,57.2000000000,10.3750000000,-1.6875000000,249.2500000000,image289.jpg,57823.0006440000
4,50.8635938333,-0.0944323333,57.3000000000,11.6250000000,-0.3750000000,243.5000000000,image290.jpg,58023.9784880000
4,50.8635953333,-0.0944331667,57.3000000000,5.9375000000,-4.8750000000,240.8125000000,image291.jpg,58224.4771930000
4,50.8635966667,-0.0944336667,57.3000000000,9.6250000000,-5.8125000000,239.9375000000,image292.jpg,58424.5044160000
4,50.8635980000,-0.0944350000,57.3000000000,7.1875000000,-5.3750000000,238.9375000000,image293.jpg,58623.6012780000
4,50.8636000000,-0.0944358333,57.3000000000,10.3750000000,-4.0625000000,238.7500000000,image294.jpg,58823.4761140000
4,50.8636013333,-0.0944368333,57.3000000000,12.5625000000,2.7500000000,238.1875000000,image295.jpg,59024.0479920000
4,50.8636023333,-0.0944378333,57.2000000000,14.4375000000,-0.1250000000,234.3125000000,image296.jpg,59224.5494580000
4,50.8636038333,-0.0944390000,57.3000000000,10.8125000000,-7.2500000000,229.6250000000,image297.jpg,59424.7242240000
4,50.8636048333,-0.0944405000,57.3000000000,6.9375000000,-4.6250000000,223.8750000000,image298.jpg,59624.3802180000
4,50.8636060000,-0.0944418333,57.3000000000,6.2500000000,-1.8750000000,218.6875000000,image299.jpg,59823.8758580000
4,50.8636068333,-0.0944433333,57.3000000000,3.0625000000,-2.1875000000,216.3125000000,image300.jpg,60024.1955110000
4,50.8636080000,-0.0944441667,57.3000000000,-1.8750000000,-0.6250000000,215.4375000000,image301.jpg,60223.9355630000
4,50.8636088333,-0.0944460000,57.3000000000,-2.6250000000,-2.3750000000,213.6250000000,image302.jpg,60424.0239800000
4,50.8636100000,-0.0944473333,57.3000000000,-3.3125000000,-4.6875000000,212.6250000000,image303.jpg,60624.1705710000
4,50.8636110000,-0.0944491667,57.3000000000,3.2500000000,-5.4375000000,214.8125000000,image304.jpg,60824.3354930000
4,50.8636121667,-0.0944505000,57.3000000000,3.7500000000,-6.0000000000,222.6875000000,image305.jpg,61024.5215610000
4,50.8636133333,-0.0944520000,57.3000000000,9.5000000000,-5.0000000000,231.9375000000,image306.jpg,61224.3919690000
4,50.8636146667,-0.0944528333,57.3000000000,2.8125000000,-2.2500000000,230.4375000000,image307.jpg,61424.4359610000
4,50.8636161667,-0.0944541667,57.3000000000,4.3750000000,-3.1250000000,227.0000000000,image308.jpg,61624.5867180000
4,50.8636176667,-0.0944558333,57.3000000000,6.4375000000,-1.7500000000,224.7500000000,image309.jpg,61824.7108100000
4,50.8636188333,-0.0944573333,57.3000000000,6.6875000000,-2.3750000000,226.1250000000,image310.jpg,62024.7325630000
4,50.8636200000,-0.0944591667,57.3000000000,12.3125000000,-2.3125000000,224.0625000000,image311.jpg,62225.9397160000
4,50.8636213333,-0.0944601667,57.3000000000,5.0000000000,-2.6875000000,226.0625000000,image312.jpg,62426.1497400000
4,50.8636225000,-0.0944616667,57.3000000000,7.5000000000,-4.9375000000,225.3750000000,image313.jpg,62625.8501060000
4,50.8636238333,-0.0944631667,57.3000000000,4.5625000000,-5.0625000000,224.5000000000,image314.jpg,62825.0057130000
4,50.8636253333,-0.0944648333,57.3000000000,5.8750000000,-2.8125000000,225.1250000000,image315.jpg,63024.9709080000
4,50.8636265000,-0.0944660000,57.3000000000,7.8750000000,-2.8125000000,226.3125000000,image316.jpg,63225.9814570000
4,50.8636280000,-0.0944676667,57.3000000000,7.6875000000,-2.6250000000,226.6250000000,image317.jpg,63426.4367270000
4,50.8636291667,-0.0944690000,57.3000000000,2.0625000000,-3.7500000000,222.1250000000,image318.jpg,63626.4490020000
4,50.8636306667,-0.0944706667,57.3000000000,0.6875000000,-6.1250000000,216.1250000000,image319.jpg,63825.5937760000
4,50.8636318333,-0.0944726667,57.3000000000,-0.7500000000,-4.5625000000,211.3125000000,image320.jpg,64025.6983890000
4,50.8636326667,-0.0944745000,57.3000000000,3.3125000000,-3.5000000000,210.6250000000,image321.jpg,64226.4715560000
4,50.8636335000,-0.0944766667,57.3000000000,7.3750000000,-2.9375000000,208.3125000000,image322.jpg,64426.5148190000
4,50.8636345000,-0.0944780000,57.4000000000,8.5000000000,-5.6250000000,210.1250000000,image323.jpg,64626.9649330000
4,50.8636355000,-0.0944811667,57.4000000000,8.2500000000,-9.6875000000,211.0625000000,image324.jpg,64826.0718440000
4,50.8636365000,-0.0944825000,57.4000000000,7.8750000000,-5.0000000000,213.5000000000,image325.jpg,65025.7271610000
4,50.8636376667,-0.0944841667,57.3000000000,7.3125000000,-4.8750000000,219.2500000000,image326.jpg,65226.3521600000
4,50.8636390000,-0.0944860000,57.3000000000,9.5625000000,-2.3750000000,222.3125000000,image327.jpg,65426.1195530000
4,50.8636403333,-0.0944873333,57.3000000000,6.7500000000,-3.0625000000,225.0625000000,image328.jpg,65625.9404330000
4,50.8636415000,-0.0944890000,57.3000000000,7.0000000000,-1.8750000000,226.5000000000,image329.jpg,65826.1357170000
4,50.8636430000,-0.0944900000,57.3000000000,6.5000000000,-4.6875000000,227.0625000000,image330.jpg,66026.3394390000
4,50.8636443333,-0.0944920000,57.3000000000,5.9375000000,-7.5625000000,226.5625000000,image331.jpg,66226.4173340000
4,50.8636460000,-0.0944933333,57.4000000000,7.6250000000,-6.5625000000,224.7500000000,image332.jpg,66426.4251300000
4,50.8636471667,-0.0944950000,57.3000000000,6.9375000000,-6.1250000000,221.3750000000,image333.jpg,66626.3787100000
4,50.8636485000,-0.0944970000,57.4000000000,2.9375000000,-7.0000000000,219.7500000000,image334.jpg,66826.3987960000
4,50.8636496667,-0.0944985000,57.3000000000,3.3750000000,-4.8750000000,214.0000000000,image335.jpg,67026.5582490000
4,50.8636505000,-0.0945005000,57.3000000000,4.0000000000,-5.4375000000,207.3125000000,image336.jpg,67226.7958750000
4,50.8636513333,-0.0945026667,57.4000000000,5.3125000000,-6.8125000000,206.4375000000,image337.jpg,67427.9618830000
4,50.8636521667,-0.0945045000,57.4000000000,8.6875000000,-8.4375000000,209.3125000000,image338.jpg,67627.9240040000
4,50.8636533333,-0.0945070000,57.4000000000,7.1875000000,-7.4375000000,214.1250000000,image339.jpg,67827.7262910000
4,50.8636545000,-0.0945083333,57.4000000000,4.8750000000,-4.7500000000,218.0625000000,image340.jpg,68026.9802770000
4,50.8636556667,-0.0945100000,57.4000000000,5.0000000000,-6.0000000000,217.7500000000,image341.jpg,68226.9563550000
4,50.8636568333,-0.0945118333,57.4000000000,4.0000000000,-4.1875000000,218.2500000000,image342.jpg,68427.8105590000
4,50.8636580000,-0.0945133333,57.4000000000,4.0000000000,-2.3750000000,217.8750000000,image343.jpg,68628.0700580000
4,50.8636591667,-0.0945151667,57.4000000000,2.9375000000,-2.9375000000,217.2500000000,image344.jpg,68828.0604580000
4,50.8636603333,-0.0945168333,57.4000000000,3.3750000000,-4.5625000000,213.1875000000,image345.jpg,69027.2790290000
4,50.8636611667,-0.0945186667,57.4000000000,2.0000000000,-4.5625000000,206.2500000000,image346.jpg,69227.2998960000
4,50.8636620000,-0.0945208333,57.4000000000,5.3125000000,-5.9375000000,200.9375000000,image347.jpg,69428.0136390000
4,50.8636626667,-0.0945231667,57.4000000000,3.5000000000,-5.1875000000,197.1250000000,image348.jpg,69628.3707880000
4,50.8636630000,-0.0945255000,57.4000000000,5.3750000000,-5.5625000000,195.8125000000,image349.jpg,69828.4820150000
4,50.8636638333,-0.0945281667,57.4000000000,5.8750000000,-6.4375000000,195.9375000000,image350.jpg,70027.8501080000
4,50.8636645000,-0.0945306667,57.4000000000,1.9375000000,-4.7500000000,193.2500000000,image351.jpg,70227.5819300000
4,50.8636653333,-0.0945331667,57.4000000000,1.1875000000,-5.8750000000,189.5625000000,image352.jpg,70428.1184960000
4,50.8636658333,-0.0945355000,57.4000000000,1.1250000000,-5.4375000000,183.8125000000,image353.jpg,70627.9151050000
4,50.8636660000,-0.0945383333,57.4000000000,4.6875000000,-6.8750000000,183.6250000000,image354.jpg,70828.0463830000
4,50.8636661667,-0.0945411667,57.4000000000,3.1250000000,-5.8125000000,183.9375000000,image355.jpg,71028.1780240000
4,50.8636666667,-0.0945436667,57.4000000000,4.1875000000,-3.9375000000,187.1250000000,image356.jpg,71228.3239360000
4,50.8636673333,-0.0945463333,57.4000000000,5.1250000000,-5.5625000000,196.3750000000,image357.jpg,71428.4126640000
4,50.8636680000,-0.0945488333,57.4000000000,6.3125000000,-4.2500000000,203.8125000000,image358.jpg,71628.4026470000
4,50.8636690000,-0.0945508333,57.4000000000,6.4375000000,-3.7500000000,212.0000000000,image359.jpg,71828.3594030000
4,50.8636700000,-0.0945528333,57.3000000000,7.9375000000,-1.6250000000,214.4375000000,image360.jpg,72028.4299540000
4,50.8636710000,-0.0945548333,57.4000000000,7.0000000000,-3.3750000000,214.3125000000,image361.jpg,72228.6785680000
4,50.8636723333,-0.0945568333,57.4000000000,5.9375000000,-4.3125000000,215.4375000000,image362.jpg,72428.8428640000
4,50.8636736667,-0.0945586667,57.4000000000,4.7500000000,-5.5625000000,216.3750000000,image363.jpg,72630.5422250000
4,50.8636748333,-0.0945601667,57.4000000000,2.8750000000,-7.3125000000,218.1875000000,image364.jpg,72829.8091260000
4,50.8636760000,-0.0945621667,57.4000000000,5.7500000000,-8.0000000000,222.1250000000,image365.jpg,73029.6585440000
4,50.8636775000,-0.0945640000,57.4000000000,5.3750000000,-6.1250000000,224.5625000000,image366.jpg,73229.2266250000
4,50.8636790000,-0.0945655000,57.4000000000,3.3125000000,-3.1250000000,223.5625000000,image367.jpg,73428.9643840000
4,50.8636803333,-0.0945670000,57.4000000000,1.6875000000,-4.9375000000,218.1875000000,image368.jpg,73629.8400960000
4,50.8636815000,-0.0945690000,57.4000000000,2.7500000000,-6.5000000000,211.5625000000,image369.jpg,73830.2782290000
4,50.8636823333,-0.0945711667,57.4000000000,4.6875000000,-4.9375000000,208.1875000000,image370.jpg,74030.2074870000
4,50.8636833333,-0.0945733333,57.4000000000,3.3750000000,-3.4375000000,208.8750000000,image371.jpg,74229.4563160000
4,50.8636843333,-0.0945753333,57.4000000000,3.7500000000,-4.0000000000,209.7500000000,image372.jpg,74429.2871930000
4,50.8636853333,-0.0945775000,57.4000000000,3.0625000000,-4.9375000000,210.2500000000,image373.jpg,74630.2674300000
4,50.8636865000,-0.0945795000,57.4000000000,4.5000000000,-5.3125000000,211.9375000000,image374.jpg,74830.6473900000
4,50.8636876667,-0.0945818333,57.4000000000,4.1250000000,-4.5625000000,215.3750000000,image375.jpg,75030.7357520000
4,50.8636888333,-0.0945836667,57.4000000000,5.0625000000,-4.3750000000,219.6875000000,image376.jpg,75230.2918540000
4,50.8636900000,-0.0945855000,57.5000000000,4.8125000000,-3.9375000000,223.7500000000,image377.jpg,75429.8243640000
4,50.8636915000,-0.0945868333,57.5000000000,5.3125000000,-4.8125000000,227.6250000000,image378.jpg,75630.6138830000
4,50.8636926667,-0.0945883333,57.5000000000,5.9375000000,-5.8750000000,233.0625000000,image379.jpg,75830.0631160000
4,50.8636943333,-0.0945893333,57.5000000000,7.6875000000,-2.2500000000,237.9375000000,image380.jpg,76030.0698160000
4,50.8636958333,-0.0945903333,57.5000000000,7.0000000000,-3.6250000000,242.1875000000,image381.jpg,76230.0728190000
4,50.8636973333,-0.0945910000,57.5000000000,7.2500000000,-5.0625000000,247.3750000000,image382.jpg,76430.0227520000
4,50.8636990000,-0.0945915000,57.5000000000,6.6250000000,-2.9375000000,252.5625000000,image383.jpg,76630.5236410000
4,50.8637006667,-0.0945918333,57.5000000000,6.0625000000,-3.3125000000,255.9375000000,image384.jpg,76830.5880460000
4,50.8637023333,-0.0945920000,57.5000000000,7.0625000000,-3.7500000000,259.8750000000,image385.jpg,77030.2608600000
4,50.8637040000,-0.0945918333,57.5000000000,4.4375000000,-3.2500000000,261.8125000000,image386.jpg,77230.4231240000
4,50.8637058333,-0.0945918333,57.5000000000,3.8125000000,-4.1875000000,261.9375000000,image387.jpg,77430.5892420000
4,50.8637076667,-0.0945916667,57.5000000000,4.3125000000,-2.8750000000,258.6875000000,image388.jpg,77630.9036320000
4,50.8637093333,-0.0945918333,57.5000000000,1.6250000000,-3.3750000000,255.6250000000,image389.jpg,77831.5764390000
4,50.8637110000,-0.0945921667,57.5000000000,4.6875000000,-3.3750000000,255.3750000000,image390.jpg,78031.7426090000
4,50.8637126667,-0.0945923333,57.5000000000,7.8125000000,-3.0625000000,261.5000000000,image391.jpg,78231.6497830000
4,50.8637143333,-0.0945925000,57.5000000000,8.5000000000,-3.6875000000,269.9375000000,image392.jpg,78430.6426890000
4,50.8637158333,-0.0945916667,57.5000000000,8.3125000000,-3.1250000000,278.1250000000,image393.jpg,78630.8042240000
4,50.8637175000,-0.0945908333,57.5000000000,9.3750000000,-3.0000000000,286.4375000000,image394.jpg,78831.9030460000
4,50.8637188333,-0.0945898333,57.5000000000,8.3750000000,-1.8750000000,292.7500000000,image395.jpg,79031.9119330000
4,50.8637201667,-0.0945881667,57.5000000000,8.1875000000,-2.8750000000,300.1875000000,image396.jpg,79231.9775880000
4,50.8637211667,-0.0945863333,57.5000000000,9.5000000000,-0.7500000000,308.8750000000,image397.jpg,79431.0314280000
4,50.8637223333,-0.0945845000,57.5000000000,8.0625000000,1.0625000000,316.5625000000,image398.jpg,79631.1314030000
4,50.8637230000,-0.0945820000,57.5000000000,9.6875000000,0.8125000000,323.9375000000,image399.jpg,79832.0719540000
4,50.8637235000,-0.0945796667,57.5000000000,6.0000000000,0.9375000000,330.5625000000,image400.jpg,80032.1953650000
4,50.8637240000,-0.0945771667,57.6000000000,6.6250000000,0.9375000000,336.4375000000,image401.jpg,80232.2631030000
4,50.8637241667,-0.0945748333,57.5000000000,4.6875000000,1.3125000000,339.1250000000,image402.jpg,80431.3812620000
4,50.8637245000,-0.0945721667,57.6000000000,5.1250000000,0.8125000000,334.5625000000,image403.jpg,80631.5949280000
4,50.8637251667,-0.0945698333,57.6000000000,8.1250000000,0.1250000000,335.1875000000,image404.jpg,80832.0204050000
4,50.8637255000,-0.0945671667,57.5000000000,7.0625000000,1.0625000000,343.4375000000,image405.jpg,81032.1081940000
4,50.8637256667,-0.0945646667,57.5000000000,5.7500000000,1.3750000000,350.2500000000,image406.jpg,81232.2036380000
4,50.8637253333,-0.0945620000,57.6000000000,6.0625000000,0.7500000000,357.8750000000,image407.jpg,81432.5193300000
4,50.8637251667,-0.0945595000,57.6000000000,4.2500000000,1.2500000000,5.0625000000,image408.jpg,81632.6353980000
4,50.8637246667,-0.0945570000,57.5000000000,5.6250000000,2.5000000000,13.2500000000,image409.jpg,81832.6337640000
4,50.8637238333,-0.0945548333,57.5000000000,3.7500000000,1.4375000000,20.7500000000,image410.jpg,82032.6358290000
4,50.8637228333,-0.0945523333,57.5000000000,4.8125000000,0.8750000000,29.7500000000,image411.jpg,82232.5731050000
4,50.8637216667,-0.0945506667,57.5000000000,2.1875000000,2.0000000000,37.2500000000,image412.jpg,82432.6879240000
4,50.8637201667,-0.0945490000,57.5000000000,3.6250000000,0.9375000000,45.0625000000,image413.jpg,82632.8937780000
4,50.8637188333,-0.0945475000,57.5000000000,3.1250000000,1.1250000000,50.1250000000,image414.jpg,82833.4822660000
4,50.8637173333,-0.0945461667,57.5000000000,3.7500000000,1.3125000000,51.7500000000,image415.jpg,83034.3252700000
4,50.8637158333,-0.0945448333,57.5000000000,1.6875000000,0.7500000000,50.6875000000,image416.jpg,83234.4487330000
4,50.8637141667,-0.0945435000,57.5000000000,2.1875000000,0.6250000000,51.0625000000,image417.jpg,83434.1262330000
4,50.8637126667,-0.0945420000,57.5000000000,0.9375000000,2.0000000000,51.8750000000,image418.jpg,83633.2196530000
4,50.8637110000,-0.0945405000,57.5000000000,-0.1250000000,2.2500000000,49.0625000000,image419.jpg,83833.3746770000
4,50.8637093333,-0.0945390000,57.5000000000,1.1875000000,1.0625000000,44.9375000000,image420.jpg,84034.4399070000
4,50.8637080000,-0.0945371667,57.5000000000,1.1875000000,0.5000000000,41.9375000000,image421.jpg,84234.3943700000
4,50.8637065000,-0.0945353333,57.5000000000,3.1250000000,1.3125000000,42.8750000000,image422.jpg,84434.5264260000
4,50.8637051667,-0.0945335000,57.5000000000,1.5625000000,0.3750000000,43.1250000000,image423.jpg,84633.5103730000
4,50.8637036667,-0.0945315000,57.5000000000,1.6875000000,1.6875000000,43.5000000000,image424.jpg,84833.6530540000
4,50.8637021667,-0.0945298333,57.5000000000,2.1250000000,1.0625000000,38.3125000000,image425.jpg,85034.2426870000
4,50.8637008333,-0.0945276667,57.5000000000,1.3750000000,1.6875000000,34.9375000000,image426.jpg,85234.5268700000
4,50.8636998333,-0.0945256667,57.5000000000,0.5625000000,1.0000000000,33.6875000000,image427.jpg,85434.5828890000
4,50.8636985000,-0.0945233333,57.5000000000,3.5625000000,0.4375000000,32.9375000000,image428.jpg,85633.8376530000
4,50.8636973333,-0.0945211667,57.5000000000,2.3125000000,1.3750000000,33.6250000000,image429.jpg,85833.7934700000
4,50.8636961667,-0.0945190000,57.5000000000,2.6875000000,0.8750000000,32.8750000000,image430.jpg,86034.5962670000
4,50.8636948333,-0.0945166667,57.5000000000,1.3750000000,0.3125000000,31.6875000000,image431.jpg,86234.1187240000
4,50.8636936667,-0.0945143333,57.5000000000,0.3750000000,0.5000000000,31.0625000000,image432.jpg,86434.0275120000
4,50.8636925000,-0.0945123333,57.5000000000,-0.4375000000,1.0000000000,28.0625000000,image433.jpg,86634.1568600000
4,50.8636913333,-0.0945100000,57.5000000000,-0.3125000000,0.3125000000,20.0625000000,image434.jpg,86834.2304290000
4,50.8636906667,-0.0945073333,57.5000000000,0.0000000000,-0.3750000000,13.6250000000,image435.jpg,87034.6391360000
4,50.8636901667,-0.0945046667,57.5000000000,0.6875000000,-0.8125000000,6.8750000000,image436.jpg,87234.3880890000
4,50.8636896667,-0.0945021667,57.5000000000,0.6875000000,0.6875000000,359.1875000000,image437.jpg,87434.5655070000
4,50.8636896667,-0.0944996667,57.4000000000,1.3750000000,1.4375000000,353.0000000000,image438.jpg,87634.5968390000
4,50.8636896667,-0.0944971667,57.4000000000,0.5000000000,0.6875000000,347.0000000000,image439.jpg,87834.6788460000
4,50.8636900000,-0.0944945000,57.4000000000,0.0000000000,0.7500000000,343.3750000000,image440.jpg,88035.2242630000
4,50.8636900000,-0.0944918333,57.4000000000,1.8125000000,0.7500000000,344.5625000000,image441.jpg,88235.8481120000
4,50.8636903333,-0.0944888333,57.4000000000,0.5000000000,0.1875000000,345.3125000000,image442.jpg,88436.0968800000
4,50.8636905000,-0.0944860000,57.4000000000,2.8750000000,0.8125000000,345.5000000000,image443.jpg,88635.7286010000
4,50.8636905000,-0.0944831667,57.4000000000,2.7500000000,-0.3125000000,345.9375000000,image444.jpg,88834.9157640000
4,50.8636908333,-0.0944803333,57.4000000000,5.3750000000,0.1875000000,346.3125000000,image445.jpg,89035.1720310000
4,50.8636910000,-0.0944773333,57.4000000000,3.5625000000,0.4375000000,347.0000000000,image446.jpg,89236.2547600000
4,50.8636910000,-0.0944745000,57.4000000000,5.3125000000,-0.5625000000,347.5000000000,image447.jpg,89436.0615740000
4,50.8636911667,-0.0944716667,57.4000000000,3.3125000000,-0.2500000000,347.6250000000,image448.jpg,89636.1987850000
4,50.8636913333,-0.0944686667,57.4000000000,3.5000000000,-1.3125000000,347.1875000000,image449.jpg,89835.2454370000
4,50.8636913333,-0.0944656667,57.4000000000,4.1875000000,-1.0625000000,348.6875000000,image450.jpg,90035.2901530000
4,50.8636915000,-0.0944630000,57.4000000000,2.6250000000,-0.0625000000,348.4375000000,image451.jpg,90236.3363740000
4,50.8636915000,-0.0944601667,57.4000000000,3.9375000000,0.2500000000,349.9375000000,image452.jpg,90436.4612940000
4,50.8636915000,-0.0944570000,57.4000000000,6.0000000000,-0.5000000000,353.6875000000,image453.jpg,90636.6807920000
4,50.8636915000,-0.0944545000,57.4000000000,2.8750000000,-0.3125000000,358.4375000000,image454.jpg,90835.5513600000
4,50.8636910000,-0.0944515000,57.4000000000,4.8125000000,-0.1250000000,0.7500000000,image455.jpg,91035.6439390000
4,50.8636908333,-0.0944486667,57.4000000000,2.5000000000,1.4375000000,0.1250000000,image456.jpg,91236.2245090000
4,50.8636905000,-0.0944460000,57.4000000000,4.3125000000,0.0000000000,1.4375000000,image457.jpg,91435.8473240000
4,50.8636901667,-0.0944428333,57.4000000000,3.0625000000,-0.5625000000,1.6875000000,image458.jpg,91635.8450120000
4,50.8636898333,-0.0944398333,57.4000000000,4.5000000000,-0.7500000000,4.1250000000,image459.jpg,91835.9302990000
4,50.8636895000,-0.0944370000,57.4000000000,3.8750000000,-0.9375000000,7.1250000000,image460.jpg,92036.0823530000
4,50.8636888333,-0.0944340000,57.4000000000,3.2500000000,0.0000000000,8.8750000000,image461.jpg,92236.3148710000
4,50.8636881667,-0.0944315000,57.4000000000,2.5000000000,-0.7500000000,9.3750000000,image462.jpg,92436.9319490000
4,50.8636876667,-0.0944286667,57.4000000000,3.5625000000,-0.1250000000,10.1875000000,image463.jpg,92636.3452970000
4,50.8636870000,-0.0944260000,57.4000000000,2.5000000000,-0.1250000000,11.6875000000,image464.jpg,92836.3216320000
4,50.8636865000,-0.0944233333,57.4000000000,2.9375000000,-0.5625000000,13.5000000000,image465.jpg,93036.6046680000
4,50.8636856667,-0.0944208333,57.4000000000,0.3125000000,-0.6875000000,15.0625000000,image466.jpg,93237.1289390000
4,50.8636848333,-0.0944183333,57.4000000000,1.8125000000,0.7500000000,14.4375000000,image467.jpg,93437.5705070000
4,50.8636841667,-0.0944158333,57.4000000000,0.5625000000,0.5000000000,13.0625000000,image468.jpg,93637.5713200000
4,50.8636835000,-0.0944131667,57.4000000000,0.1250000000,1.5000000000,11.4375000000,image469.jpg,93837.7376960000
4,50.8636828333,-0.0944106667,57.4000000000,-1.1875000000,2.1875000000,4.6250000000,image470.jpg,94036.6961750000
4,50.8636826667,-0.0944080000,57.4000000000,0.8125000000,1.4375000000,0.1250000000,image471.jpg,94236.9955630000
4,50.8636823333,-0.0944056667,57.4000000000,2.6875000000,0.1250000000,359.2500000000,image472.jpg,94437.8322640000
4,50.8636821667,-0.0944026667,57.4000000000,0.9375000000,0.0000000000,356.2500000000,image473.jpg,94638.1275900000
4,50.8636820000,-0.0944001667,57.4000000000,1.3750000000,0.7500000000,350.1875000000,image474.jpg,94838.0412210000
4,50.8636820000,-0.0943973333,57.4000000000,1.6875000000,1.7500000000,344.9375000000,image475.jpg,95037.1620330000
4,50.8636823333,-0.0943946667,57.3000000000,2.3750000000,2.1875000000,345.6250000000,image476.jpg,95237.2909630000
4,50.8636825000,-0.0943918333,57.4000000000,2.0625000000,3.3750000000,346.0000000000,image477.jpg,95438.2439070000
4,50.8636825000,-0.0943891667,57.4000000000,4.3750000000,3.3750000000,347.1250000000,image478.jpg,95638.2319080000
4,50.8636826667,-0.0943863333,57.4000000000,4.3125000000,1.8125000000,347.6875000000,image479.jpg,95838.2644890000
4,50.8636828333,-0.0943836667,57.4000000000,4.2500000000,2.5625000000,347.8125000000,image480.jpg,96037.3245240000
4,50.8636828333,-0.0943808333,57.4000000000,4.9375000000,1.2500000000,348.6875000000,image481.jpg,96237.5574580000
4,50.8636830000,-0.0943778333,57.4000000000,4.5000000000,1.9375000000,349.5625000000,image482.jpg,96438.1308930000
4,50.8636830000,-0.0943750000,57.4000000000,5.6875000000,0.8750000000,352.9375000000,image483.jpg,96637.8183910000
4,50.8636828333,-0.0943720000,57.4000000000,3.7500000000,1.4375000000,356.3125000000,image484.jpg,96837.7231670000
4,50.8636825000,-0.0943693333,57.4000000000,4.8125000000,1.6250000000,358.6875000000,image485.jpg,97037.9613090000
4,50.8636823333,-0.0943665000,57.4000000000,4.8125000000,1.6875000000,359.7500000000,image486.jpg,97238.1566930000
4,50.8636820000,-0.0943636667,57.4000000000,5.5000000000,1.0625000000,3.2500000000,image487.jpg,97438.2957780000
4,50.8636815000,-0.0943610000,57.4000000000,5.0000000000,0.9375000000,8.7500000000,image488.jpg,97638.2571650000
4,50.8636810000,-0.0943581667,57.4000000000,5.0000000000,1.1875000000,14.6875000000,image489.jpg,97838.1988670000
4,50.8636801667,-0.0943556667,57.4000000000,3.0625000000,0.5625000000,20.1875000000,image490.jpg,98038.3263900000
4,50.8636791667,-0.0943533333,57.4000000000,4.5000000000,0.4375000000,24.6250000000,image491.jpg,98238.3232440000
4,50.8636781667,-0.0943510000,57.4000000000,2.6875000000,0.8125000000,28.6250000000,image492.jpg,98438.7910080000
4,50.8636770000,-0.0943488333,57.4000000000,2.9375000000,0.1250000000,33.4375000000,image493.jpg,98639.3706920000
4,50.8636756667,-0.0943466667,57.4000000000,2.8750000000,0.5000000000,38.0000000000,image494.jpg,98839.6123750000
4,50.8636743333,-0.0943450000,57.4000000000,0.7500000000,-0.4375000000,40.3125000000,image495.jpg,99039.2397200000
4,50.8636730000,-0.0943430000,57.4000000000,2.6250000000,-1.2500000000,41.6875000000,image496.jpg,99238.6600970000
4,50.8636715000,-0.0943410000,57.4000000000,1.6875000000,-0.3125000000,42.3125000000,image497.jpg,99438.8805840000
4,50.8636701667,-0.0943391667,57.4000000000,3.2500000000,-1.2500000000,42.7500000000,image498.jpg,99639.7297310000
4,50.8636688333,-0.0943373333,57.4000000000,0.8750000000,-1.3750000000,43.1250000000,image499.jpg,99839.8141840000
4,50.8636671667,-0.0943356667,57.4000000000,2.1250000000,-1.1875000000,42.8750000000,image500.jpg,100039.8644200000
4,50.8636658333,-0.0943340000,57.3000000000,2.3750000000,-0.0625000000,42.5000000000,image501.jpg,100239.0499150000
4,50.8636646667,-0.0943323333,57.3000000000,2.6250000000,-0.8750000000,39.0625000000,image502.jpg,100439.0587480000
4,50.8636633333,-0.0943303333,57.3000000000,2.2500000000,-0.8750000000,34.0000000000,image503.jpg,100640.8962220000
4,50.8636621667,-0.0943285000,57.3000000000,2.3125000000,-0.1875000000,29.0000000000,image504.jpg,100840.1606710000
4,50.8636611667,-0.0943261667,57.3000000000,1.6875000000,-0.1875000000,24.1875000000,image505.jpg,101040.2209060000
4,50.8636601667,-0.0943241667,57.3000000000,0.7500000000,0.5625000000,21.1250000000,image506.jpg,101239.4418680000
4,50.8636591667,-0.0943218333,57.3000000000,2.1875000000,0.2500000000,20.1875000000,image507.jpg,101439.4842400000
4,50.8636585000,-0.0943195000,57.3000000000,2.3125000000,1.1875000000,20.7500000000,image508.jpg,101639.9947090000
4,50.8636576667,-0.0943170000,57.3000000000,3.1875000000,0.4375000000,20.5000000000,image509.jpg,101839.6477290000
4,50.8636566667,-0.0943145000,57.3000000000,4.1250000000,-0.3750000000,21.6875000000,image510.jpg,102039.6796840000
4,50.8636558333,-0.0943121667,57.3000000000,3.0000000000,-0.3125000000,24.0000000000,image511.jpg,102239.7640330000
4,50.8636550000,-0.0943098333,57.3000000000,2.3750000000,1.6250000000,23.9375000000,image512.jpg,102439.9866020000
4,50.8636540000,-0.0943076667,57.3000000000,3.3125000000,-0.5000000000,24.5000000000,image513.jpg,102640.1709970000
4,50.8636531667,-0.0943051667,57.3000000000,-0.0625000000,0.8750000000,25.9375000000,image514.jpg,102839.9719240000
4,50.8636516667,-0.0943018333,57.3000000000,2.9375000000,-0.1250000000,26.2500000000,image515.jpg,103040.3262570000
4,50.8636510000,-0.0943005000,57.3000000000,-0.5000000000,1.1250000000,25.8125000000,image516.jpg,103240.1743690000
4,50.8636500000,-0.0942983333,57.3000000000,2.5000000000,1.2500000000,26.0625000000,image517.jpg,103440.1659620000
4,50.8636490000,-0.0942961667,57.3000000000,1.3750000000,0.5000000000,26.6875000000,image518.jpg,103640.8011630000
4,50.8636478333,-0.0942936667,57.3000000000,2.1875000000,-1.1250000000,27.0625000000,image519.jpg,103841.5174010000
