gps quality,lat,lon,altitude,roll,pitch,yaw,image name,timestamp
4,50.8634135,-0.093952833,56.6,0.1875,-1.125,349.125,image0.jpg,3.634212
4,50.86341383,-0.093952,56.6,0.1875,-1.125,349.125,image1.jpg,202.72541
4,50.863414,-0.093952,56.6,0.1875,-1.125,349.125,image2.jpg,401.691615
4,50.86341383,-0.093952,56.6,0.1875,-1.125,349.125,image3.jpg,601.894101
4,50.863414,-0.093952,56.6,0.1875,-1.125,349.125,image4.jpg,802.584944
4,50.86341383,-0.093952,56.6,0.1875,-1.125,349.125,image5.jpg,1002.870133
4,50.86341383,-0.093952,56.6,0.1875,-1.125,349.125,image6.jpg,1203.165165
5,50.86341383,-0.093952,56.6,0.1875,-1.125,349.125,image7.jpg,1402.185846
5,50.86341383,-0.093952,56.6,0.1875,-1.125,349.125,image8.jpg,1602.222716
5,50.86341383,-0.093952,56.6,0.1875,-1.125,349.125,image9.jpg,1802.731902
5,50.86341383,-0.093952,56.6,-0.75,-1.9375,349.1875,image10.jpg,2003.479929
5,50.86341383,-0.093951667,56.6,-3.5,-3.9375,349.0625,image11.jpg,2203.418784
5,50.8634135,-0.093950833,56.6,-0.25,-2.3125,348.25,image12.jpg,2403.471955
5,50.8634135,-0.093950833,56.6,0.3125,-2.375,348.4375,image13.jpg,2602.611587
5,50.86341367,-0.0939515,56.6,1.0625,-1.4375,348.9375,image14.jpg,2802.830165
5,50.86341417,-0.093952833,56.6,3.25,-2.125,349.125,image15.jpg,3002.758291
5,50.86341483,-0.093954333,56.6,2.3125,-1.5625,349.4375,image16.jpg,3202.865938
4,50.8634155,-0.093956167,56.6,3.1875,-1.9375,350,image17.jpg,3402.98421
4,50.86341633,-0.093957667,56.6,3.5,-0.9375,353.3125,image18.jpg,3603.053161
4,50.86341683,-0.093958833,56.6,4.5,-0.9375,356.875,image19.jpg,3803.044045
4,50.86341783,-0.093960167,56.6,4.625,-0.8125,357.125,image20.jpg,4003.137994
4,50.8634185,-0.0939615,56.6,5.375,-2.3125,357.625,image21.jpg,4203.218091
4,50.86341933,-0.093962667,56.6,4.0625,-2.75,0.125,image22.jpg,4403.339539
4,50.86342017,-0.093964,56.7,5.5625,-2.4375,1.5625,image23.jpg,4603.416146
4,50.863421,-0.093965,56.6,3.9375,-3.875,1.6875,image24.jpg,4803.456505
4,50.86342183,-0.093965833,56.6,1.0625,-2,2.5,image25.jpg,5004.06183
4,50.8634225,-0.093967167,56.6,3.4375,-1.9375,2.75,image26.jpg,5204.571276
4,50.86342333,-0.093968,56.6,2.8125,-1.3125,3.75,image27.jpg,5404.621583
4,50.86342417,-0.093969,56.7,2.0625,-1.25,4.875,image28.jpg,5604.489452
4,50.86342517,-0.093970167,56.6,0.5,-1.9375,4.375,image29.jpg,5803.790219
4,50.86342583,-0.093971167,56.7,0.875,-2.6875,3.25,image30.jpg,6003.954008
4,50.863427,-0.0939725,56.7,-1.3125,-3.8125,2.8125,image31.jpg,6204.839316
4,50.863428,-0.093973833,56.6,-0.8125,-4.8125,2.8125,image32.jpg,6405.001438
4,50.863429,-0.093975,56.6,-2.0625,-3.125,2.9375,image33.jpg,6605.004351
4,50.86342983,-0.093976333,56.6,-1.3125,-1.75,1.8125,image34.jpg,6803.984408
4,50.86343083,-0.0939775,56.6,-1.0625,-0.6875,1.375,image35.jpg,7004.047108
4,50.8634315,-0.0939785,56.6,0.9375,0.1875,3.5625,image36.jpg,7204.91523
4,50.8634325,-0.093979667,56.7,-1.625,-0.75,6.4375,image37.jpg,7405.166722
4,50.86343367,-0.093981,56.7,-0.625,-1.6875,7,image38.jpg,7605.223173
4,50.86343467,-0.093982167,56.7,-2.25,-1.375,7.1875,image39.jpg,7804.338846
4,50.863436,-0.093983333,56.7,-1.5625,-0.3125,7.5,image40.jpg,8004.41415
4,50.86343717,-0.093984667,56.7,-2,-1.25,8.5625,image41.jpg,8204.881306
4,50.86343817,-0.093986167,56.7,-0.8125,-1.125,9.4375,image42.jpg,8404.551061
4,50.8634395,-0.093987,56.7,-2.5,-1.75,10.4375,image43.jpg,8604.639384
4,50.8634405,-0.093989,56.7,1.4375,-0.75,7.375,image44.jpg,8804.714688
4,50.86344183,-0.093989833,56.7,-2,-3.8125,6,image45.jpg,9004.837229
4,50.86344267,-0.0939915,56.7,1.5625,-4.4375,4.375,image46.jpg,9205.136894
4,50.863444,-0.0939925,56.7,-0.375,-0.1875,5,image47.jpg,9404.983565
4,50.86344483,-0.093994333,56.7,4,-2.5625,4.5,image48.jpg,9605.048505
4,50.863446,-0.093996,56.7,4,-3.4375,2.6875,image49.jpg,9805.117663
4,50.863447,-0.093997167,56.7,5.625,-1.0625,2.1875,image50.jpg,10005.19635
4,50.86344767,-0.093998833,56.7,10.5,0.0625,1.625,image51.jpg,10205.24624
4,50.86344867,-0.094,56.7,5.9375,-2.3125,3.6875,image52.jpg,10406.39851
4,50.86344967,-0.094001667,56.7,10.1875,-2.6875,6.625,image53.jpg,10606.35471
4,50.86345067,-0.094002667,56.7,6,-0.25,8.875,image54.jpg,10806.43527
4,50.86345183,-0.094003667,56.7,6.8125,-0.5625,9.9375,image55.jpg,11005.4659
4,50.86345283,-0.0940045,56.7,6.8125,-1.625,9.375,image56.jpg,11205.55844
4,50.86345383,-0.094006,56.7,7.5625,-0.25,5.75,image57.jpg,11406.2848
4,50.86345483,-0.094007,56.7,3.0625,-2.75,2.0625,image58.jpg,11606.822
4,50.86345533,-0.094008333,56.7,7.125,-2.0625,358.5,image59.jpg,11806.74872
4,50.863456,-0.094009667,56.7,6.125,-4,356.875,image60.jpg,12006.18583
4,50.863457,-0.094010833,56.7,6.625,-2.125,357,image61.jpg,12205.96089
4,50.8634575,-0.0940125,56.7,9.0625,-2.625,357.1875,image62.jpg,12406.3342
4,50.8634585,-0.094013667,56.7,7.1875,-2.625,357.1875,image63.jpg,12607.0141
4,50.86345933,-0.0940155,56.7,7.375,-3.375,358,image64.jpg,12807.12143
4,50.86346033,-0.094017167,56.7,6.9375,-2.1875,358.3125,image65.jpg,13007.06153
4,50.86346133,-0.0940185,56.7,4.5625,-0.5,358.5,image66.jpg,13206.2247
4,50.86346233,-0.094019833,56.7,4.0625,-2.25,1.75,image67.jpg,13406.55228
4,50.86346333,-0.094020833,56.7,6,-0.1875,4.6875,image68.jpg,13606.5692
4,50.863464,-0.094022,56.7,6.5625,0.375,5.6875,image69.jpg,13806.44415
4,50.863465,-0.094023333,56.7,10.625,1.6875,6.0625,image70.jpg,14006.50664
4,50.863466,-0.094024833,56.7,11.5625,0,4.1875,image71.jpg,14206.66428
4,50.86346717,-0.094026667,56.7,5.5,-2.8125,0.625,image72.jpg,14406.69542
4,50.86346817,-0.0940285,56.8,5.375,-0.5625,354.875,image73.jpg,14606.76572
4,50.86346917,-0.094030333,56.7,2.8125,1.8125,352.375,image74.jpg,14806.86144
4,50.86347017,-0.094032333,56.8,6.125,-1.5625,353.4375,image75.jpg,15006.85737
4,50.86347133,-0.0940345,56.8,4.625,-2.25,355,image76.jpg,15207.01262
4,50.8634725,-0.094036833,56.8,6.9375,-1.8125,0.125,image77.jpg,15407.06308
4,50.863474,-0.0940385,56.8,2.75,-1,1.5625,image78.jpg,15607.95036
4,50.86347533,-0.094040667,56.8,3.125,-0.6875,357.4375,image79.jpg,15808.15477
4,50.86347667,-0.094042333,56.8,-2.3125,-1.75,351.0625,image80.jpg,16008.22669
4,50.86347733,-0.094044667,56.8,4.3125,-3.375,347.5,image81.jpg,16207.77655
4,50.86347817,-0.094047167,56.8,6.125,-1.5625,347.125,image82.jpg,16407.39397
4,50.86347917,-0.0940495,56.8,8.1875,-1.625,348.875,image83.jpg,16607.77899
4,50.86347983,-0.094052,56.8,7.625,-2.75,349.8125,image84.jpg,16808.4943
4,50.863481,-0.094053833,56.8,7.6875,0.75,352,image85.jpg,17008.55815
4,50.86348217,-0.094056167,56.8,8.1875,-3.375,354.5,image86.jpg,17208.52611
4,50.86348317,-0.094058333,56.8,9.0625,-2.8125,355.0625,image87.jpg,17407.76073
4,50.86348467,-0.0940605,56.8,11.1875,-5.5,355.6875,image88.jpg,17607.99056
4,50.86348567,-0.094063,56.8,10.0625,-2.3125,356.875,image89.jpg,17808.88456
4,50.863487,-0.094065,56.8,11.5,-3.5,359.8125,image90.jpg,18008.90382
4,50.86348817,-0.094067167,56.8,10.625,-1.0625,0.125,image91.jpg,18209.135
4,50.8634895,-0.094069167,56.8,7.75,-2.625,0.3125,image92.jpg,18408.09688
4,50.86349083,-0.094070833,56.8,6.75,-3.25,2.5625,image93.jpg,18608.16906
4,50.86349233,-0.094072667,56.8,5.375,-2.75,3.375,image94.jpg,18808.1529
4,50.86349367,-0.094074667,56.8,4.25,-2.6875,3.75,image95.jpg,19008.25357
4,50.863495,-0.094076333,56.8,7.625,-3.875,4.5625,image96.jpg,19208.36975
4,50.86349633,-0.094078333,56.8,6.125,-2.5625,5.375,image97.jpg,19408.33199
4,50.863498,-0.094080333,56.8,7.125,-2.125,6.6875,image98.jpg,19608.47416
4,50.8634995,-0.094082,56.8,5.125,-1.75,7.1875,image99.jpg,19808.58284
4,50.86350083,-0.0940835,56.8,6.6875,-3.1875,7.875,image100.jpg,20008.59216
4,50.8635025,-0.0940855,56.8,4.3125,-3.6875,7.625,image101.jpg,20208.73766
4,50.863504,-0.094086833,56.8,2.625,-0.8125,6.4375,image102.jpg,20408.80448
4,50.86350533,-0.0940885,56.8,4.25,-1.25,5.375,image103.jpg,20608.90202
4,50.8635065,-0.094090333,56.8,3.125,-1.875,5.25,image104.jpg,20855.55826
4,50.86350783,-0.094091667,56.9,10.6875,-1.1875,6.1875,image105.jpg,21011.04312
4,50.86350917,-0.094093833,56.8,7.5625,-2.5625,5.75,image106.jpg,21210.8713
4,50.86351067,-0.094095667,56.9,6.4375,-3.8125,3.125,image107.jpg,21411.0228
4,50.86351183,-0.0940975,56.9,3.875,-2.9375,356.0625,image108.jpg,21610.06795
4,50.863513,-0.094099333,56.9,-0.9375,-1.6875,351.4375,image109.jpg,21810.14086
4,50.86351383,-0.0941015,56.9,0.0625,-2.25,344.6875,image110.jpg,22011.09465
4,50.86351483,-0.094103667,56.9,-0.25,2.375,341.8125,image111.jpg,22211.26114
4,50.8635155,-0.094105667,56.9,2.1875,-0.5,342.1875,image112.jpg,22411.27415
4,50.86351617,-0.094108167,56.9,6.375,-4.125,341.1875,image113.jpg,22610.41555
4,50.86351683,-0.094110667,56.9,4.1875,-3.875,339.75,image114.jpg,22810.41835
4,50.8635175,-0.094113,56.9,3.9375,-3.3125,340.3125,image115.jpg,23011.22002
4,50.86351833,-0.0941155,56.9,5.125,-1.875,340.6875,image116.jpg,23211.49729
4,50.863519,-0.094117833,56.9,3.375,0.75,341.1875,image117.jpg,23411.57035
4,50.86351967,-0.094120167,56.9,4,-1.9375,342.625,image118.jpg,23610.69628
4,50.86352067,-0.094122833,56.9,5.125,-3.3125,342.8125,image119.jpg,23810.76913
4,50.86352133,-0.094124833,56.9,2.8125,-1.1875,338.9375,image120.jpg,24011.32888
4,50.86352183,-0.094127333,56.9,6.875,-2.375,337.5625,image121.jpg,24210.91186
4,50.86352267,-0.09413,56.9,5.6875,-5.5,337.5,image122.jpg,24410.96982
4,50.86352333,-0.0941325,56.9,9.125,-2.3125,339.375,image123.jpg,24610.94893
4,50.863524,-0.094134833,56.9,5.6875,-2.8125,342.625,image124.jpg,24811.12198
4,50.863525,-0.094137333,56.9,4.875,-4.125,342.875,image125.jpg,25011.43237
4,50.863526,-0.094139833,56.9,3.75,-4.6875,341.4375,image126.jpg,25211.2554
4,50.86352683,-0.094142167,57,1.625,-4.1875,336.4375,image127.jpg,25411.32189
4,50.86352717,-0.0941445,57,0,-1,328.875,image128.jpg,25611.40063
4,50.86352767,-0.094146833,56.9,4.125,-1.75,324.375,image129.jpg,25811.46281
4,50.86352733,-0.094148667,56.9,5.1875,-2.875,318.125,image130.jpg,26011.97777
4,50.86352733,-0.094150833,56.9,2.75,-2.4375,312.75,image131.jpg,26212.66496
4,50.86352717,-0.094152667,56.9,6.1875,-3,310.375,image132.jpg,26412.63485
4,50.863527,-0.094154667,56.9,1.0625,-5,309.75,image133.jpg,26612.56385
4,50.863527,-0.094157,56.9,4,-4.125,313.5625,image134.jpg,26811.82691
4,50.86352667,-0.094158833,56.9,3.75,-1.75,319.5,image135.jpg,27012.02673
4,50.86352717,-0.0941605,56.9,-1.5625,-0.875,322.4375,image136.jpg,27212.94912
4,50.86352733,-0.094162,56.9,1.0625,3.625,324.1875,image137.jpg,27412.98056
4,50.8635275,-0.094163333,57,1.25,-1.125,322.6875,image138.jpg,27612.96504
4,50.86352767,-0.094165833,56.9,-1.4375,-3.0625,319.75,image139.jpg,27812.15544
4,50.86352783,-0.094167,57,-1.375,-2.25,320.75,image140.jpg,28012.21553
4,50.86352767,-0.094168167,57,4.6875,1.375,319.5,image141.jpg,28213.24635
4,50.86352767,-0.094169667,57,4.5625,2.3125,318.5,image142.jpg,28413.28233
4,50.86352783,-0.0941715,57,2.4375,0.3125,317,image143.jpg,28613.40653
4,50.86352783,-0.094173167,57,5.1875,-1.625,313.3125,image144.jpg,28812.53089
4,50.8635275,-0.094174667,57,9.5625,-0.375,311.375,image145.jpg,29012.59677
4,50.86352733,-0.094176333,57,7.9375,-0.6875,312,image146.jpg,29212.96923
4,50.86352733,-0.094177667,57,5.75,-2.1875,314.875,image147.jpg,29412.80189
4,50.86352717,-0.094179333,57,11.6875,-1.75,320.75,image148.jpg,29612.82636
4,50.86352733,-0.094181333,57,7.375,-2.375,321.625,image149.jpg,29812.93447
4,50.8635275,-0.094183,57,6.375,-2.875,322.125,image150.jpg,30012.97128
4,50.8635275,-0.094184833,57,5.5625,-3.4375,323.3125,image151.jpg,30213.28573
4,50.86352767,-0.094187,57,4.75,-2.5,321.375,image152.jpg,30413.10834
4,50.86352783,-0.094189167,57,7.625,-3.5625,317.0625,image153.jpg,30613.16317
4,50.86352767,-0.094190833,57,3.875,0,312.4375,image154.jpg,30813.1981
4,50.86352767,-0.094192667,57,5.125,-1.0625,307.1875,image155.jpg,31013.28361
4,50.86352717,-0.094194667,57,8.0625,-0.4375,302.75,image156.jpg,31214.06189
4,50.86352683,-0.094196333,57,5,1.5,301.0625,image157.jpg,31414.3604
4,50.86352667,-0.094198,57,5.625,-0.625,302.0625,image158.jpg,31614.4494
4,50.8635265,-0.094200333,57,-1.375,0.25,300.25,image159.jpg,31813.79651
4,50.86352667,-0.094201833,57,-6.875,-3.5625,298.9375,image160.jpg,32013.61307
4,50.86352633,-0.094204,57,-3.625,-3.75,294.8125,image161.jpg,32214.00273
4,50.86352567,-0.094205333,57,-2.9375,-4.625,287.6875,image162.jpg,32414.71695
4,50.86352533,-0.094207333,57,-3.6875,-4.3125,285.6875,image163.jpg,32614.77922
4,50.86352467,-0.094208667,57,1.875,-4.75,284.5625,image164.jpg,32814.68578
4,50.863524,-0.094209833,56.9,3.0625,-3.875,282.5625,image165.jpg,33013.98113
4,50.86352333,-0.094211833,56.9,4.125,-5.375,282.375,image166.jpg,33214.34719
4,50.86352283,-0.094213333,56.9,3.1875,-0.375,283.9375,image167.jpg,33415.06781
4,50.86352217,-0.094215,57,4.5,-3.9375,289.75,image168.jpg,33615.12665
4,50.86352167,-0.094217,56.9,6.125,-3.0625,294.6875,image169.jpg,33815.0229
4,50.86352133,-0.094218667,56.9,4.5625,-1.4375,297.5625,image170.jpg,34014.32293
4,50.86352083,-0.094220833,56.9,4.9375,-2.25,298.125,image171.jpg,34214.63837
4,50.86352017,-0.094222833,56.9,9.5,-4.0625,297.375,image172.jpg,34414.46238
4,50.86351967,-0.094225,56.9,4,-4.3125,300.125,image173.jpg,34614.52435
4,50.86351933,-0.094227167,57,10.75,-2.3125,306.875,image174.jpg,34814.61626
4,50.863519,-0.094229167,56.9,7.5625,-0.0625,311,image175.jpg,35014.66286
4,50.86351917,-0.094231667,56.9,3.3125,0.25,313.8125,image176.jpg,35214.7505
4,50.86351917,-0.094233833,56.9,5.9375,-3.6875,314.8125,image177.jpg,35414.81476
4,50.86351883,-0.094236167,56.9,4.4375,-1.3125,313.9375,image178.jpg,35614.88787
4,50.863519,-0.094238167,56.9,1.875,-1.125,309.9375,image179.jpg,35814.96728
4,50.86351867,-0.0942405,56.9,3.125,-3.0625,305.3125,image180.jpg,36015.03039
4,50.86351833,-0.094242833,56.9,6.1875,-2.75,304.875,image181.jpg,36215.14657
4,50.863518,-0.094244833,57,3.1875,-2.25,305,image182.jpg,36416.35425
4,50.86351783,-0.094247667,56.9,3.5625,-3.375,305.8125,image183.jpg,36616.15857
4,50.8635175,-0.094250167,57,6.0625,-1.8125,305.3125,image184.jpg,36816.20361
4,50.86351717,-0.094252333,56.9,0.1875,-4.3125,306.0625,image185.jpg,37015.3161
4,50.863517,-0.094255167,56.9,5.25,-3.0625,309.0625,image186.jpg,37215.30598
4,50.863517,-0.0942575,57,0,-2.9375,310.75,image187.jpg,37416.3332
4,50.86351667,-0.094260167,57,6.625,-3.25,313.75,image188.jpg,37616.47183
4,50.86351683,-0.094262667,57,4.875,-0.8125,318.875,image189.jpg,37816.53728
4,50.86351667,-0.094265333,57,8.3125,-0.375,319.9375,image190.jpg,38015.69342
4,50.863517,-0.094267833,57,8.25,-0.0625,319,image191.jpg,38215.73897
4,50.86351683,-0.0942705,57,7.375,-1,320.125,image192.jpg,38416.546
4,50.863517,-0.094273,57,13.9375,-0.1875,323.4375,image193.jpg,38616.84519
4,50.863517,-0.094275,57,9.9375,1.0625,327.5625,image194.jpg,38816.95382
4,50.8635175,-0.094277667,57,9.3125,-0.1875,332.875,image195.jpg,39015.97605
4,50.86351783,-0.094279833,57,9.875,-2.1875,335.875,image196.jpg,39216.02083
4,50.86351833,-0.094281667,57.1,8.375,-0.5,340.125,image197.jpg,39416.52297
4,50.86351917,-0.094283833,57.1,9.25,-1.1875,342.5,image198.jpg,39616.16965
4,50.86351967,-0.094285833,57.1,7,-0.5,344.5625,image199.jpg,39816.27302
4,50.86352033,-0.094287833,57.1,6.5,-0.875,346.3125,image200.jpg,40016.30035
4,50.863521,-0.094289333,57.1,3.25,-2.6875,345.4375,image201.jpg,40216.38486
4,50.86352167,-0.094291167,57.1,6.0625,-4.375,342.9375,image202.jpg,40416.68879
4,50.86352217,-0.094293167,57.1,4.3125,-2.3125,339.375,image203.jpg,40616.52171
4,50.86352267,-0.094295333,57.1,5.3125,-3.25,339.8125,image204.jpg,40816.59138
4,50.8635235,-0.094297333,57.1,8.9375,-4.75,340.25,image205.jpg,41016.63366
4,50.86352383,-0.094299667,57.1,7.375,-4.0625,344.6875,image206.jpg,41216.80384
4,50.86352483,-0.094301833,57.1,10.3125,-4.75,353.25,image207.jpg,41417.2399
4,50.86352567,-0.094303667,57.1,6.4375,-2.8125,357.75,image208.jpg,41617.80829
4,50.863527,-0.094305667,57.1,8.1875,-4.6875,215.75,image209.jpg,41817.88026
4,50.86352817,-0.094307667,57.1,5.375,-5.9375,216.1875,image210.jpg,42017.82181
4,50.86352967,-0.09431,57.1,2.625,-5.375,213.625,image211.jpg,42217.09741
4,50.863531,-0.094311833,57.1,1.3125,-3.8125,206,image212.jpg,42417.31307
4,50.863532,-0.094314333,57.1,-1.6875,-5.5,198.125,image213.jpg,42618.13936
4,50.863533,-0.094316,57.1,2.5625,-2.75,193.1875,image214.jpg,42818.21705
4,50.86353283,-0.094318333,57.1,3.375,-0.625,193.375,image215.jpg,43018.30521
4,50.86353333,-0.094319833,57.1,2.3125,-1.5,193.4375,image216.jpg,43217.39942
4,50.86353383,-0.094322167,57.1,1.9375,-0.625,194.3125,image217.jpg,43417.46992
4,50.86353433,-0.094323333,57.1,3.8125,2.5625,195.875,image218.jpg,43618.58016
4,50.863535,-0.094325167,57.1,-1.4375,-0.5,196.3125,image219.jpg,43818.58171
4,50.86353567,-0.094327,57.1,-2.4375,-2.3125,194.875,image220.jpg,44018.6332
4,50.863536,-0.0943285,57.2,-2.9375,-3.3125,195.4375,image221.jpg,44217.76178
4,50.86353667,-0.094330167,57.1,4.1875,-2.4375,198.875,image222.jpg,44417.8126
4,50.863537,-0.094331333,57.1,4.8125,-3.125,201.125,image223.jpg,44618.53812
4,50.86353767,-0.0943325,57.1,5.375,-1.25,204.6875,image224.jpg,44818.02512
4,50.86353817,-0.094333667,57.1,6.5,-3.375,207.25,image225.jpg,45018.03208
4,50.86353867,-0.094335333,57.1,7,-4.8125,207.4375,image226.jpg,45218.1429
4,50.8635395,-0.094336833,57.1,9,-5.4375,207.4375,image227.jpg,45418.19793
4,50.86353983,-0.094338167,57.1,7.8125,-2.5625,204.25,image228.jpg,45618.48863
4,50.8635405,-0.094339667,57.1,6.25,-3.375,201.0625,image229.jpg,45818.31733
4,50.86354117,-0.0943415,57.1,9.3125,-3.625,202.25,image230.jpg,46018.36413
4,50.86354167,-0.094343167,57.1,7.875,-4.0625,201.4375,image231.jpg,46218.44761
4,50.86354267,-0.094345167,57.1,6.375,-3.1875,203.8125,image232.jpg,46418.45014
4,50.86354333,-0.094347,57.1,10.5625,-2.625,207.4375,image233.jpg,46619.25175
4,50.86354433,-0.094348667,57.1,9.5625,-2.125,212.5625,image234.jpg,46819.60724
4,50.86354517,-0.094350333,57.1,12.75,-1.6875,214.3125,image235.jpg,47019.65191
4,50.863546,-0.094352,57.1,11.625,-3.125,214.5625,image236.jpg,47219.13641
4,50.86354683,-0.094353667,57.1,11.75,0.125,216.4375,image237.jpg,47418.78438
4,50.86354767,-0.094355,57.1,10,-2.3125,215.75,image238.jpg,47619.21226
4,50.86354867,-0.094356167,57.1,9.1875,-4.0625,215.6875,image239.jpg,47820.04657
4,50.86354983,-0.0943575,57.2,6.5,-0.5625,217.125,image240.jpg,48020.07599
4,50.8635505,-0.0943595,57.1,8.1875,-0.6875,217.6875,image241.jpg,48219.86369
4,50.86355167,-0.094360667,57.2,4.25,-2.625,215.1875,image242.jpg,48419.19466
4,50.8635525,-0.0943625,57.2,4.375,-5.875,209.75,image243.jpg,48619.58171
4,50.86355333,-0.094364,57.2,5.375,-4.4375,203.8125,image244.jpg,48820.22405
4,50.86355383,-0.0943655,57.2,0,-4.0625,198.3125,image245.jpg,49021.00503
4,50.8635545,-0.094367667,57.2,6.4375,-1.0625,195.375,image246.jpg,49220.37907
4,50.86355483,-0.094369,57.2,2.9375,-0.6875,195.625,image247.jpg,49419.62014
4,50.8635555,-0.0943705,57.2,2.4375,-3.8125,196,image248.jpg,49619.81131
4,50.863556,-0.0943725,57.2,8.375,-4.25,195.1875,image249.jpg,49819.6962
4,50.8635565,-0.094374333,57.1,2.125,-5.8125,195.4375,image250.jpg,50019.79722
4,50.86355717,-0.094376167,57.1,5.5,-1.125,196.125,image251.jpg,50220.03944
4,50.86355767,-0.0943775,57.1,5.25,-1.3125,197.8125,image252.jpg,50420.03994
4,50.86355833,-0.094379833,57.1,7.5,-7,198.9375,image253.jpg,50620.52245
4,50.86355917,-0.094381833,57.1,1.8125,-6.8125,197.5625,image254.jpg,50820.29099
4,50.86355983,-0.094383833,57.1,8.9375,-2.5,200,image255.jpg,51020.09313
4,50.8635605,-0.094385667,57.1,5.4375,-1.4375,200,image256.jpg,51220.47377
4,50.863561,-0.094387167,57.2,7.4375,-3.3125,202.25,image257.jpg,51420.47292
4,50.86356167,-0.0943895,57.2,8.875,-2.1875,202.375,image258.jpg,51620.73867
4,50.8635625,-0.094391333,57.2,7.9375,-1.625,205.3125,image259.jpg,51821.41612
4,50.86356333,-0.094392833,57.2,9.1875,0,209.875,image260.jpg,52021.61776
4,50.86356433,-0.094394667,57.2,9.5625,-4.75,213.1875,image261.jpg,52221.93528
4,50.86356517,-0.094396667,57.2,9.8125,-4.5,212.3125,image262.jpg,52421.64127
4,50.863566,-0.094397833,57.2,5.0625,-4.625,208.375,image263.jpg,52620.97572
4,50.86356683,-0.094399667,57.2,8.375,-4.375,204.0625,image264.jpg,52821.4236
4,50.8635675,-0.0944015,57.2,3.375,-2.3125,199.625,image265.jpg,53022.21703
4,50.86356817,-0.094403167,57.2,7.875,-3.5625,199.875,image266.jpg,53222.12608
4,50.8635685,-0.0944055,57.2,9.25,-4.3125,199,image267.jpg,53421.71297
4,50.86356933,-0.094407167,57.2,5.3125,-5.875,200.3125,image268.jpg,53621.33433
4,50.86357,-0.0944095,57.2,7.6875,0.125,201.625,image269.jpg,53821.65451
4,50.8635705,-0.094410667,57.2,6,-4.6875,203.9375,image270.jpg,54022.38117
4,50.86357183,-0.0944125,57.2,4.5625,-4.3125,207.1875,image271.jpg,54222.49057
4,50.86357217,-0.0944135,57.2,5.3125,-6.8125,211.375,image272.jpg,54422.49061
4,50.863573,-0.094415333,57.2,6.3125,-4.875,216.6875,image273.jpg,54621.61716
4,50.86357433,-0.094417,57.2,6.1875,-2.1875,219.625,image274.jpg,54822.04389
4,50.86357533,-0.094418333,57.2,7.25,-4.25,219.3125,image275.jpg,55021.84545
4,50.8635765,-0.094420167,57.2,4.375,-2.5625,220.5625,image276.jpg,55221.96501
4,50.863578,-0.0944215,57.2,7.125,-3,221.3125,image277.jpg,55421.9162
4,50.863579,-0.094423,57.2,0.625,-2.9375,221.75,image278.jpg,55622.028
4,50.86358033,-0.094424,57.2,6.375,-4.9375,226.1875,image279.jpg,55821.93237
4,50.86358133,-0.094425667,57.2,4.3125,-6.0625,229.3125,image280.jpg,56022.32681
4,50.86358267,-0.094426167,57.2,7.5,-4.75,229.6875,image281.jpg,56222.31778
4,50.86358383,-0.0944275,57.2,7.375,-2.4375,229.75,image282.jpg,56422.58088
4,50.863585,-0.094428833,57.2,5.8125,-0.1875,230.125,image283.jpg,56622.81366
4,50.86358583,-0.094429167,57.2,6.875,-1.5625,235,image284.jpg,56822.85599
4,50.86358717,-0.094430333,57.2,8.6875,-3.5,241.4375,image285.jpg,57023.58296
4,50.8635885,-0.0944305,57.2,1.625,-4.1875,246.6875,image286.jpg,57223.89652
4,50.86359,-0.0944305,57.2,12.6875,0.4375,251.75,image287.jpg,57423.7035
4,50.86359117,-0.094431667,57.2,6.375,-2,251.3125,image288.jpg,57622.88358
4,50.86359267,-0.094431167,57.2,10.375,-1.6875,249.25,image289.jpg,57823.00064
4,50.86359383,-0.094432333,57.3,11.625,-0.375,243.5,image290.jpg,58023.97849
4,50.86359533,-0.094433167,57.3,5.9375,-4.875,240.8125,image291.jpg,58224.47719
4,50.86359667,-0.094433667,57.3,9.625,-5.8125,239.9375,image292.jpg,58424.50442
4,50.863598,-0.094435,57.3,7.1875,-5.375,238.9375,image293.jpg,58623.60128
4,50.8636,-0.094435833,57.3,10.375,-4.0625,238.75,image294.jpg,58823.47611
4,50.86360133,-0.094436833,57.3,12.5625,2.75,238.1875,image295.jpg,59024.04799
4,50.86360233,-0.094437833,57.2,14.4375,-0.125,234.3125,image296.jpg,59224.54946
4,50.86360383,-0.094439,57.3,10.8125,-7.25,229.625,image297.jpg,59424.72422
4,50.86360483,-0.0944405,57.3,6.9375,-4.625,223.875,image298.jpg,59624.38022
4,50.863606,-0.094441833,57.3,6.25,-1.875,218.6875,image299.jpg,59823.87586
4,50.86360683,-0.094443333,57.3,3.0625,-2.1875,216.3125,image300.jpg,60024.19551
4,50.863608,-0.094444167,57.3,-1.875,-0.625,215.4375,image301.jpg,60223.93556
4,50.86360883,-0.094446,57.3,-2.625,-2.375,213.625,image302.jpg,60424.02398
4,50.86361,-0.094447333,57.3,-3.3125,-4.6875,212.625,image303.jpg,60624.17057
4,50.863611,-0.094449167,57.3,3.25,-5.4375,214.8125,image304.jpg,60824.33549
4,50.86361217,-0.0944505,57.3,3.75,-6,222.6875,image305.jpg,61024.52156
4,50.86361333,-0.094452,57.3,9.5,-5,231.9375,image306.jpg,61224.39197
4,50.86361467,-0.094452833,57.3,2.8125,-2.25,230.4375,image307.jpg,61424.43596
4,50.86361617,-0.094454167,57.3,4.375,-3.125,227,image308.jpg,61624.58672
4,50.86361767,-0.094455833,57.3,6.4375,-1.75,224.75,image309.jpg,61824.71081
4,50.86361883,-0.094457333,57.3,6.6875,-2.375,226.125,image310.jpg,62024.73256
4,50.86362,-0.094459167,57.3,12.3125,-2.3125,224.0625,image311.jpg,62225.93972
4,50.86362133,-0.094460167,57.3,5,-2.6875,226.0625,image312.jpg,62426.14974
4,50.8636225,-0.094461667,57.3,7.5,-4.9375,225.375,image313.jpg,62625.85011
4,50.86362383,-0.094463167,57.3,4.5625,-5.0625,224.5,image314.jpg,62825.00571
4,50.86362533,-0.094464833,57.3,5.875,-2.8125,225.125,image315.jpg,63024.97091
4,50.8636265,-0.094466,57.3,7.875,-2.8125,226.3125,image316.jpg,63225.98146
4,50.863628,-0.094467667,57.3,7.6875,-2.625,226.625,image317.jpg,63426.43673
4,50.86362917,-0.094469,57.3,2.0625,-3.75,222.125,image318.jpg,63626.449
4,50.86363067,-0.094470667,57.3,0.6875,-6.125,216.125,image319.jpg,63825.59378
4,50.86363183,-0.094472667,57.3,-0.75,-4.5625,211.3125,image320.jpg,64025.69839
4,50.86363267,-0.0944745,57.3,3.3125,-3.5,210.625,image321.jpg,64226.47156
4,50.8636335,-0.094476667,57.3,7.375,-2.9375,208.3125,image322.jpg,64426.51482
4,50.8636345,-0.094478,57.4,8.5,-5.625,210.125,image323.jpg,64626.96493
4,50.8636355,-0.094481167,57.4,8.25,-9.6875,211.0625,image324.jpg,64826.07184
4,50.8636365,-0.0944825,57.4,7.875,-5,213.5,image325.jpg,65025.72716
4,50.86363767,-0.094484167,57.3,7.3125,-4.875,219.25,image326.jpg,65226.35216
4,50.863639,-0.094486,57.3,9.5625,-2.375,222.3125,image327.jpg,65426.11955
4,50.86364033,-0.094487333,57.3,6.75,-3.0625,225.0625,image328.jpg,65625.94043
4,50.8636415,-0.094489,57.3,7,-1.875,226.5,image329.jpg,65826.13572
4,50.863643,-0.09449,57.3,6.5,-4.6875,227.0625,image330.jpg,66026.33944
4,50.86364433,-0.094492,57.3,5.9375,-7.5625,226.5625,image331.jpg,66226.41733
4,50.863646,-0.094493333,57.4,7.625,-6.5625,224.75,image332.jpg,66426.42513
4,50.86364717,-0.094495,57.3,6.9375,-6.125,221.375,image333.jpg,66626.37871
4,50.8636485,-0.094497,57.4,2.9375,-7,219.75,image334.jpg,66826.3988
4,50.86364967,-0.0944985,57.3,3.375,-4.875,214,image335.jpg,67026.55825
4,50.8636505,-0.0945005,57.3,4,-5.4375,207.3125,image336.jpg,67226.79588
4,50.86365133,-0.094502667,57.4,5.3125,-6.8125,206.4375,image337.jpg,67427.96188
4,50.86365217,-0.0945045,57.4,8.6875,-8.4375,209.3125,image338.jpg,67627.924
4,50.86365333,-0.094507,57.4,7.1875,-7.4375,214.125,image339.jpg,67827.72629
4,50.8636545,-0.094508333,57.4,4.875,-4.75,218.0625,image340.jpg,68026.98028
4,50.86365567,-0.09451,57.4,5,-6,217.75,image341.jpg,68226.95636
4,50.86365683,-0.094511833,57.4,4,-4.1875,218.25,image342.jpg,68427.81056
4,50.863658,-0.094513333,57.4,4,-2.375,217.875,image343.jpg,68628.07006
4,50.86365917,-0.094515167,57.4,2.9375,-2.9375,217.25,image344.jpg,68828.06046
4,50.86366033,-0.094516833,57.4,3.375,-4.5625,213.1875,image345.jpg,69027.27903
4,50.86366117,-0.094518667,57.4,2,-4.5625,206.25,image346.jpg,69227.2999
4,50.863662,-0.094520833,57.4,5.3125,-5.9375,200.9375,image347.jpg,69428.01364
4,50.86366267,-0.094523167,57.4,3.5,-5.1875,197.125,image348.jpg,69628.37079
4,50.863663,-0.0945255,57.4,5.375,-5.5625,195.8125,image349.jpg,69828.48202
4,50.86366383,-0.094528167,57.4,5.875,-6.4375,195.9375,image350.jpg,70027.85011
4,50.8636645,-0.094530667,57.4,1.9375,-4.75,193.25,image351.jpg,70227.58193
4,50.86366533,-0.094533167,57.4,1.1875,-5.875,189.5625,image352.jpg,70428.1185
4,50.86366583,-0.0945355,57.4,1.125,-5.4375,183.8125,image353.jpg,70627.91511
4,50.863666,-0.094538333,57.4,4.6875,-6.875,183.625,image354.jpg,70828.04638
4,50.86366617,-0.094541167,57.4,3.125,-5.8125,183.9375,image355.jpg,71028.17802
4,50.86366667,-0.094543667,57.4,4.1875,-3.9375,187.125,image356.jpg,71228.32394
4,50.86366733,-0.094546333,57.4,5.125,-5.5625,196.375,image357.jpg,71428.41266
4,50.863668,-0.094548833,57.4,6.3125,-4.25,203.8125,image358.jpg,71628.40265
4,50.863669,-0.094550833,57.4,6.4375,-3.75,212,image359.jpg,71828.3594
4,50.86367,-0.094552833,57.3,7.9375,-1.625,214.4375,image360.jpg,72028.42995
4,50.863671,-0.094554833,57.4,7,-3.375,214.3125,image361.jpg,72228.67857
4,50.86367233,-0.094556833,57.4,5.9375,-4.3125,215.4375,image362.jpg,72428.84286
4,50.86367367,-0.094558667,57.4,4.75,-5.5625,216.375,image363.jpg,72630.54223
4,50.86367483,-0.094560167,57.4,2.875,-7.3125,218.1875,image364.jpg,72829.80913
4,50.863676,-0.094562167,57.4,5.75,-8,222.125,image365.jpg,73029.65854
4,50.8636775,-0.094564,57.4,5.375,-6.125,224.5625,image366.jpg,73229.22663
4,50.863679,-0.0945655,57.4,3.3125,-3.125,223.5625,image367.jpg,73428.96438
4,50.86368033,-0.094567,57.4,1.6875,-4.9375,218.1875,image368.jpg,73629.8401
4,50.8636815,-0.094569,57.4,2.75,-6.5,211.5625,image369.jpg,73830.27823
4,50.86368233,-0.094571167,57.4,4.6875,-4.9375,208.1875,image370.jpg,74030.20749
4,50.86368333,-0.094573333,57.4,3.375,-3.4375,208.875,image371.jpg,74229.45632
4,50.86368433,-0.094575333,57.4,3.75,-4,209.75,image372.jpg,74429.28719
4,50.86368533,-0.0945775,57.4,3.0625,-4.9375,210.25,image373.jpg,74630.26743
4,50.8636865,-0.0945795,57.4,4.5,-5.3125,211.9375,image374.jpg,74830.64739
4,50.86368767,-0.094581833,57.4,4.125,-4.5625,215.375,image375.jpg,75030.73575
4,50.86368883,-0.094583667,57.4,5.0625,-4.375,219.6875,image376.jpg,75230.29185
4,50.86369,-0.0945855,57.5,4.8125,-3.9375,223.75,image377.jpg,75429.82436
4,50.8636915,-0.094586833,57.5,5.3125,-4.8125,227.625,image378.jpg,75630.61388
4,50.86369267,-0.094588333,57.5,5.9375,-5.875,233.0625,image379.jpg,75830.06312
4,50.86369433,-0.094589333,57.5,7.6875,-2.25,237.9375,image380.jpg,76030.06982
4,50.86369583,-0.094590333,57.5,7,-3.625,242.1875,image381.jpg,76230.07282
4,50.86369733,-0.094591,57.5,7.25,-5.0625,247.375,image382.jpg,76430.02275
4,50.863699,-0.0945915,57.5,6.625,-2.9375,252.5625,image383.jpg,76630.52364
4,50.86370067,-0.094591833,57.5,6.0625,-3.3125,255.9375,image384.jpg,76830.58805
4,50.86370233,-0.094592,57.5,7.0625,-3.75,259.875,image385.jpg,77030.26086
4,50.863704,-0.094591833,57.5,4.4375,-3.25,261.8125,image386.jpg,77230.42312
4,50.86370583,-0.094591833,57.5,3.8125,-4.1875,261.9375,image387.jpg,77430.58924
4,50.86370767,-0.094591667,57.5,4.3125,-2.875,258.6875,image388.jpg,77630.90363
4,50.86370933,-0.094591833,57.5,1.625,-3.375,255.625,image389.jpg,77831.57644
4,50.863711,-0.094592167,57.5,4.6875,-3.375,255.375,image390.jpg,78031.74261
4,50.86371267,-0.094592333,57.5,7.8125,-3.0625,261.5,image391.jpg,78231.64978
4,50.86371433,-0.0945925,57.5,8.5,-3.6875,269.9375,image392.jpg,78430.64269
4,50.86371583,-0.094591667,57.5,8.3125,-3.125,278.125,image393.jpg,78630.80422
4,50.8637175,-0.094590833,57.5,9.375,-3,286.4375,image394.jpg,78831.90305
4,50.86371883,-0.094589833,57.5,8.375,-1.875,292.75,image395.jpg,79031.91193
4,50.86372017,-0.094588167,57.5,8.1875,-2.875,300.1875,image396.jpg,79231.97759
4,50.86372117,-0.094586333,57.5,9.5,-0.75,308.875,image397.jpg,79431.03143
4,50.86372233,-0.0945845,57.5,8.0625,1.0625,316.5625,image398.jpg,79631.1314
4,50.863723,-0.094582,57.5,9.6875,0.8125,323.9375,image399.jpg,79832.07195
4,50.8637235,-0.094579667,57.5,6,0.9375,330.5625,image400.jpg,80032.19537
4,50.863724,-0.094577167,57.6,6.625,0.9375,336.4375,image401.jpg,80232.2631
4,50.86372417,-0.094574833,57.5,4.6875,1.3125,339.125,image402.jpg,80431.38126
4,50.8637245,-0.094572167,57.6,5.125,0.8125,334.5625,image403.jpg,80631.59493
4,50.86372517,-0.094569833,57.6,8.125,0.125,335.1875,image404.jpg,80832.02041
4,50.8637255,-0.094567167,57.5,7.0625,1.0625,343.4375,image405.jpg,81032.10819
4,50.86372567,-0.094564667,57.5,5.75,1.375,350.25,image406.jpg,81232.20364
4,50.86372533,-0.094562,57.6,6.0625,0.75,357.875,image407.jpg,81432.51933
4,50.86372517,-0.0945595,57.6,4.25,1.25,5.0625,image408.jpg,81632.6354
4,50.86372467,-0.094557,57.5,5.625,2.5,13.25,image409.jpg,81832.63376
4,50.86372383,-0.094554833,57.5,3.75,1.4375,20.75,image410.jpg,82032.63583
4,50.86372283,-0.094552333,57.5,4.8125,0.875,29.75,image411.jpg,82232.57311
4,50.86372167,-0.094550667,57.5,2.1875,2,37.25,image412.jpg,82432.68792
4,50.86372017,-0.094549,57.5,3.625,0.9375,45.0625,image413.jpg,82632.89378
4,50.86371883,-0.0945475,57.5,3.125,1.125,50.125,image414.jpg,82833.48227
4,50.86371733,-0.094546167,57.5,3.75,1.3125,51.75,image415.jpg,83034.32527
4,50.86371583,-0.094544833,57.5,1.6875,0.75,50.6875,image416.jpg,83234.44873
4,50.86371417,-0.0945435,57.5,2.1875,0.625,51.0625,image417.jpg,83434.12623
4,50.86371267,-0.094542,57.5,0.9375,2,51.875,image418.jpg,83633.21965
4,50.863711,-0.0945405,57.5,-0.125,2.25,49.0625,image419.jpg,83833.37468
4,50.86370933,-0.094539,57.5,1.1875,1.0625,44.9375,image420.jpg,84034.43991
4,50.863708,-0.094537167,57.5,1.1875,0.5,41.9375,image421.jpg,84234.39437
4,50.8637065,-0.094535333,57.5,3.125,1.3125,42.875,image422.jpg,84434.52643
4,50.86370517,-0.0945335,57.5,1.5625,0.375,43.125,image423.jpg,84633.51037
4,50.86370367,-0.0945315,57.5,1.6875,1.6875,43.5,image424.jpg,84833.65305
4,50.86370217,-0.094529833,57.5,2.125,1.0625,38.3125,image425.jpg,85034.24269
4,50.86370083,-0.094527667,57.5,1.375,1.6875,34.9375,image426.jpg,85234.52687
4,50.86369983,-0.094525667,57.5,0.5625,1,33.6875,image427.jpg,85434.58289
4,50.8636985,-0.094523333,57.5,3.5625,0.4375,32.9375,image428.jpg,85633.83765
4,50.86369733,-0.094521167,57.5,2.3125,1.375,33.625,image429.jpg,85833.79347
4,50.86369617,-0.094519,57.5,2.6875,0.875,32.875,image430.jpg,86034.59627
4,50.86369483,-0.094516667,57.5,1.375,0.3125,31.6875,image431.jpg,86234.11872
4,50.86369367,-0.094514333,57.5,0.375,0.5,31.0625,image432.jpg,86434.02751
4,50.8636925,-0.094512333,57.5,-0.4375,1,28.0625,image433.jpg,86634.15686
4,50.86369133,-0.09451,57.5,-0.3125,0.3125,20.0625,image434.jpg,86834.23043
4,50.86369067,-0.094507333,57.5,0,-0.375,13.625,image435.jpg,87034.63914
4,50.86369017,-0.094504667,57.5,0.6875,-0.8125,6.875,image436.jpg,87234.38809
4,50.86368967,-0.094502167,57.5,0.6875,0.6875,359.1875,image437.jpg,87434.56551
4,50.86368967,-0.094499667,57.4,1.375,1.4375,353,image438.jpg,87634.59684
4,50.86368967,-0.094497167,57.4,0.5,0.6875,347,image439.jpg,87834.67885
4,50.86369,-0.0944945,57.4,0,0.75,343.375,image440.jpg,88035.22426
4,50.86369,-0.094491833,57.4,1.8125,0.75,344.5625,image441.jpg,88235.84811
4,50.86369033,-0.094488833,57.4,0.5,0.1875,345.3125,image442.jpg,88436.09688
4,50.8636905,-0.094486,57.4,2.875,0.8125,345.5,image443.jpg,88635.7286
4,50.8636905,-0.094483167,57.4,2.75,-0.3125,345.9375,image444.jpg,88834.91576
4,50.86369083,-0.094480333,57.4,5.375,0.1875,346.3125,image445.jpg,89035.17203
4,50.863691,-0.094477333,57.4,3.5625,0.4375,347,image446.jpg,89236.25476
4,50.863691,-0.0944745,57.4,5.3125,-0.5625,347.5,image447.jpg,89436.06157
4,50.86369117,-0.094471667,57.4,3.3125,-0.25,347.625,image448.jpg,89636.19879
4,50.86369133,-0.094468667,57.4,3.5,-1.3125,347.1875,image449.jpg,89835.24544
4,50.86369133,-0.094465667,57.4,4.1875,-1.0625,348.6875,image450.jpg,90035.29015
4,50.8636915,-0.094463,57.4,2.625,-0.0625,348.4375,image451.jpg,90236.33637
4,50.8636915,-0.094460167,57.4,3.9375,0.25,349.9375,image452.jpg,90436.46129
4,50.8636915,-0.094457,57.4,6,-0.5,353.6875,image453.jpg,90636.68079
4,50.8636915,-0.0944545,57.4,2.875,-0.3125,358.4375,image454.jpg,90835.55136
4,50.863691,-0.0944515,57.4,4.8125,-0.125,0.75,image455.jpg,91035.64394
4,50.86369083,-0.094448667,57.4,2.5,1.4375,0.125,image456.jpg,91236.22451
4,50.8636905,-0.094446,57.4,4.3125,0,1.4375,image457.jpg,91435.84732
4,50.86369017,-0.094442833,57.4,3.0625,-0.5625,1.6875,image458.jpg,91635.84501
4,50.86368983,-0.094439833,57.4,4.5,-0.75,4.125,image459.jpg,91835.9303
4,50.8636895,-0.094437,57.4,3.875,-0.9375,7.125,image460.jpg,92036.08235
4,50.86368883,-0.094434,57.4,3.25,0,8.875,image461.jpg,92236.31487
4,50.86368817,-0.0944315,57.4,2.5,-0.75,9.375,image462.jpg,92436.93195
4,50.86368767,-0.094428667,57.4,3.5625,-0.125,10.1875,image463.jpg,92636.3453
4,50.863687,-0.094426,57.4,2.5,-0.125,11.6875,image464.jpg,92836.32163
4,50.8636865,-0.094423333,57.4,2.9375,-0.5625,13.5,image465.jpg,93036.60467
4,50.86368567,-0.094420833,57.4,0.3125,-0.6875,15.0625,image466.jpg,93237.12894
4,50.86368483,-0.094418333,57.4,1.8125,0.75,14.4375,image467.jpg,93437.57051
4,50.86368417,-0.094415833,57.4,0.5625,0.5,13.0625,image468.jpg,93637.57132
4,50.8636835,-0.094413167,57.4,0.125,1.5,11.4375,image469.jpg,93837.7377
4,50.86368283,-0.094410667,57.4,-1.1875,2.1875,4.625,image470.jpg,94036.69618
4,50.86368267,-0.094408,57.4,0.8125,1.4375,0.125,image471.jpg,94236.99556
4,50.86368233,-0.094405667,57.4,2.6875,0.125,359.25,image472.jpg,94437.83226
4,50.86368217,-0.094402667,57.4,0.9375,0,356.25,image473.jpg,94638.12759
4,50.863682,-0.094400167,57.4,1.375,0.75,350.1875,image474.jpg,94838.04122
4,50.863682,-0.094397333,57.4,1.6875,1.75,344.9375,image475.jpg,95037.16203
4,50.86368233,-0.094394667,57.3,2.375,2.1875,345.625,image476.jpg,95237.29096
4,50.8636825,-0.094391833,57.4,2.0625,3.375,346,image477.jpg,95438.24391
4,50.8636825,-0.094389167,57.4,4.375,3.375,347.125,image478.jpg,95638.23191
4,50.86368267,-0.094386333,57.4,4.3125,1.8125,347.6875,image479.jpg,95838.26449
4,50.86368283,-0.094383667,57.4,4.25,2.5625,347.8125,image480.jpg,96037.32452
4,50.86368283,-0.094380833,57.4,4.9375,1.25,348.6875,image481.jpg,96237.55746
4,50.863683,-0.094377833,57.4,4.5,1.9375,349.5625,image482.jpg,96438.13089
4,50.863683,-0.094375,57.4,5.6875,0.875,352.9375,image483.jpg,96637.81839
4,50.86368283,-0.094372,57.4,3.75,1.4375,356.3125,image484.jpg,96837.72317
4,50.8636825,-0.094369333,57.4,4.8125,1.625,358.6875,image485.jpg,97037.96131
4,50.86368233,-0.0943665,57.4,4.8125,1.6875,359.75,image486.jpg,97238.15669
4,50.863682,-0.094363667,57.4,5.5,1.0625,3.25,image487.jpg,97438.29578
4,50.8636815,-0.094361,57.4,5,0.9375,8.75,image488.jpg,97638.25717
4,50.863681,-0.094358167,57.4,5,1.1875,14.6875,image489.jpg,97838.19887
4,50.86368017,-0.094355667,57.4,3.0625,0.5625,20.1875,image490.jpg,98038.32639
4,50.86367917,-0.094353333,57.4,4.5,0.4375,24.625,image491.jpg,98238.32324
4,50.86367817,-0.094351,57.4,2.6875,0.8125,28.625,image492.jpg,98438.79101
4,50.863677,-0.094348833,57.4,2.9375,0.125,33.4375,image493.jpg,98639.37069
4,50.86367567,-0.094346667,57.4,2.875,0.5,38,image494.jpg,98839.61238
4,50.86367433,-0.094345,57.4,0.75,-0.4375,40.3125,image495.jpg,99039.23972
4,50.863673,-0.094343,57.4,2.625,-1.25,41.6875,image496.jpg,99238.6601
4,50.8636715,-0.094341,57.4,1.6875,-0.3125,42.3125,image497.jpg,99438.88058
4,50.86367017,-0.094339167,57.4,3.25,-1.25,42.75,image498.jpg,99639.72973
4,50.86366883,-0.094337333,57.4,0.875,-1.375,43.125,image499.jpg,99839.81418
4,50.86366717,-0.094335667,57.4,2.125,-1.1875,42.875,image500.jpg,100039.8644
4,50.86366583,-0.094334,57.3,2.375,-0.0625,42.5,image501.jpg,100239.0499
4,50.86366467,-0.094332333,57.3,2.625,-0.875,39.0625,image502.jpg,100439.0587
4,50.86366333,-0.094330333,57.3,2.25,-0.875,34,image503.jpg,100640.8962
4,50.86366217,-0.0943285,57.3,2.3125,-0.1875,29,image504.jpg,100840.1607
4,50.86366117,-0.094326167,57.3,1.6875,-0.1875,24.1875,image505.jpg,101040.2209
4,50.86366017,-0.094324167,57.3,0.75,0.5625,21.125,image506.jpg,101239.4419
4,50.86365917,-0.094321833,57.3,2.1875,0.25,20.1875,image507.jpg,101439.4842
4,50.8636585,-0.0943195,57.3,2.3125,1.1875,20.75,image508.jpg,101639.9947
4,50.86365767,-0.094317,57.3,3.1875,0.4375,20.5,image509.jpg,101839.6477
4,50.86365667,-0.0943145,57.3,4.125,-0.375,21.6875,image510.jpg,102039.6797
4,50.86365583,-0.094312167,57.3,3,-0.3125,24,image511.jpg,102239.764
4,50.863655,-0.094309833,57.3,2.375,1.625,23.9375,image512.jpg,102439.9866
4,50.863654,-0.094307667,57.3,3.3125,-0.5,24.5,image513.jpg,102640.171
4,50.86365317,-0.094305167,57.3,-0.0625,0.875,25.9375,image514.jpg,102839.9719
4,50.86365167,-0.094301833,57.3,2.9375,-0.125,26.25,image515.jpg,103040.3263
4,50.863651,-0.0943005,57.3,-0.5,1.125,25.8125,image516.jpg,103240.1744
4,50.86365,-0.094298333,57.3,2.5,1.25,26.0625,image517.jpg,103440.166
4,50.863649,-0.094296167,57.3,1.375,0.5,26.6875,image518.jpg,103640.8012
4,50.86364783,-0.094293667,57.3,2.1875,-1.125,27.0625,image519.jpg,103841.5174
4,50.86364667,-0.094291333,57.3,2,1.25,26.0625,image520.jpg,104041.3473
4,50.86364567,-0.094288833,57.3,2.5625,1.0625,25.375,image521.jpg,104241.45
4,50.8636445,-0.094286333,57.2,1.75,0.6875,25.375,image522.jpg,104440.539
4,50.8636435,-0.094284,57.2,1.75,-0.4375,25.375,image523.jpg,104641.0399
4,50.86364233,-0.0942815,57.2,1.5,1.4375,25.8125,image524.jpg,104841.8788
4,50.863641,-0.094277833,57.2,0.6875,0.8125,21.0625,image525.jpg,105041.9835
4,50.86364017,-0.094275,57.2,2.375,0.875,18.625,image526.jpg,105242.2557
4,50.86363967,-0.0942735,57.2,2.375,0.3125,20.25,image527.jpg,105441.0305
4,50.863639,-0.094271,57.2,4.625,0.8125,20.75,image528.jpg,105641.3187
4,50.86363783,-0.094268167,57.2,4.3125,-0.4375,21.9375,image529.jpg,105842.1611
4,50.86363633,-0.094264,57.2,4,1.1875,22.0625,image530.jpg,106042.7745
4,50.86363583,-0.094262833,57.2,3.1875,1,24.375,image531.jpg,106242.0763
4,50.86363467,-0.094259167,57.2,0.0625,3.4375,25.75,image532.jpg,106441.4663
4,50.86363333,-0.094257167,57.2,1.5625,-0.125,26.75,image533.jpg,106641.4611
4,50.863633,-0.094255833,57.2,0.625,0.75,25.4375,image534.jpg,106842.2102
4,50.86363167,-0.094252333,57.2,2.375,0.625,25.8125,image535.jpg,107041.7364
4,50.863631,-0.094251,57.2,3.9375,-0.6875,26.1875,image536.jpg,107241.5386
4,50.86362917,-0.0942475,57.2,2.8125,-0.0625,25.5625,image537.jpg,107442.8616
4,50.86362817,-0.094244833,57.2,2.0625,-1.9375,25.3125,image538.jpg,107641.7684
4,50.863627,-0.094242333,57.2,0.0625,0.25,22.875,image539.jpg,107843.3193
4,50.86362567,-0.094239833,57.2,2.5,-0.625,21,image540.jpg,108042.0247
4,50.8636245,-0.094237833,57.1,2.3125,1.3125,21.75,image541.jpg,108241.9793
4,50.86362383,-0.0942355,57.1,4.875,1.125,20.6875,image542.jpg,108442.0862
4,50.86362283,-0.094232833,57.1,5.8125,0.5,20.1875,image543.jpg,108642.1524
4,50.863622,-0.09423,57.1,3.25,-1.625,20.9375,image544.jpg,108842.9253
4,50.86362117,-0.094227667,57.1,4.625,-0.25,23.1875,image545.jpg,109043.3627
4,50.8636205,-0.0942265,57.1,4.1875,0.6875,27.25,image546.jpg,109243.1717
4,50.86361883,-0.094223167,57.1,-0.875,2.375,30.0625,image547.jpg,109443.4813
4,50.86361767,-0.094221333,57.1,1.1875,0.625,30.25,image548.jpg,109642.5045
4,50.86361717,-0.09422,57.1,-2.6875,1,28.125,image549.jpg,109842.7391
4,50.8636155,-0.094217,57.1,-0.3125,1.8125,29.625,image550.jpg,110043.643
4,50.86361467,-0.094216,57.1,1.125,2.8125,32.5625,image551.jpg,110243.8359
4,50.86361317,-0.094212833,57.1,-1.6875,0.25,31.1875,image552.jpg,110443.9776
4,50.863612,-0.094210833,57,-1.625,1.25,31.6875,image553.jpg,110642.9048
4,50.86361083,-0.094208667,57,-4.625,2.3125,31.9375,image554.jpg,110843.0967
4,50.8636095,-0.094206667,57,-1.125,1.25,31.9375,image555.jpg,111044.3214
4,50.863609,-0.094206,57,-11.0625,5.4375,31.4375,image556.jpg,111244.4753
4,50.8636075,-0.094202667,57,0.3125,-1.3125,30.25,image557.jpg,111444.2932
4,50.86360617,-0.094201167,57,-7,-3.25,26.1875,image558.jpg,111643.3129
4,50.86360567,-0.094199333,57,0.0625,0.0625,26.1875,image559.jpg,111843.3665
4,50.8636045,-0.094197333,57,-1.6875,-0.4375,23.375,image560.jpg,112043.5168
4,50.86360433,-0.094195833,57,1.25,0,20.8125,image561.jpg,112243.4249
4,50.86360333,-0.094192833,57,1.0625,1.375,20.4375,image562.jpg,112443.7626
4,50.86360233,-0.09419,57,2.25,0.4375,20,image563.jpg,112643.8081
4,50.86360217,-0.094189,56.9,-0.125,3.875,21.0625,image564.jpg,112843.6381
4,50.86360067,-0.0941855,56.9,1.375,-0.375,21.4375,image565.jpg,113043.9031
4,50.86359983,-0.094182833,56.9,1.75,2.0625,20.0625,image566.jpg,113243.9165
4,50.86359933,-0.094180667,57.1,2.75,3.125,21.375,image567.jpg,113443.9111
4,50.8635985,-0.094178,57.1,3.6875,-0.5,23.625,image568.jpg,113643.9884
4,50.86359733,-0.094175667,57,3.75,-1.25,27.875,image569.jpg,113844.2324
4,50.86359617,-0.094173667,57,3.8125,-0.625,33.375,image570.jpg,114044.9744
4,50.86359483,-0.0941715,57,0.0625,-0.875,34.0625,image571.jpg,114245.2584
4,50.86359367,-0.094169333,57,1.9375,-1.625,34.6875,image572.jpg,114445.5044
4,50.8635925,-0.094167667,57,0.625,0.4375,35.4375,image573.jpg,114644.8096
4,50.86359183,-0.094166333,57,0.0625,-0.125,35.125,image574.jpg,114844.4266
4,50.86359,-0.094163667,57,0.0625,0.5625,34.75,image575.jpg,115045.1509
4,50.86358883,-0.0941615,57,0,1,35.0625,image576.jpg,115245.6654
4,50.8635875,-0.094159667,57,0.625,1.0625,36.875,image577.jpg,115445.7719
4,50.8635865,-0.0941575,57,0.3125,-0.125,35.6875,image578.jpg,115645.7873
4,50.86358567,-0.0941565,57,0.9375,-0.8125,34.125,image579.jpg,115844.9242
4,50.863584,-0.0941535,57,2.3125,2.0625,33.9375,image580.jpg,116045.6424
4,50.86358283,-0.0941515,57,-1.1875,0.9375,33.1875,image581.jpg,116246.0733
4,50.86358183,-0.094149333,57,3.125,0.0625,34.125,image582.jpg,116446.1028
4,50.86358067,-0.094147667,57,0.5,1.0625,34.4375,image583.jpg,116646.1994
4,50.86358,-0.094146667,57,4.625,-0.4375,37.5625,image584.jpg,116845.163
4,50.86357833,-0.094144167,57,1.125,-1.5625,42,image585.jpg,117045.5862
4,50.86357683,-0.094142667,57,2.375,-0.625,47.1875,image586.jpg,117245.6934
4,50.8635755,-0.094141667,57,-0.25,0.3125,51.375,image587.jpg,117445.418
4,50.863574,-0.094140167,57,0.0625,-0.25,54.25,image588.jpg,117645.4536
4,50.8635725,-0.094139,57,0.5625,-0.125,55.25,image589.jpg,117845.4235
4,50.863571,-0.094137833,57,-2.3125,0.875,55.625,image590.jpg,118045.7719
4,50.8635695,-0.094136667,57,-1.125,1.125,54.5,image591.jpg,118245.6724
4,50.863568,-0.0941355,57,-3.1875,-1,50.5625,image592.jpg,118445.7535
4,50.86356667,-0.094133833,57,-3.8125,-1.5625,47.6875,image593.jpg,118645.8312
4,50.863566,-0.094133,57,-2.8125,-1.0625,47,image594.jpg,118845.7414
4,50.86356383,-0.094130833,57,-2.0625,-2.1875,47.875,image595.jpg,119046.1901
4,50.86356233,-0.094129,57,-1.625,-2.25,48.1875,image596.jpg,119246.8493
4,50.863561,-0.0941275,56.9,-1.125,-0.4375,48.6875,image597.jpg,119447.2019
4,50.86355967,-0.094126333,56.9,-1.75,0.125,48,image598.jpg,119647.1165
4,50.86355867,-0.094124833,56.9,-0.0625,0.75,43.625,image599.jpg,119846.2607
4,50.8635575,-0.094123167,56.9,-0.375,1.375,39.6875,image600.jpg,120046.4258
4,50.8635565,-0.094121333,56.9,0.75,-0.5,39.6875,image601.jpg,120246.9297
4,50.86355533,-0.094119667,56.9,2.875,-1.125,40.1875,image602.jpg,120447.4329
4,50.863554,-0.094118,56.9,1.9375,0.0625,40,image603.jpg,120647.4947
4,50.86355283,-0.094116,56.9,0.0625,-0.5625,37,image604.jpg,120847.2207
4,50.86355167,-0.094114,56.9,0.25,-0.25,35.4375,image605.jpg,121046.621
4,50.86355033,-0.094112167,56.9,-1.8125,-0.0625,35.25,image606.jpg,121247.2239
4,50.86354933,-0.094110167,56.9,0.0625,-0.5625,36.375,image607.jpg,121447.7175
4,50.863548,-0.094108667,56.9,0.8125,1.75,37.9375,image608.jpg,121647.8159
4,50.86354683,-0.094106833,56.9,-0.1875,0.5625,39.375,image609.jpg,121847.5284
4,50.86354567,-0.094104833,56.9,1.25,0.4375,41.8125,image610.jpg,122047.0002
4,50.86354417,-0.094103333,56.9,1.4375,0.25,44.75,image611.jpg,122247.3134
4,50.86354283,-0.094101667,56.9,1.375,1.375,45.875,image612.jpg,122447.0839
4,50.8635415,-0.0941,56.9,1.6875,1.9375,45.1875,image613.jpg,122647.1614
4,50.86354017,-0.094098167,56.9,1.5625,-0.9375,41.625,image614.jpg,122847.2427
4,50.863539,-0.094096167,56.9,2.5,0.5625,39.875,image615.jpg,123047.3081
4,50.86353783,-0.0940945,56.9,2.5,0.75,39.5625,image616.jpg,123247.4622
4,50.8635365,-0.094092667,56.9,1.0625,-1,40.25,image617.jpg,123447.4618
4,50.86353533,-0.094091,56.9,2.375,1,43.125,image618.jpg,123647.5271
4,50.86353367,-0.094089667,56.9,-0.75,1.125,46.8125,image619.jpg,123847.5509
4,50.8635325,-0.094088,56.9,2.0625,-0.625,47.3125,image620.jpg,124047.6963
4,50.863531,-0.094086833,56.9,-0.75,-0.125,48.375,image621.jpg,124247.7873
4,50.86352967,-0.094084833,56.9,0.6875,-3.0625,49.625,image622.jpg,124448.9523
4,50.86352817,-0.094083667,56.9,0,-1.125,50.3125,image623.jpg,124648.8654
4,50.86352667,-0.094082167,56.9,-1.5625,-0.3125,50.5625,image624.jpg,124848.9243
4,50.86352517,-0.0940805,56.9,-0.625,-0.125,50.125,image625.jpg,125048.1647
4,50.86352383,-0.094079333,56.9,-1.6875,-2.1875,48.125,image626.jpg,125248.0844
4,50.86352233,-0.094077333,56.9,-0.8125,-2.875,45.6875,image627.jpg,125448.9358
4,50.863521,-0.094076,56.9,-0.6875,0.25,46.8125,image628.jpg,125649.1386
4,50.86351983,-0.094074333,56.8,-0.125,-1.5,47.375,image629.jpg,125849.1658
4,50.86351833,-0.094073167,56.9,-2.4375,-0.0625,47.5,image630.jpg,126048.2819
4,50.86351717,-0.0940715,56.8,-0.125,5.125,47.75,image631.jpg,126248.3322
4,50.86351567,-0.094070167,56.8,-3.5625,-0.1875,44.125,image632.jpg,126449.1168
4,50.86351467,-0.094068333,56.9,1.125,-2.0625,40.4375,image633.jpg,126649.4674
4,50.8635135,-0.094066833,56.8,-1,1.6875,40.125,image634.jpg,126849.5261
4,50.8635125,-0.094064833,56.8,0.5625,-1.8125,40.5625,image635.jpg,127048.8404
4,50.863511,-0.094063333,56.8,-2.25,-2,41.75,image636.jpg,127248.6966
4,50.86350967,-0.0940615,56.8,-1.3125,-0.6875,39,image637.jpg,127449.2572
4,50.86350867,-0.09406,56.8,-3,0.5,34.0625,image638.jpg,127648.8538
4,50.863508,-0.094057833,56.8,2.4375,2,29.125,image639.jpg,127848.9186
4,50.86350717,-0.094055667,56.8,1.0625,-1.0625,25.0625,image640.jpg,128048.9351
4,50.86350633,-0.094053167,56.8,3,-0.8125,25.125,image641.jpg,128249.0734
4,50.8635055,-0.094051333,56.8,1.0625,2.375,26.4375,image642.jpg,128449.282
4,50.8635045,-0.094049,56.8,1.4375,0.5,27.9375,image643.jpg,128649.1762
4,50.86350333,-0.094047,56.8,0.4375,-0.1875,32.3125,image644.jpg,128849.2564
4,50.86350217,-0.094045,56.8,1.4375,0.25,37.5,image645.jpg,129049.2847
4,50.86350083,-0.094043333,56.8,0,0.3125,40.125,image646.jpg,129249.2274
4,50.86349967,-0.094041167,56.8,0.8125,-0.4375,40.4375,image647.jpg,129449.8523
4,50.863498,-0.094039333,56.8,-0.9375,0.875,40.8125,image648.jpg,129650.428
4,50.8634965,-0.094037667,56.8,-2.25,-2.8125,41.5625,image649.jpg,129850.5071
4,50.863495,-0.094035833,56.8,-3.0625,-1.875,41.25,image650.jpg,130050.4755
4,50.86349367,-0.094034,56.8,-1.3125,1.4375,41.5,image651.jpg,130249.6199
4,50.8634925,-0.094032167,56.8,-0.25,0.75,41.9375,image652.jpg,130449.8908
4,50.86349117,-0.094030333,56.8,2.125,-0.375,42.125,image653.jpg,130650.786
4,50.86348983,-0.0940285,56.8,2.5,0.3125,43.5,image654.jpg,130850.9841
4,50.8634885,-0.0940265,56.8,3.75,0.875,44.6875,image655.jpg,131051.0125
4,50.863487,-0.094025,56.8,2.9375,-0.75,45.1875,image656.jpg,131250.0848
4,50.86348567,-0.094023333,56.8,2.125,-0.8125,45.3125,image657.jpg,131450.1156
4,50.86348433,-0.0940215,56.8,3.4375,-0.4375,45.4375,image658.jpg,131651.1567
4,50.86348267,-0.09402,56.8,2.125,-2.0625,46.375,image659.jpg,131851.2027
4,50.86348133,-0.094018167,56.7,3.75,-0.4375,46.3125,image660.jpg,132051.2728
4,50.86347983,-0.094016833,56.7,1.5625,1,47.375,image661.jpg,132250.3819
4,50.86347833,-0.094015333,56.7,3.375,0.625,48,image662.jpg,132450.442
4,50.863477,-0.0940135,56.7,0.6875,1.0625,47.625,image663.jpg,132650.6881
4,50.86347533,-0.094012167,56.7,0.75,-0.4375,49.75,image664.jpg,132850.5761
4,50.86347383,-0.094010667,56.7,-0.8125,-0.5625,50.0625,image665.jpg,133050.6442
4,50.86347217,-0.094009167,56.8,-0.3125,-2.5,51.625,image666.jpg,133250.7446
4,50.86347067,-0.094007833,56.8,-0.9375,0.3125,54.1875,image667.jpg,133450.7621
4,50.86346883,-0.0940065,56.7,-0.625,-3.5625,56.1875,image668.jpg,133650.7972
4,50.86346717,-0.094005333,56.8,-1.9375,-1.8125,57.1875,image669.jpg,133850.9032
4,50.86346567,-0.094004333,56.7,-2.3125,-1.0625,57.3125,image670.jpg,134050.9235
4,50.863464,-0.094003167,56.7,-3.5625,-1.5625,55.5625,image671.jpg,134251.052
4,50.86346267,-0.094001667,56.7,-1.3125,-1.25,53.5625,image672.jpg,134451.1198
4,50.863461,-0.0940005,56.7,-2.75,-2,53.9375,image673.jpg,134651.9449
4,50.8634595,-0.093999,56.7,-1.5,-1.3125,55.375,image674.jpg,134852.2063
4,50.863458,-0.093998,56.7,-1,-0.5625,55.1875,image675.jpg,135052.2554
4,50.86345667,-0.093996667,56.7,-3.25,-1.375,53.75,image676.jpg,135251.6968
4,50.86345517,-0.093995333,56.7,-1.375,-1.9375,50.875,image677.jpg,135451.4406
4,50.86345367,-0.093994167,56.7,-3.6875,-1.0625,51.125,image678.jpg,135652.0325
4,50.86345233,-0.093992833,56.7,-3.9375,0,53,image679.jpg,135852.5571
4,50.8634505,-0.0939915,56.7,-2.6875,-0.5625,53.4375,image680.jpg,136052.7189
4,50.863449,-0.0939905,56.7,-6,-1.4375,53.375,image681.jpg,136252.1016
4,50.86344733,-0.093988833,56.7,-3.375,-2.1875,52.3125,image682.jpg,136451.7717
4,50.86344617,-0.093987833,56.7,-3.9375,1.125,47.75,image683.jpg,136652.3094
4,50.86344467,-0.093986,56.7,-3.5625,-2.25,48.5,image684.jpg,136852.9155
4,50.86344317,-0.0939845,56.7,-3.5,-3.875,50.5,image685.jpg,137052.9408
4,50.8634415,-0.093983333,56.7,-6.25,-1.9375,50.625,image686.jpg,137252.4907
4,50.86343983,-0.093982167,56.7,-7.6875,-3.125,49.5625,image687.jpg,137452.0852
4,50.8634385,-0.0939805,56.7,-7.1875,-1.5625,44.5,image688.jpg,137652.3979
4,50.86343717,-0.093978833,56.7,-5.6875,0.875,45.5625,image689.jpg,137852.2291
4,50.86343567,-0.093977,56.7,-4.0625,-1.6875,45.6875,image690.jpg,138052.3246
4,50.86343417,-0.0939755,56.7,-7.9375,-2.25,43.25,image691.jpg,138252.3969
4,50.863433,-0.0939735,56.6,-4.6875,1.5625,39.1875,image692.jpg,138452.4302
4,50.863432,-0.093971833,56.6,-4.0625,2,38.6875,image693.jpg,138652.6064
4,50.86343067,-0.093969833,56.6,-3,1.1875,38.625,image694.jpg,138852.5778
4,50.8634295,-0.093968,56.6,-0.4375,1.625,35.25,image695.jpg,139052.6432
4,50.86342817,-0.093966,56.6,-3.3125,-0.1875,35.9375,image696.jpg,139252.7948
4,50.86342717,-0.093963667,56.6,-1.625,-0.375,37.125,image697.jpg,139452.8061
4,50.8634255,-0.093962333,56.6,-2.625,-0.5,45.25,image698.jpg,139653.2741
4,50.86342417,-0.093961,56.6,-3.375,-2.0625,52.75,image699.jpg,139853.9242
4,50.86342267,-0.093959833,56.6,-0.5625,-2.4375,59.5,image700.jpg,140053.9481
4,50.86342117,-0.093959,56.6,0.8125,-2.875,61.25,image701.jpg,140253.9338
4,50.8634195,-0.093957833,56.6,1.4375,-1.875,61.6875,image702.jpg,140453.1383
4,50.863418,-0.093956667,56.6,0.4375,-1.125,55.4375,image703.jpg,140653.3997
4,50.86341667,-0.0939555,56.6,-2.0625,-1.375,49.5625,image704.jpg,140854.2326
4,50.8634155,-0.093953667,56.6,0.625,-1.25,43.4375,image705.jpg,141054.5107
4,50.8634145,-0.093952333,56.6,-0.1875,0.3125,41.25,image706.jpg,141254.612
4,50.86341367,-0.093951167,56.6,-1.875,-1.625,41.8125,image707.jpg,141453.5368
4,50.86341367,-0.0939515,56.6,-1.25,-0.6875,41.6875,image708.jpg,141653.6308