gps quality,lat,lon,altitude,roll,pitch,yaw,image name,timestamp
4,50.8634420000,-0.0939031667,56.7000000000,5.0000000000,-2.4375000000,0.0000000000,image0.jpg,3.6154430000
4,50.8634420000,-0.0939031667,56.7000000000,5.0000000000,-2.4375000000,0.0000000000,image1.jpg,201.6490480000
4,50.8634420000,-0.0939031667,56.7000000000,5.0000000000,-2.4375000000,0.0000000000,image2.jpg,401.5281370000
4,50.8634420000,-0.0939031667,56.7000000000,5.1875000000,-2.2500000000,0.1875000000,image3.jpg,602.1904830000
4,50.8634421667,-0.0939033333,56.7000000000,5.3750000000,-1.9375000000,0.5000000000,image4.jpg,801.8598240000
4,50.8634423333,-0.0939035000,56.7000000000,4.8750000000,-1.5625000000,0.8750000000,image5.jpg,1001.9208460000
4,50.8634425000,-0.0939036667,56.7000000000,4.9375000000,-0.8125000000,1.5625000000,image6.jpg,1202.5127210000
4,50.8634426667,-0.0939040000,56.7000000000,5.3125000000,-0.5625000000,2.1875000000,image7.jpg,1403.3010090000
4,50.8634433333,-0.0939048333,56.7000000000,5.1250000000,-1.8125000000,3.0000000000,image8.jpg,1603.2114010000
4,50.8634438333,-0.0939056667,56.7000000000,6.9375000000,-1.6250000000,5.3750000000,image9.jpg,1803.1187200000
4,50.8634446667,-0.0939066667,56.7000000000,6.5625000000,-2.3125000000,7.8125000000,image10.jpg,2003.1812000000
4,50.8634455000,-0.0939073333,56.7000000000,5.8125000000,-2.0625000000,9.5000000000,image11.jpg,2202.3250540000
4,50.8634463333,-0.0939085000,56.7000000000,6.3125000000,-2.2500000000,10.7500000000,image12.jpg,2402.4541510000
4,50.8634473333,-0.0939091667,56.7000000000,6.1875000000,-2.5000000000,11.8125000000,image13.jpg,2602.4818910000
4,50.8634483333,-0.0939101667,56.7000000000,5.9375000000,-4.6875000000,12.5000000000,image14.jpg,2803.0167320000
4,50.8634491667,-0.0939110000,56.7000000000,6.8125000000,-3.4375000000,13.7500000000,image15.jpg,3003.5626160000
4,50.8634500000,-0.0939116667,56.7000000000,5.8125000000,-3.0625000000,15.1250000000,image16.jpg,3203.5892100000
4,50.8634510000,-0.0939123333,56.7000000000,5.3750000000,-1.0000000000,16.2500000000,image17.jpg,3403.6718990000
4,50.8634518333,-0.0939133333,56.7000000000,6.6875000000,-1.7500000000,17.3125000000,image18.jpg,3603.6994310000
4,50.8634528333,-0.0939138333,56.7000000000,7.3750000000,-1.9375000000,18.1250000000,image19.jpg,3802.9011510000
4,50.8634535000,-0.0939145000,56.7000000000,6.2500000000,0.0000000000,18.8125000000,image20.jpg,4002.9433190000
4,50.8634545000,-0.0939151667,56.7000000000,5.5000000000,0.1250000000,19.5625000000,image21.jpg,4203.2407560000
4,50.8634556667,-0.0939156667,56.7000000000,4.6875000000,-0.5000000000,21.6250000000,image22.jpg,4403.8260150000
4,50.8634565000,-0.0939165000,56.7000000000,7.6875000000,0.0000000000,20.6875000000,image23.jpg,4604.1348070000
4,50.8634576667,-0.0939171667,56.7000000000,6.1875000000,-1.3125000000,21.0625000000,image24.jpg,4804.2661960000
4,50.8634586667,-0.0939176667,56.7000000000,6.6250000000,-0.5000000000,22.3750000000,image25.jpg,5004.2215380000
4,50.8634596667,-0.0939185000,56.7000000000,6.1250000000,-0.6250000000,22.5625000000,image26.jpg,5203.7485820000
4,50.8634608333,-0.0939191667,56.7000000000,7.1250000000,-1.1875000000,23.1250000000,image27.jpg,5403.4245380000
4,50.8634618333,-0.0939198333,56.7000000000,8.4375000000,-0.6250000000,23.3125000000,image28.jpg,5603.5086340000
4,50.8634628333,-0.0939203333,56.7000000000,8.0625000000,-0.2500000000,24.2500000000,image29.jpg,5804.0132660000
4,50.8634638333,-0.0939208333,56.7000000000,7.5625000000,0.6875000000,25.8750000000,image30.jpg,6003.6700030000
4,50.8634648333,-0.0939213333,56.7000000000,7.5000000000,-0.1250000000,26.8750000000,image31.jpg,6203.7172750000
4,50.8634658333,-0.0939218333,56.7000000000,6.7500000000,-0.5000000000,26.9375000000,image32.jpg,6403.7899640000
4,50.8634670000,-0.0939225000,56.7000000000,8.0625000000,-0.8125000000,26.4375000000,image33.jpg,6603.8362460000
4,50.8634680000,-0.0939228333,56.7000000000,6.5625000000,-1.1250000000,27.1250000000,image34.jpg,6803.9483120000
4,50.8634691667,-0.0939233333,56.7000000000,6.0625000000,-0.1250000000,26.0625000000,image35.jpg,7004.0182410000
4,50.8634701667,-0.0939241667,56.7000000000,6.5625000000,-0.9375000000,23.3125000000,image36.jpg,7204.0665540000
4,50.8634711667,-0.0939246667,56.7000000000,5.5625000000,-1.4375000000,22.5000000000,image37.jpg,7404.1514310000
4,50.8634721667,-0.0939253333,56.7000000000,6.5625000000,-2.4375000000,22.1875000000,image38.jpg,7604.2005780000
4,50.8634731667,-0.0939258333,56.7000000000,6.1875000000,-2.0625000000,22.6250000000,image39.jpg,7804.1678990000
4,50.8634743333,-0.0939265000,56.7000000000,4.3125000000,-2.2500000000,23.2500000000,image40.jpg,8004.4303350000
4,50.8634753333,-0.0939271667,56.7000000000,4.5000000000,-2.5625000000,24.0625000000,image41.jpg,8204.3986970000
4,50.8634765000,-0.0939276667,56.7000000000,3.6875000000,-1.7500000000,25.0625000000,image42.jpg,8404.4597190000
4,50.8634775000,-0.0939283333,56.7000000000,4.5625000000,-0.8750000000,24.3750000000,image43.jpg,8604.5353250000
4,50.8634785000,-0.0939288333,56.7000000000,4.3125000000,0.5625000000,23.1875000000,image44.jpg,8805.3096030000
4,50.8634795000,-0.0939296667,56.7000000000,5.7500000000,-0.3750000000,22.1250000000,image45.jpg,9005.5702150000
4,50.8634805000,-0.0939305000,56.7000000000,7.6250000000,-0.8750000000,21.3125000000,image46.jpg,9205.5924860000
4,50.8634815000,-0.0939311667,56.7000000000,7.1875000000,-1.2500000000,21.0625000000,image47.jpg,9405.7508560000
4,50.8634825000,-0.0939320000,56.7000000000,9.0000000000,-1.1250000000,20.3125000000,image48.jpg,9605.8101590000
4,50.8634833333,-0.0939328333,56.7000000000,10.1250000000,-0.4375000000,19.2500000000,image49.jpg,9804.8878640000
4,50.8634845000,-0.0939335000,56.7000000000,9.3125000000,0.5625000000,19.0000000000,image50.jpg,10004.9745120000
4,50.8634855000,-0.0939345000,56.7000000000,10.3125000000,-0.3750000000,19.6875000000,image51.jpg,10205.1967380000
4,50.8634865000,-0.0939350000,56.7000000000,8.8750000000,-0.0625000000,20.1875000000,image52.jpg,10405.9016380000
4,50.8634876667,-0.0939360000,56.7000000000,8.8125000000,-1.1875000000,20.1875000000,image53.jpg,10606.1984500000
4,50.8634888333,-0.0939366667,56.7000000000,7.8125000000,-1.5625000000,19.7500000000,image54.jpg,10806.3424440000
4,50.8634901667,-0.0939376667,56.7000000000,7.6250000000,-0.7500000000,18.6250000000,image55.jpg,11006.3845070000
4,50.8634913333,-0.0939388333,56.7000000000,8.2500000000,0.8125000000,17.1875000000,image56.jpg,11205.9690540000
4,50.8634926667,-0.0939398333,56.7000000000,8.0000000000,-0.4375000000,16.0625000000,image57.jpg,11405.4745350000
4,50.8634938333,-0.0939410000,56.8000000000,9.6250000000,-0.6250000000,16.9375000000,image58.jpg,11605.5263380000
4,50.8634953333,-0.0939420000,56.8000000000,8.8750000000,0.6250000000,18.0625000000,image59.jpg,11806.1375890000
4,50.8634965000,-0.0939428333,56.8000000000,8.5000000000,-0.7500000000,20.2500000000,image60.jpg,12006.6415430000
4,50.8634978333,-0.0939438333,56.8000000000,9.0625000000,-1.1250000000,19.1875000000,image61.jpg,12206.6933470000
4,50.8634991667,-0.0939448333,56.8000000000,7.7500000000,-1.3125000000,17.9375000000,image62.jpg,12406.7622340000
4,50.8635005000,-0.0939460000,56.8000000000,7.5000000000,-0.8750000000,16.8750000000,image63.jpg,12606.8307040000
4,50.8635016667,-0.0939470000,56.8000000000,8.3750000000,-0.8125000000,16.8750000000,image64.jpg,12805.9627860000
4,50.8635030000,-0.0939480000,56.8000000000,8.1875000000,-2.0625000000,16.6875000000,image65.jpg,13006.0874570000
4,50.8635041667,-0.0939491667,56.8000000000,7.8125000000,-1.5625000000,16.3125000000,image66.jpg,13206.1348850000
4,50.8635055000,-0.0939501667,56.8000000000,7.8750000000,-1.0625000000,16.1875000000,image67.jpg,13406.7358740000
4,50.8635068333,-0.0939511667,56.8000000000,6.1875000000,-1.1875000000,16.5000000000,image68.jpg,13606.2466680000
4,50.8635080000,-0.0939523333,56.8000000000,6.6250000000,-0.6250000000,15.5625000000,image69.jpg,13806.3048780000
4,50.8635091667,-0.0939535000,56.8000000000,7.5625000000,-0.0625000000,14.8750000000,image70.jpg,14006.4041830000
4,50.8635103333,-0.0939545000,56.8000000000,8.5625000000,0.2500000000,13.5625000000,image71.jpg,14206.4290060000
4,50.8635116667,-0.0939555000,56.8000000000,7.1250000000,-0.1875000000,13.3750000000,image72.jpg,14406.4592980000
4,50.8635128333,-0.0939568333,56.8000000000,7.0000000000,-1.4375000000,13.6250000000,image73.jpg,14606.5197990000
4,50.8635140000,-0.0939578333,56.8000000000,6.8750000000,-1.5000000000,14.5000000000,image74.jpg,14806.7862970000
4,50.8635151667,-0.0939590000,56.8000000000,6.5625000000,-0.9375000000,15.1250000000,image75.jpg,15006.6545520000
4,50.8635165000,-0.0939601667,56.8000000000,6.6250000000,-0.3750000000,15.7500000000,image76.jpg,15206.7335440000
4,50.8635178333,-0.0939611667,56.8000000000,7.1250000000,-1.1250000000,16.6250000000,image77.jpg,15406.8516510000
4,50.8635190000,-0.0939621667,56.8000000000,6.4375000000,-0.7500000000,17.4375000000,image78.jpg,15606.8828290000
4,50.8635203333,-0.0939631667,56.8000000000,7.4375000000,-1.5000000000,17.8125000000,image79.jpg,15806.9446320000
4,50.8635215000,-0.0939643333,56.8000000000,7.9375000000,-2.1875000000,18.2500000000,image80.jpg,16007.0165400000
4,50.8635228333,-0.0939651667,56.8000000000,8.3125000000,-0.5625000000,18.6875000000,image81.jpg,16207.1256370000
4,50.8635240000,-0.0939663333,56.8000000000,7.2500000000,-0.9375000000,17.1875000000,image82.jpg,16407.9858030000
4,50.8635253333,-0.0939675000,56.8000000000,7.8750000000,-1.6250000000,15.5625000000,image83.jpg,16608.1274010000
4,50.8635265000,-0.0939685000,56.8000000000,8.1250000000,-1.2500000000,14.2500000000,image84.jpg,16808.1809230000
4,50.8635278333,-0.0939696667,56.8000000000,5.8750000000,-1.0625000000,12.4375000000,image85.jpg,17008.2091310000
4,50.8635290000,-0.0939710000,56.8000000000,6.6875000000,-1.3125000000,9.7500000000,image86.jpg,17208.2066610000
4,50.8635301667,-0.0939723333,56.8000000000,6.0000000000,-1.2500000000,6.7500000000,image87.jpg,17407.4356220000
4,50.8635311667,-0.0939738333,56.8000000000,6.9375000000,-2.2500000000,5.8750000000,image88.jpg,17607.4787790000
4,50.8635323333,-0.0939750000,56.8000000000,4.4375000000,-1.6875000000,5.1250000000,image89.jpg,17807.8229370000
4,50.8635333333,-0.0939766667,56.8000000000,5.6875000000,-1.0625000000,3.7500000000,image90.jpg,18008.4789280000
4,50.8635345000,-0.0939780000,56.8000000000,5.7500000000,-2.2500000000,3.4375000000,image91.jpg,18208.6462040000
4,50.8635356667,-0.0939795000,56.8000000000,5.3125000000,-2.9375000000,4.4375000000,image92.jpg,18408.7278000000
4,50.8635366667,-0.0939810000,56.8000000000,6.7500000000,-2.6875000000,6.0000000000,image93.jpg,18608.7028820000
4,50.8635378333,-0.0939821667,56.9000000000,5.5625000000,-0.7500000000,6.4375000000,image94.jpg,18808.0192940000
4,50.8635388333,-0.0939835000,56.8000000000,6.2500000000,-1.5000000000,6.8750000000,image95.jpg,19007.9617180000
4,50.8635398333,-0.0939850000,56.9000000000,7.7500000000,-0.0625000000,7.2500000000,image96.jpg,19208.0372720000
4,50.8635408333,-0.0939863333,56.9000000000,6.5000000000,0.0000000000,6.3750000000,image97.jpg,19408.6007600000
4,50.8635418333,-0.0939878333,56.9000000000,7.4375000000,0.0000000000,4.6875000000,image98.jpg,19609.1483620000
4,50.8635430000,-0.0939890000,56.9000000000,7.3125000000,-0.2500000000,3.7500000000,image99.jpg,19809.2478760000
4,50.8635440000,-0.0939905000,56.9000000000,6.8750000000,-0.5000000000,2.8125000000,image100.jpg,20009.2716570000
4,50.8635448333,-0.0939918333,56.9000000000,5.9375000000,-0.8750000000,1.4375000000,image101.jpg,20209.3089280000
4,50.8635458333,-0.0939935000,56.9000000000,7.0000000000,-1.3750000000,359.6250000000,image102.jpg,20408.4817930000
4,50.8635468333,-0.0939951667,56.9000000000,6.4375000000,-2.4375000000,357.0625000000,image103.jpg,20608.5418260000
4,50.8635475000,-0.0939970000,56.9000000000,8.2500000000,-2.8125000000,356.0000000000,image104.jpg,20808.6547770000
4,50.8635486667,-0.0939985000,56.9000000000,5.8750000000,-1.5000000000,355.6875000000,image105.jpg,21009.3583740000
4,50.8635493333,-0.0940003333,56.9000000000,8.6250000000,-3.1875000000,355.3750000000,image106.jpg,21208.7193190000
4,50.8635503333,-0.0940018333,56.9000000000,7.7500000000,-2.5000000000,355.7500000000,image107.jpg,21408.8079990000
4,50.8635511667,-0.0940036667,56.9000000000,7.1250000000,-2.1875000000,355.5625000000,image108.jpg,21608.8714690000
4,50.8635521667,-0.0940053333,56.9000000000,7.6250000000,-3.5000000000,355.1875000000,image109.jpg,21808.9361370000
4,50.8635530000,-0.0940070000,56.9000000000,7.1250000000,-2.8125000000,354.1875000000,image110.jpg,22009.0004410000
4,50.8635538333,-0.0940086667,56.9000000000,8.4375000000,-1.1250000000,353.8125000000,image111.jpg,22209.0778180000
4,50.8635546667,-0.0940101667,56.9000000000,7.6875000000,-1.0625000000,353.3125000000,image112.jpg,22409.2936890000
4,50.8635555000,-0.0940118333,56.9000000000,9.7500000000,-0.9375000000,352.9375000000,image113.jpg,22609.1974140000
4,50.8635563333,-0.0940135000,56.9000000000,9.1875000000,-1.8125000000,353.0625000000,image114.jpg,22809.3064590000
4,50.8635570000,-0.0940151667,56.9000000000,10.1250000000,-2.3125000000,353.7500000000,image115.jpg,23009.3489390000
4,50.8635580000,-0.0940168333,56.9000000000,9.3750000000,-2.3750000000,354.5000000000,image116.jpg,23209.4177740000
4,50.8635590000,-0.0940185000,56.9000000000,9.6875000000,-2.0625000000,355.5000000000,image117.jpg,23409.5030150000
4,50.8635598333,-0.0940201667,56.9000000000,8.3125000000,-1.8125000000,355.0625000000,image118.jpg,23609.5511200000
4,50.8635606667,-0.0940218333,56.9000000000,9.3750000000,-1.8125000000,354.3125000000,image119.jpg,23809.7220420000
4,50.8635615000,-0.0940236667,56.9000000000,7.5625000000,-2.0625000000,352.5625000000,image120.jpg,24010.5439780000
4,50.8635623333,-0.0940253333,56.9000000000,7.0625000000,-2.3750000000,350.3125000000,image121.jpg,24210.7809960000
4,50.8635631667,-0.0940270000,56.9000000000,7.5000000000,-1.1875000000,349.7500000000,image122.jpg,24410.8117560000
4,50.8635640000,-0.0940288333,56.9000000000,7.3125000000,-1.6250000000,349.8750000000,image123.jpg,24610.8275690000
4,50.8635646667,-0.0940303333,56.9000000000,8.8750000000,-1.7500000000,350.6875000000,image124.jpg,24810.8685380000
4,50.8635653333,-0.0940320000,56.9000000000,6.0625000000,-0.4375000000,351.8125000000,image125.jpg,25010.0536430000
4,50.8635661667,-0.0940338333,56.9000000000,8.6250000000,-0.5000000000,351.5000000000,image126.jpg,25210.1527400000
4,50.8635670000,-0.0940355000,56.9000000000,8.1875000000,-1.8125000000,351.5625000000,image127.jpg,25410.4716360000
4,50.8635678333,-0.0940370000,56.9000000000,6.9375000000,-1.6250000000,351.9375000000,image128.jpg,25611.1454400000
4,50.8635685000,-0.0940388333,56.9000000000,8.0625000000,-1.8750000000,351.8125000000,image129.jpg,25811.3010490000
4,50.8635693333,-0.0940405000,56.9000000000,8.3125000000,-3.0000000000,351.8125000000,image130.jpg,26011.3543630000
4,50.8635701667,-0.0940420000,56.9000000000,7.7500000000,-2.8125000000,351.3750000000,image131.jpg,26211.4162710000
4,50.8635710000,-0.0940436667,56.9000000000,6.5625000000,-0.6875000000,351.4375000000,image132.jpg,26410.5266340000
4,50.8635716667,-0.0940455000,56.9000000000,8.3125000000,-0.8750000000,352.1875000000,image133.jpg,26610.5755720000
4,50.8635726667,-0.0940471667,56.9000000000,7.0000000000,-1.7500000000,352.5625000000,image134.jpg,26810.6773770000
4,50.8635735000,-0.0940488333,56.9000000000,8.0000000000,-0.4375000000,354.5000000000,image135.jpg,27011.2603450000
4,50.8635741667,-0.0940503333,56.9000000000,8.1250000000,-1.0000000000,355.3125000000,image136.jpg,27211.7129960000
4,50.8635751667,-0.0940520000,56.9000000000,8.3125000000,-1.8125000000,355.1250000000,image137.jpg,27411.7843830000
4,50.8635760000,-0.0940536667,56.9000000000,7.7500000000,-1.6875000000,354.5000000000,image138.jpg,27611.8482700000
4,50.8635768333,-0.0940553333,56.9000000000,7.5625000000,-1.1250000000,353.0625000000,image139.jpg,27811.7716310000
4,50.8635776667,-0.0940568333,56.9000000000,8.0000000000,-0.6875000000,352.4375000000,image140.jpg,28011.0321550000
4,50.8635783333,-0.0940583333,56.9000000000,7.3750000000,-0.3750000000,350.5625000000,image141.jpg,28211.0640100000
4,50.8635791667,-0.0940601667,56.9000000000,7.1875000000,-0.0625000000,348.4375000000,image142.jpg,28411.4175950000
4,50.8635796667,-0.0940620000,56.9000000000,8.8750000000,-1.0000000000,347.2500000000,image143.jpg,28611.2706930000
4,50.8635805000,-0.0940636667,56.9000000000,8.3750000000,-1.5625000000,346.6250000000,image144.jpg,28811.3416110000
4,50.8635811667,-0.0940656667,56.9000000000,7.7500000000,-2.4375000000,345.6250000000,image145.jpg,29011.3934660000
4,50.8635818333,-0.0940673333,56.9000000000,7.1875000000,-1.5625000000,344.6875000000,image146.jpg,29211.4691250000
4,50.8635823333,-0.0940695000,56.9000000000,9.6875000000,-1.6250000000,343.8125000000,image147.jpg,29411.5363450000
4,50.8635830000,-0.0940711667,56.9000000000,7.1875000000,-1.8125000000,342.8750000000,image148.jpg,29611.5846580000
4,50.8635836667,-0.0940728333,56.9000000000,8.6875000000,-1.0000000000,342.8125000000,image149.jpg,29811.7327670000
4,50.8635843333,-0.0940748333,57.0000000000,8.3125000000,-0.5000000000,343.1250000000,image150.jpg,30011.9750460000
4,50.8635850000,-0.0940765000,57.0000000000,9.2500000000,0.9375000000,345.5625000000,image151.jpg,30211.8652800000
4,50.8635856667,-0.0940781667,57.0000000000,9.2500000000,1.0000000000,348.5000000000,image152.jpg,30411.9523970000
4,50.8635863333,-0.0940796667,57.0000000000,8.1250000000,0.2500000000,353.4375000000,image153.jpg,30612.0235760000
4,50.8635871667,-0.0940810000,57.0000000000,7.0000000000,1.4375000000,356.5000000000,image154.jpg,30812.0679830000
4,50.8635880000,-0.0940825000,57.0000000000,7.2500000000,1.3125000000,358.1875000000,image155.jpg,31012.1294740000
4,50.8635890000,-0.0940840000,57.0000000000,6.3125000000,0.8750000000,358.7500000000,image156.jpg,31212.2063820000
4,50.8635900000,-0.0940855000,57.0000000000,6.3125000000,0.3125000000,357.5000000000,image157.jpg,31412.4331920000
4,50.8635908333,-0.0940870000,57.0000000000,6.3750000000,0.5000000000,356.1875000000,image158.jpg,31613.1622590000
4,50.8635916667,-0.0940883333,57.0000000000,7.9375000000,1.7500000000,358.8750000000,image159.jpg,31813.3542750000
4,50.8635926667,-0.0940896667,57.0000000000,6.6875000000,-0.0625000000,1.4375000000,image160.jpg,32013.5104570000
4,50.8635936667,-0.0940910000,57.0000000000,5.3125000000,-1.1875000000,3.3750000000,image161.jpg,32213.4958000000
4,50.8635946667,-0.0940923333,57.0000000000,5.6250000000,0.8125000000,4.8750000000,image162.jpg,32413.4367650000
4,50.8635958333,-0.0940936667,57.0000000000,5.3750000000,2.2500000000,6.3125000000,image163.jpg,32612.7578650000
4,50.8635968333,-0.0940950000,57.0000000000,5.2500000000,1.7500000000,6.8750000000,image164.jpg,32812.8736810000
4,50.8635980000,-0.0940961667,57.0000000000,5.2500000000,2.3750000000,6.1875000000,image165.jpg,33013.1979940000
4,50.8635990000,-0.0940975000,57.0000000000,4.5000000000,1.8125000000,5.5000000000,image166.jpg,33214.0547740000
4,50.8636000000,-0.0940988333,57.0000000000,5.5625000000,0.8750000000,5.6250000000,image167.jpg,33414.1572560000
4,50.8636010000,-0.0941003333,57.0000000000,5.7500000000,0.9375000000,3.8750000000,image168.jpg,33614.2043190000
4,50.8636020000,-0.0941016667,57.0000000000,5.5625000000,0.1875000000,3.5625000000,image169.jpg,33814.3912310000
4,50.8636031667,-0.0941028333,57.1000000000,4.4375000000,0.0000000000,3.3125000000,image170.jpg,34013.3662770000
4,50.8636040000,-0.0941043333,57.1000000000,4.3750000000,0.8125000000,2.1875000000,image171.jpg,34213.3912040000
4,50.8636050000,-0.0941060000,57.1000000000,4.3125000000,-0.5000000000,0.3750000000,image172.jpg,34413.4100370000
4,50.8636060000,-0.0941075000,57.1000000000,4.7500000000,-0.4375000000,357.1250000000,image173.jpg,34614.2768700000
4,50.8636068333,-0.0941090000,57.1000000000,4.6875000000,-0.4375000000,354.3750000000,image174.jpg,34814.9151000000
4,50.8636076667,-0.0941108333,57.1000000000,5.0000000000,-0.7500000000,352.5000000000,image175.jpg,35014.4639690000
4,50.8636083333,-0.0941121667,57.1000000000,5.1875000000,-0.3750000000,351.8750000000,image176.jpg,35214.5525960000
4,50.8636091667,-0.0941140000,57.1000000000,5.3750000000,-1.3750000000,352.0625000000,image177.jpg,35414.5018430000
4,50.8636101667,-0.0941156667,57.1000000000,6.1875000000,-1.8125000000,353.4375000000,image178.jpg,35613.8709130000
4,50.8636110000,-0.0941173333,57.1000000000,5.8750000000,-0.7500000000,353.8125000000,image179.jpg,35813.9179250000
4,50.8636118333,-0.0941190000,57.1000000000,6.5625000000,-0.8750000000,354.4375000000,image180.jpg,36014.2495300000
4,50.8636126667,-0.0941206667,57.1000000000,7.1250000000,-1.5000000000,354.5000000000,image181.jpg,36214.7971840000
4,50.8636135000,-0.0941223333,57.1000000000,7.6250000000,-2.2500000000,355.2500000000,image182.jpg,36414.1989640000
4,50.8636143333,-0.0941238333,57.1000000000,8.6875000000,-1.3125000000,356.1250000000,image183.jpg,36614.3141540000
4,50.8636151667,-0.0941253333,57.1000000000,9.1250000000,-1.6250000000,357.3125000000,image184.jpg,36814.2757460000
4,50.8636161667,-0.0941268333,57.1000000000,7.3125000000,0.0625000000,357.9375000000,image185.jpg,37014.5888610000
4,50.8636168333,-0.0941283333,57.1000000000,9.1250000000,-0.4375000000,358.6250000000,image186.jpg,37214.3768520000
4,50.8636178333,-0.0941296667,57.1000000000,7.1250000000,0.6250000000,359.9375000000,image187.jpg,37414.4649070000
4,50.8636188333,-0.0941311667,57.1000000000,8.7500000000,-0.1250000000,359.8125000000,image188.jpg,37614.7505720000
4,50.8636196667,-0.0941326667,57.1000000000,8.3750000000,0.3125000000,0.3750000000,image189.jpg,37814.5947640000
4,50.8636206667,-0.0941340000,57.1000000000,6.8750000000,0.5625000000,359.9375000000,image190.jpg,38014.5960440000
4,50.8636215000,-0.0941356667,57.1000000000,7.3750000000,0.0000000000,357.6250000000,image191.jpg,38214.7601430000
4,50.8636226667,-0.0941373333,57.1000000000,6.5000000000,-0.2500000000,357.3750000000,image192.jpg,38414.8233010000
4,50.8636235000,-0.0941390000,57.1000000000,8.6875000000,0.6250000000,357.4375000000,image193.jpg,38614.8993750000
4,50.8636245000,-0.0941406667,57.1000000000,8.1875000000,0.8125000000,357.3750000000,image194.jpg,38814.9432620000
4,50.8636255000,-0.0941423333,57.1000000000,7.9375000000,-0.4375000000,357.6875000000,image195.jpg,39015.4848740000
4,50.8636265000,-0.0941440000,57.1000000000,8.7500000000,-0.1875000000,356.9375000000,image196.jpg,39216.1269070000
4,50.8636273333,-0.0941455000,57.1000000000,7.6250000000,0.0625000000,355.8750000000,image197.jpg,39416.0855820000
4,50.8636281667,-0.0941471667,57.1000000000,6.4375000000,0.0000000000,355.1875000000,image198.jpg,39616.1283220000
4,50.8636291667,-0.0941490000,57.1000000000,7.1875000000,0.0000000000,355.1250000000,image199.jpg,39816.2065320000
4,50.8636301667,-0.0941505000,57.1000000000,7.5625000000,0.3750000000,356.5625000000,image200.jpg,40015.6466470000
4,50.8636311667,-0.0941521667,57.1000000000,8.3750000000,0.6250000000,357.3750000000,image201.jpg,40215.4904210000
4,50.8636320000,-0.0941538333,57.1000000000,7.8750000000,-0.3750000000,357.8125000000,image202.jpg,40415.4896180000
4,50.8636328333,-0.0941553333,57.1000000000,9.4375000000,1.0625000000,358.5625000000,image203.jpg,40616.1750900000
4,50.8636340000,-0.0941570000,57.1000000000,8.3125000000,0.0625000000,358.5000000000,image204.jpg,40816.7050880000
4,50.8636351667,-0.0941586667,57.1000000000,8.6875000000,-1.4375000000,359.8750000000,image205.jpg,41016.8995520000
4,50.8636361667,-0.0941603333,57.1000000000,9.1875000000,-0.5625000000,0.2500000000,image206.jpg,41216.8936970000
4,50.8636371667,-0.0941618333,57.1000000000,8.5625000000,0.1250000000,359.4375000000,image207.jpg,41416.8784660000
4,50.8636381667,-0.0941636667,57.1000000000,8.2500000000,-0.5625000000,358.0000000000,image208.jpg,41615.8907010000
4,50.8636390000,-0.0941655000,57.1000000000,9.5625000000,-0.5625000000,355.0000000000,image209.jpg,41816.1108430000
4,50.8636398333,-0.0941673333,57.1000000000,11.5000000000,-0.4375000000,354.5000000000,image210.jpg,42016.2275450000
4,50.8636408333,-0.0941690000,57.1000000000,11.5625000000,0.5625000000,354.5625000000,image211.jpg,42216.9869770000
4,50.8636418333,-0.0941706667,57.1000000000,11.4375000000,0.1875000000,357.8125000000,image212.jpg,42417.4355660000
4,50.8636428333,-0.0941723333,57.1000000000,11.9375000000,0.0000000000,1.5625000000,image213.jpg,42617.2364740000
4,50.8636438333,-0.0941740000,57.2000000000,10.9375000000,-0.0625000000,1.6875000000,image214.jpg,42817.4644300000
4,50.8636451667,-0.0941755000,57.1000000000,11.1250000000,-0.3750000000,2.4375000000,image215.jpg,43016.7779770000
4,50.8636461667,-0.0941771667,57.2000000000,11.6250000000,0.6875000000,3.0000000000,image216.jpg,43216.5223730000
4,50.8636471667,-0.0941786667,57.2000000000,10.2500000000,0.0625000000,3.4375000000,image217.jpg,43416.7097020000
4,50.8636481667,-0.0941803333,57.1000000000,10.5625000000,-1.0000000000,3.0625000000,image218.jpg,43617.1502690000
4,50.8636493333,-0.0941818333,57.2000000000,11.0000000000,-0.5625000000,3.3125000000,image219.jpg,43816.9763350000
4,50.8636505000,-0.0941831667,57.2000000000,9.8750000000,0.1875000000,2.9375000000,image220.jpg,44016.9051130000
4,50.8636513333,-0.0941846667,57.2000000000,9.3750000000,0.7500000000,0.8125000000,image221.jpg,44216.8658190000
4,50.8636523333,-0.0941863333,57.2000000000,9.2500000000,0.4375000000,357.8125000000,image222.jpg,44417.5048310000
4,50.8636533333,-0.0941880000,57.2000000000,9.3125000000,-0.1875000000,356.0000000000,image223.jpg,44617.4495460000
4,50.8636541667,-0.0941896667,57.2000000000,8.8750000000,-1.5625000000,353.6875000000,image224.jpg,44817.4305140000
4,50.8636551667,-0.0941916667,57.2000000000,9.7500000000,-1.5000000000,352.6250000000,image225.jpg,45017.4700250000
4,50.8636560000,-0.0941935000,57.2000000000,10.2500000000,-1.1250000000,351.4375000000,image226.jpg,45217.9878860000
4,50.8636568333,-0.0941953333,57.2000000000,9.1875000000,-0.8750000000,350.7500000000,image227.jpg,45417.6705090000
4,50.8636576667,-0.0941973333,57.2000000000,10.0625000000,-0.5625000000,351.6875000000,image228.jpg,45617.7697100000
4,50.8636586667,-0.0941991667,57.2000000000,10.7500000000,-1.0625000000,351.9375000000,image229.jpg,45817.8186490000
4,50.8636595000,-0.0942010000,57.2000000000,10.3125000000,-1.4375000000,352.4375000000,image230.jpg,46017.9893100000
4,50.8636603333,-0.0942030000,57.2000000000,10.8125000000,-1.1250000000,352.5000000000,image231.jpg,46217.9353280000
4,50.8636613333,-0.0942050000,57.2000000000,9.0625000000,-0.2500000000,351.4375000000,image232.jpg,46418.1149480000
4,50.8636621667,-0.0942068333,57.2000000000,11.4375000000,0.9375000000,350.1875000000,image233.jpg,46618.6351020000
4,50.8636631667,-0.0942086667,57.2000000000,9.3750000000,-0.8750000000,348.2500000000,image234.jpg,46819.2217680000
4,50.8636638333,-0.0942108333,57.2000000000,8.9375000000,-1.7500000000,346.1875000000,image235.jpg,47019.4432650000
4,50.8636646667,-0.0942128333,57.2000000000,9.6875000000,-1.8125000000,345.0625000000,image236.jpg,47219.4391280000
4,50.8636653333,-0.0942150000,57.2000000000,10.4375000000,0.1875000000,344.9375000000,image237.jpg,47419.3725940000
4,50.8636660000,-0.0942170000,57.2000000000,9.7500000000,-0.7500000000,344.1875000000,image238.jpg,47619.2544950000
4,50.8636668333,-0.0942191667,57.2000000000,9.8125000000,-1.3750000000,343.1250000000,image239.jpg,47818.5347080000
4,50.8636675000,-0.0942213333,57.2000000000,9.6250000000,-2.1875000000,342.0000000000,image240.jpg,48018.6281790000
4,50.8636683333,-0.0942235000,57.2000000000,10.0000000000,-2.1875000000,342.0625000000,image241.jpg,48219.2589610000
4,50.8636688333,-0.0942258333,57.2000000000,10.5625000000,-2.5000000000,343.2500000000,image242.jpg,48420.2889770000
4,50.8636696667,-0.0942278333,57.2000000000,9.8750000000,-2.7500000000,344.3750000000,image243.jpg,48620.6791250000
4,50.8636706667,-0.0942300000,57.2000000000,9.8750000000,-1.6875000000,344.8125000000,image244.jpg,48820.2381500000
4,50.8636713333,-0.0942321667,57.2000000000,8.7500000000,-2.1875000000,343.7500000000,image245.jpg,49020.1801060000
4,50.8636720000,-0.0942343333,57.2000000000,9.9375000000,-2.5000000000,343.2500000000,image246.jpg,49219.0592620000
4,50.8636726667,-0.0942365000,57.2000000000,9.3750000000,-1.8750000000,341.7500000000,image247.jpg,49419.3234170000
4,50.8636733333,-0.0942388333,57.2000000000,9.1875000000,-3.1250000000,338.6875000000,image248.jpg,49620.3375460000
4,50.8636738333,-0.0942413333,57.2000000000,9.8750000000,-2.8125000000,336.8750000000,image249.jpg,49820.3942980000
4,50.8636743333,-0.0942435000,57.2000000000,9.5000000000,-2.2500000000,334.7500000000,image250.jpg,50020.4761020000
4,50.8636750000,-0.0942460000,57.2000000000,9.1250000000,-3.1250000000,334.3125000000,image251.jpg,50220.6566070000
4,50.8636755000,-0.0942483333,57.2000000000,8.8125000000,-1.9375000000,334.7500000000,image252.jpg,50420.5184560000
4,50.8636760000,-0.0942506667,57.2000000000,10.1250000000,-1.4375000000,335.3750000000,image253.jpg,50620.0264370000
4,50.8636766667,-0.0942530000,57.2000000000,8.6875000000,-2.3125000000,335.8750000000,image254.jpg,50819.9406830000
4,50.8636771667,-0.0942555000,57.3000000000,10.6875000000,-1.6250000000,335.9375000000,image255.jpg,51019.9307130000
4,50.8636778333,-0.0942578333,57.2000000000,10.0000000000,-2.9375000000,335.8750000000,image256.jpg,51220.5775900000
4,50.8636783333,-0.0942601667,57.2000000000,10.7500000000,-4.0000000000,335.8125000000,image257.jpg,51420.2546400000
4,50.8636788333,-0.0942626667,57.3000000000,12.2500000000,-5.8125000000,336.5625000000,image258.jpg,51620.3791540000
4,50.8636795000,-0.0942650000,57.2000000000,12.0625000000,-5.6250000000,336.6250000000,image259.jpg,51820.5513780000
4,50.8636800000,-0.0942668333,57.2000000000,11.3125000000,-3.6875000000,338.0625000000,image260.jpg,52020.4692180000
4,50.8636805000,-0.0942691667,57.2000000000,13.7500000000,-2.1875000000,337.1875000000,image261.jpg,52220.5201880000
4,50.8636811667,-0.0942711667,57.2000000000,9.3125000000,-0.3125000000,336.7500000000,image262.jpg,52420.5523550000
4,50.8636813333,-0.0942731667,57.2000000000,12.8125000000,0.8750000000,336.1875000000,image263.jpg,52620.5305090000
4,50.8636821667,-0.0942753333,57.3000000000,10.0000000000,1.1875000000,333.7500000000,image264.jpg,52820.6287210000
4,50.8636825000,-0.0942775000,57.3000000000,11.7500000000,0.4375000000,332.5000000000,image265.jpg,53020.6684400000
4,50.8636828333,-0.0942795000,57.3000000000,10.0000000000,1.5000000000,331.8125000000,image266.jpg,53220.7067530000
4,50.8636831667,-0.0942816667,57.3000000000,8.5625000000,1.6250000000,331.5000000000,image267.jpg,53420.9287180000
4,50.8636836667,-0.0942840000,57.3000000000,7.8125000000,0.3750000000,328.4375000000,image268.jpg,53620.8771320000
4,50.8636838333,-0.0942861667,57.3000000000,6.5625000000,0.2500000000,324.5625000000,image269.jpg,53821.0188350000
4,50.8636840000,-0.0942885000,57.3000000000,8.3125000000,-1.1875000000,321.2500000000,image270.jpg,54020.9661030000
4,50.8636840000,-0.0942908333,57.3000000000,8.1250000000,-1.7500000000,318.8125000000,image271.jpg,54221.6279280000
4,50.8636841667,-0.0942931667,57.3000000000,8.5000000000,-1.5625000000,318.0625000000,image272.jpg,54422.2076150000
4,50.8636841667,-0.0942955000,57.4000000000,8.3125000000,-2.1250000000,317.1875000000,image273.jpg,54622.3649940000
4,50.8636843333,-0.0942978333,57.4000000000,7.1875000000,-2.4375000000,317.0000000000,image274.jpg,54822.1810600000
4,50.8636843333,-0.0943003333,57.4000000000,7.0000000000,-2.1250000000,316.8750000000,image275.jpg,55022.4731320000
4,50.8636843333,-0.0943030000,57.4000000000,7.3125000000,-3.1875000000,317.1250000000,image276.jpg,55221.5572960000
4,50.8636845000,-0.0943055000,57.4000000000,7.6875000000,-3.0625000000,317.4375000000,image277.jpg,55421.6758200000
4,50.8636845000,-0.0943080000,57.4000000000,8.1875000000,-2.4375000000,319.0000000000,image278.jpg,55621.8219500000
4,50.8636846667,-0.0943106667,57.4000000000,8.3125000000,-2.8750000000,321.3750000000,image279.jpg,55822.3970530000
4,50.8636848333,-0.0943131667,57.4000000000,8.8125000000,-2.8750000000,321.2500000000,image280.jpg,56022.6248000000
4,50.8636851667,-0.0943155000,57.4000000000,6.6875000000,-2.5625000000,322.1875000000,image281.jpg,56222.9214040000
4,50.8636853333,-0.0943181667,57.4000000000,8.6875000000,-3.8750000000,322.4375000000,image282.jpg,56423.0485220000
4,50.8636855000,-0.0943205000,57.4000000000,7.8125000000,-3.6250000000,322.0000000000,image283.jpg,56622.3604020000
4,50.8636856667,-0.0943228333,57.4000000000,8.6250000000,-2.6250000000,320.3125000000,image284.jpg,56822.1009960000
4,50.8636856667,-0.0943253333,57.4000000000,7.7500000000,-3.1250000000,320.1250000000,image285.jpg,57022.3067110000
4,50.8636858333,-0.0943276667,57.4000000000,10.1875000000,-3.5000000000,320.2500000000,image286.jpg,57222.6932660000
4,50.8636860000,-0.0943298333,57.4000000000,9.2500000000,-2.1875000000,319.0625000000,image287.jpg,57423.5508800000
4,50.8636860000,-0.0943323333,57.4000000000,8.9375000000,-2.5625000000,317.0000000000,image288.jpg,57623.5117420000
4,50.8636860000,-0.0943346667,57.4000000000,9.3750000000,-2.9375000000,315.8125000000,image289.jpg,57823.3386410000
4,50.8636858333,-0.0943370000,57.4000000000,9.9375000000,-3.2500000000,316.2500000000,image290.jpg,58023.6649850000
4,50.8636860000,-0.0943395000,57.4000000000,10.2500000000,-4.1250000000,318.8125000000,image291.jpg,58222.5587260000
4,50.8636861667,-0.0943421667,57.4000000000,11.0000000000,-3.4375000000,323.6875000000,image292.jpg,58422.8260580000
4,50.8636865000,-0.0943445000,57.4000000000,10.3750000000,-3.5625000000,325.1250000000,image293.jpg,58623.0228660000
4,50.8636868333,-0.0943470000,57.4000000000,10.1250000000,-4.4375000000,327.0625000000,image294.jpg,58823.1737350000
4,50.8636870000,-0.0943496667,57.4000000000,10.5625000000,-3.1250000000,326.7500000000,image295.jpg,59022.8849530000
4,50.8636873333,-0.0943520000,57.4000000000,10.6250000000,-3.8750000000,325.8125000000,image296.jpg,59223.0081650000
4,50.8636875000,-0.0943543333,57.4000000000,11.0625000000,-4.4375000000,325.7500000000,image297.jpg,59423.1223660000
4,50.8636878333,-0.0943568333,57.4000000000,11.9375000000,-4.4375000000,325.3750000000,image298.jpg,59623.5906430000
4,50.8636881667,-0.0943591667,57.4000000000,9.8125000000,-3.6875000000,324.8125000000,image299.jpg,59823.4093640000
4,50.8636883333,-0.0943615000,57.4000000000,11.6875000000,-3.8125000000,324.3125000000,image300.jpg,60023.3397050000
4,50.8636885000,-0.0943638333,57.4000000000,11.1250000000,-3.5625000000,323.2500000000,image301.jpg,60223.6934460000
4,50.8636886667,-0.0943663333,57.4000000000,10.2500000000,-4.6875000000,321.8125000000,image302.jpg,60423.6479540000
4,50.8636890000,-0.0943686667,57.4000000000,10.3125000000,-3.5000000000,322.6875000000,image303.jpg,60623.6905380000
4,50.8636891667,-0.0943711667,57.4000000000,10.8125000000,-3.7500000000,320.9375000000,image304.jpg,60823.6753070000
4,50.8636891667,-0.0943735000,57.4000000000,11.0000000000,-5.9375000000,320.0625000000,image305.jpg,61023.9997240000
4,50.8636893333,-0.0943760000,57.4000000000,11.8125000000,-4.9375000000,320.3125000000,image306.jpg,61223.8750110000
4,50.8636893333,-0.0943783333,57.4000000000,10.9375000000,-3.6875000000,320.6875000000,image307.jpg,61423.9658780000
4,50.8636895000,-0.0943806667,57.4000000000,11.6250000000,-3.3750000000,321.0000000000,image308.jpg,61624.3240460000
4,50.8636896667,-0.0943831667,57.4000000000,10.8125000000,-3.6250000000,321.7500000000,image309.jpg,61825.0842600000
4,50.8636896667,-0.0943855000,57.4000000000,11.8125000000,-4.8125000000,322.3750000000,image310.jpg,62024.9917350000
4,50.8636900000,-0.0943878333,57.4000000000,11.6250000000,-4.1875000000,322.8125000000,image311.jpg,62225.3926130000
4,50.8636900000,-0.0943903333,57.4000000000,12.4375000000,-4.5000000000,322.8750000000,image312.jpg,62425.2046680000
4,50.8636905000,-0.0943928333,57.4000000000,10.5000000000,-4.4375000000,323.2500000000,image313.jpg,62624.6643150000
4,50.8636905000,-0.0943951667,57.4000000000,11.0625000000,-4.5000000000,321.9375000000,image314.jpg,62824.3460520000
4,50.8636906667,-0.0943976667,57.4000000000,9.0000000000,-4.9375000000,319.5625000000,image315.jpg,63024.8376110000
4,50.8636906667,-0.0944001667,57.4000000000,9.3750000000,-4.6875000000,318.7500000000,image316.jpg,63224.9725940000
4,50.8636905000,-0.0944026667,57.4000000000,10.6250000000,-5.3125000000,317.5000000000,image317.jpg,63425.6884840000
4,50.8636905000,-0.0944050000,57.4000000000,10.1250000000,-5.0625000000,317.8125000000,image318.jpg,63625.6211680000
4,50.8636906667,-0.0944076667,57.4000000000,10.1250000000,-5.1250000000,317.8750000000,image319.jpg,63825.8923540000
4,50.8636908333,-0.0944100000,57.4000000000,9.7500000000,-4.6250000000,318.1875000000,image320.jpg,64025.6884190000
4,50.8636908333,-0.0944123333,57.4000000000,10.1250000000,-4.0000000000,318.4375000000,image321.jpg,64224.9036810000
4,50.8636908333,-0.0944146667,57.4000000000,11.0625000000,-2.5625000000,319.1875000000,image322.jpg,64424.8475120000
4,50.8636908333,-0.0944168333,57.4000000000,11.3750000000,-4.2500000000,320.1250000000,image323.jpg,64625.1575530000
4,50.8636911667,-0.0944191667,57.4000000000,12.2500000000,-3.3125000000,320.8125000000,image324.jpg,64825.8192220000
4,50.8636911667,-0.0944216667,57.4000000000,11.6875000000,-3.6250000000,321.5000000000,image325.jpg,65026.2295800000
4,50.8636913333,-0.0944240000,57.4000000000,12.5625000000,-3.5000000000,321.8750000000,image326.jpg,65226.4296690000
4,50.8636916667,-0.0944265000,57.4000000000,10.8750000000,-3.8750000000,322.2500000000,image327.jpg,65426.5657460000
4,50.8636916667,-0.0944288333,57.4000000000,12.9375000000,-2.9375000000,322.6250000000,image328.jpg,65625.7766340000
4,50.8636920000,-0.0944310000,57.4000000000,8.5000000000,-1.6875000000,324.5625000000,image329.jpg,65825.5098840000
4,50.8636920000,-0.0944333333,57.4000000000,14.6250000000,-1.5000000000,330.6875000000,image330.jpg,66025.7941430000
4,50.8636928333,-0.0944351667,57.4000000000,7.3750000000,-0.9375000000,332.8750000000,image331.jpg,66226.0524120000
4,50.8636931667,-0.0944375000,57.4000000000,9.3750000000,-1.4375000000,332.5000000000,image332.jpg,66425.7801930000
4,50.8636936667,-0.0944398333,57.4000000000,8.6875000000,-2.3750000000,330.0000000000,image333.jpg,66625.6955330000
4,50.8636938333,-0.0944421667,57.4000000000,6.3125000000,-1.5000000000,328.1250000000,image334.jpg,66825.7722850000
4,50.8636941667,-0.0944443333,57.4000000000,8.1875000000,-0.4375000000,325.9375000000,image335.jpg,67025.8225770000
4,50.8636945000,-0.0944466667,57.4000000000,7.8750000000,-2.9375000000,323.3750000000,image336.jpg,67225.8725060000
4,50.8636945000,-0.0944491667,57.4000000000,9.0000000000,-2.0625000000,321.0000000000,image337.jpg,67425.8885260000
4,50.8636946667,-0.0944515000,57.4000000000,10.1250000000,-1.3750000000,321.6875000000,image338.jpg,67626.2746120000
4,50.8636950000,-0.0944536667,57.4000000000,10.4375000000,-1.5000000000,326.5000000000,image339.jpg,67826.7550770000
4,50.8636953333,-0.0944560000,57.4000000000,9.2500000000,-1.3125000000,328.3750000000,image340.jpg,68026.1425330000
4,50.8636955000,-0.0944583333,57.4000000000,10.1250000000,-1.2500000000,328.6250000000,image341.jpg,68226.2158470000
4,50.8636960000,-0.0944606667,57.4000000000,8.6875000000,-2.3125000000,328.3125000000,image342.jpg,68426.3085370000
4,50.8636963333,-0.0944628333,57.4000000000,10.4375000000,-0.3125000000,329.2500000000,image343.jpg,68626.4404470000
4,50.8636966667,-0.0944651667,57.4000000000,10.6250000000,0.8750000000,330.0625000000,image344.jpg,68826.5217310000
4,50.8636970000,-0.0944675000,57.4000000000,11.2500000000,0.6250000000,331.3125000000,image345.jpg,69026.5318650000
4,50.8636975000,-0.0944698333,57.4000000000,9.5625000000,-0.8125000000,332.8125000000,image346.jpg,69227.4740130000
4,50.8636980000,-0.0944718333,57.4000000000,9.5000000000,-0.5000000000,335.9375000000,image347.jpg,69427.6832700000
4,50.8636985000,-0.0944736667,57.4000000000,10.1875000000,0.4375000000,338.5000000000,image348.jpg,69627.7531990000
4,50.8636990000,-0.0944756667,57.5000000000,10.7500000000,0.3750000000,339.8750000000,image349.jpg,69828.5237780000
4,50.8636996667,-0.0944780000,57.5000000000,10.5625000000,0.0000000000,340.5000000000,image350.jpg,70028.2943210000
4,50.8637001667,-0.0944798333,57.5000000000,10.1250000000,-1.4375000000,339.7500000000,image351.jpg,70227.3474940000
4,50.8637006667,-0.0944818333,57.5000000000,11.1875000000,-1.0625000000,338.5000000000,image352.jpg,70427.4938320000
4,50.8637011667,-0.0944838333,57.5000000000,10.0000000000,0.6250000000,337.5625000000,image353.jpg,70627.6938690000
4,50.8637018333,-0.0944860000,57.5000000000,10.0000000000,-0.2500000000,339.4375000000,image354.jpg,70828.3364230000
4,50.8637023333,-0.0944878333,57.5000000000,12.1250000000,0.5000000000,339.8750000000,image355.jpg,71028.8975670000
4,50.8637028333,-0.0944893333,57.5000000000,9.8750000000,0.6875000000,340.5625000000,image356.jpg,71228.7788440000
4,50.8637035000,-0.0944913333,57.5000000000,9.5000000000,-0.1875000000,341.1875000000,image357.jpg,71429.0826350000
4,50.8637038333,-0.0944935000,57.5000000000,11.1875000000,-0.2500000000,341.3750000000,image358.jpg,71628.1631010000
4,50.8637045000,-0.0944950000,57.5000000000,10.9375000000,1.2500000000,341.1875000000,image359.jpg,71828.0559400000
4,50.8637048333,-0.0944956667,57.5000000000,5.1875000000,2.3125000000,343.0625000000,image360.jpg,72028.1335250000
4,50.8637045000,-0.0944958333,57.5000000000,14.2500000000,3.0000000000,341.0625000000,image361.jpg,72228.6513350000
4,50.8637053333,-0.0944976667,57.5000000000,11.4375000000,0.0625000000,340.8750000000,image362.jpg,72429.1677380000
4,50.8637058333,-0.0944996667,57.5000000000,10.0625000000,-1.1875000000,341.3125000000,image363.jpg,72629.4117360000
4,50.8637063333,-0.0945018333,57.5000000000,11.4375000000,-0.1875000000,341.6250000000,image364.jpg,72829.4832270000
4,50.8637068333,-0.0945038333,57.5000000000,13.1250000000,2.1250000000,341.0000000000,image365.jpg,73029.5207070000
4,50.8637076667,-0.0945060000,57.5000000000,11.0625000000,1.1875000000,341.8125000000,image366.jpg,73228.4921060000
4,50.8637081667,-0.0945081667,57.5000000000,12.8750000000,-1.1250000000,344.1875000000,image367.jpg,73428.5853170000
4,50.8637090000,-0.0945098333,57.5000000000,11.1250000000,-1.2500000000,345.1250000000,image368.jpg,73628.8189500000
4,50.8637096667,-0.0945116667,57.5000000000,11.0000000000,1.2500000000,345.5625000000,image369.jpg,73828.9691420000
4,50.8637100000,-0.0945136667,57.5000000000,11.3750000000,0.0000000000,345.2500000000,image370.jpg,74028.8850540000
4,50.8637108333,-0.0945160000,57.5000000000,10.1875000000,1.7500000000,345.1250000000,image371.jpg,74228.9928490000
4,50.8637118333,-0.0945183333,57.5000000000,12.4375000000,2.0625000000,345.9375000000,image372.jpg,74429.0514230000
4,50.8637128333,-0.0945206667,57.5000000000,10.1250000000,0.7500000000,345.6250000000,image373.jpg,74629.4786570000
4,50.8637135000,-0.0945231667,57.5000000000,11.4375000000,-2.2500000000,343.7500000000,image374.jpg,74829.4774370000
4,50.8637143333,-0.0945253333,57.5000000000,11.1875000000,-0.5000000000,340.5625000000,image375.jpg,75029.5986700000
4,50.8637151667,-0.0945281667,57.5000000000,8.7500000000,0.5000000000,340.8125000000,image376.jpg,75229.7436010000
4,50.8637160000,-0.0945306667,57.5000000000,10.5625000000,-0.9375000000,341.1875000000,image377.jpg,75429.7299330000
4,50.8637166667,-0.0945330000,57.5000000000,8.7500000000,0.4375000000,343.9375000000,image378.jpg,75629.7952260000
4,50.8637173333,-0.0945353333,57.5000000000,10.6875000000,-0.1250000000,346.7500000000,image379.jpg,75830.3470480000
4,50.8637183333,-0.0945371667,57.5000000000,11.3750000000,1.1250000000,352.6875000000,image380.jpg,76030.7478220000
4,50.8637193333,-0.0945390000,57.5000000000,11.0625000000,1.5000000000,0.2500000000,image381.jpg,76230.8912430000
4,50.8637206667,-0.0945408333,57.5000000000,9.5625000000,2.3750000000,2.5625000000,image382.jpg,76430.8546050000
4,50.8637218333,-0.0945423333,57.6000000000,11.3125000000,2.3125000000,2.5625000000,image383.jpg,76630.9383880000
4,50.8637228333,-0.0945438333,57.6000000000,6.5625000000,0.5000000000,2.0000000000,image384.jpg,76831.6250060000
4,50.8637225000,-0.0945435000,57.6000000000,9.1875000000,1.7500000000,2.2500000000,image385.jpg,77032.1321380000
4,50.8637225000,-0.0945433333,57.6000000000,8.8125000000,1.8125000000,2.2500000000,image386.jpg,77232.0991990000
4,50.8637226667,-0.0945433333,57.6000000000,8.0625000000,0.5000000000,2.1250000000,image387.jpg,77432.2307440000
4,50.8637226667,-0.0945433333,57.6000000000,7.6875000000,0.0000000000,2.1250000000,image388.jpg,77632.2137950000
4,50.8637226667,-0.0945433333,57.6000000000,7.4375000000,-0.2500000000,2.0625000000,image389.jpg,77831.4642150000
4,50.8637226667,-0.0945433333,57.6000000000,7.3125000000,-0.5000000000,2.0625000000,image390.jpg,78031.5496650000
4,50.8637226667,-0.0945433333,57.6000000000,7.1875000000,-0.6250000000,2.0625000000,image391.jpg,78232.0534120000
4,50.8637226667,-0.0945433333,57.6000000000,7.1250000000,-0.6875000000,2.0625000000,image392.jpg,78432.3551190000
4,50.8637226667,-0.0945433333,57.6000000000,7.0625000000,-0.8125000000,2.0625000000,image393.jpg,78633.2211710000
4,50.8637225000,-0.0945433333,57.6000000000,7.0000000000,-0.8750000000,2.0625000000,image394.jpg,78833.2011480000
4,50.8637225000,-0.0945433333,57.6000000000,7.0000000000,-0.9375000000,2.0625000000,image395.jpg,79033.4205100000
4,50.8637225000,-0.0945433333,57.6000000000,7.0000000000,-0.9375000000,2.0625000000,image396.jpg,79233.5687220000
4,50.8637225000,-0.0945433333,57.6000000000,7.0000000000,-0.9375000000,2.0625000000,image397.jpg,79432.3869390000
4,50.8637225000,-0.0945433333,57.6000000000,7.0000000000,-0.9375000000,2.0625000000,image398.jpg,79632.4842650000
4,50.8637225000,-0.0945433333,57.6000000000,7.0000000000,-0.9375000000,2.0625000000,image399.jpg,79832.7000840000
4,50.8637225000,-0.0945433333,57.6000000000,7.0000000000,-0.9375000000,2.0625000000,image400.jpg,80033.2800320000
4,50.8637226667,-0.0945435000,57.6000000000,7.0000000000,-0.9375000000,2.0625000000,image401.jpg,80233.7940390000
4,50.8637226667,-0.0945433333,57.6000000000,7.0000000000,-0.9375000000,2.0625000000,image402.jpg,80433.9118340000
4,50.8637226667,-0.0945435000,57.6000000000,7.0000000000,-0.9375000000,2.0625000000,image403.jpg,80633.9856170000
4,50.8637225000,-0.0945433333,57.6000000000,7.0000000000,-0.9375000000,2.0625000000,image404.jpg,80833.1606180000
4,50.8637225000,-0.0945433333,57.6000000000,7.0000000000,-0.9375000000,2.0625000000,image405.jpg,81033.0182990000
4,50.8637225000,-0.0945433333,57.6000000000,7.0000000000,-0.9375000000,2.0625000000,image406.jpg,81233.0407260000
4,50.8637225000,-0.0945433333,57.6000000000,7.0000000000,-0.9375000000,2.0625000000,image407.jpg,81434.6746700000
4,50.8637225000,-0.0945433333,57.6000000000,7.0000000000,-0.9375000000,2.0625000000,image408.jpg,81634.2997910000
4,50.8637225000,-0.0945433333,57.6000000000,7.0000000000,-0.9375000000,2.0625000000,image409.jpg,81834.1726290000
4,50.8637225000,-0.0945433333,57.6000000000,7.0000000000,-0.9375000000,2.0625000000,image410.jpg,82034.4344400000
4,50.8637225000,-0.0945433333,57.6000000000,7.0000000000,-0.9375000000,2.0625000000,image411.jpg,82234.0914890000
4,50.8637225000,-0.0945433333,57.6000000000,7.0000000000,-0.9375000000,2.0625000000,image412.jpg,82433.5066030000
4,50.8637225000,-0.0945433333,57.6000000000,7.0000000000,-0.9375000000,2.0625000000,image413.jpg,82633.6195020000
4,50.8637225000,-0.0945433333,57.6000000000,7.0000000000,-0.9375000000,2.0625000000,image414.jpg,82834.1985110000
4,50.8637225000,-0.0945433333,57.5000000000,7.0000000000,-0.9375000000,2.0625000000,image415.jpg,83034.8134080000
4,50.8637225000,-0.0945433333,57.6000000000,7.0000000000,-0.9375000000,2.0625000000,image416.jpg,83235.2769440000
4,50.8637225000,-0.0945433333,57.6000000000,7.0000000000,-0.9375000000,2.0625000000,image417.jpg,83434.5615840000
4,50.8637225000,-0.0945433333,57.6000000000,7.0000000000,-0.9375000000,2.0625000000,image418.jpg,83634.3895250000
4,50.8637225000,-0.0945433333,57.5000000000,7.0000000000,-0.9375000000,2.0625000000,image419.jpg,83834.5084660000
4,50.8637225000,-0.0945433333,57.6000000000,7.0000000000,-0.9375000000,2.0625000000,image420.jpg,84034.5792800000
4,50.8637225000,-0.0945433333,57.6000000000,7.0000000000,-0.9375000000,2.0625000000,image421.jpg,84234.9579700000
4,50.8637225000,-0.0945433333,57.6000000000,7.0000000000,-0.9375000000,2.0625000000,image422.jpg,84435.5006770000
4,50.8637226667,-0.0945433333,57.6000000000,7.0000000000,-0.9375000000,2.0625000000,image423.jpg,84636.2476090000
4,50.8637226667,-0.0945433333,57.6000000000,7.0000000000,-0.9375000000,2.0625000000,image424.jpg,84836.4435840000
4,50.8637225000,-0.0945435000,57.6000000000,7.0000000000,-0.9375000000,2.0625000000,image425.jpg,85036.4965850000
4,50.8637225000,-0.0945435000,57.6000000000,7.0000000000,-0.9375000000,2.0625000000,image426.jpg,85236.2912430000
4,50.8637225000,-0.0945435000,57.6000000000,7.0000000000,-0.9375000000,2.0625000000,image427.jpg,85435.4294200000
4,50.8637225000,-0.0945435000,57.6000000000,7.0000000000,-0.9375000000,2.0625000000,image428.jpg,85635.6369060000
4,50.8637225000,-0.0945435000,57.6000000000,7.0000000000,-0.9375000000,2.0625000000,image429.jpg,85835.6785520000
4,50.8637225000,-0.0945435000,57.6000000000,7.0000000000,-0.9375000000,2.0625000000,image430.jpg,86036.2082370000
4,50.8637225000,-0.0945433333,57.5000000000,7.0000000000,-0.9375000000,2.0625000000,image431.jpg,86236.9596490000
4,50.8637225000,-0.0945435000,57.5000000000,7.0000000000,-0.9375000000,2.0625000000,image432.jpg,86436.7422230000
4,50.8637225000,-0.0945435000,57.6000000000,7.0000000000,-0.9375000000,2.0625000000,image433.jpg,86637.0673700000
4,50.8637225000,-0.0945435000,57.6000000000,7.0000000000,-0.9375000000,2.0625000000,image434.jpg,86836.8020260000
4,50.8637225000,-0.0945435000,57.6000000000,7.0000000000,-0.9375000000,2.0625000000,image435.jpg,87036.1083850000
4,50.8637225000,-0.0945435000,57.5000000000,7.0000000000,-0.9375000000,2.0625000000,image436.jpg,87236.1851370000
4,50.8637225000,-0.0945435000,57.6000000000,7.0000000000,-0.9375000000,2.0625000000,image437.jpg,87436.5923700000
4,50.8637225000,-0.0945435000,57.5000000000,7.0000000000,-0.9375000000,2.0625000000,image438.jpg,87637.3093530000
4,50.8637225000,-0.0945435000,57.6000000000,7.0000000000,-0.9375000000,2.0625000000,image439.jpg,87837.3422500000
4,50.8637225000,-0.0945435000,57.5000000000,7.0000000000,-0.9375000000,2.0625000000,image440.jpg,88037.4195220000
4,50.8637225000,-0.0945435000,57.5000000000,7.0000000000,-0.9375000000,2.0625000000,image441.jpg,88237.5748710000
4,50.8637225000,-0.0945435000,57.5000000000,7.0000000000,-0.9375000000,2.0625000000,image442.jpg,88436.5957510000
4,50.8637225000,-0.0945435000,57.5000000000,7.0000000000,-0.9375000000,2.0625000000,image443.jpg,88636.6705240000
4,50.8637225000,-0.0945435000,57.6000000000,7.0000000000,-0.9375000000,2.0625000000,image444.jpg,88836.7584740000
4,50.8637225000,-0.0945435000,57.6000000000,7.0000000000,-0.9375000000,2.0625000000,image445.jpg,89037.3928510000
4,50.8637225000,-0.0945433333,57.6000000000,7.0000000000,-0.9375000000,2.0625000000,image446.jpg,89237.8596170000
4,50.8637225000,-0.0945433333,57.6000000000,7.0000000000,-0.9375000000,2.0625000000,image447.jpg,89437.8966270000
4,50.8637225000,-0.0945433333,57.6000000000,7.0000000000,-0.9375000000,2.0625000000,image448.jpg,89638.0698410000
4,50.8637225000,-0.0945433333,57.6000000000,7.0000000000,-0.9375000000,2.0625000000,image449.jpg,89837.6895450000
4,50.8637225000,-0.0945433333,57.6000000000,7.0000000000,-0.9375000000,2.0625000000,image450.jpg,90037.1989850000
4,50.8637226667,-0.0945433333,57.6000000000,7.0000000000,-0.9375000000,2.0625000000,image451.jpg,90237.3366250000
4,50.8637225000,-0.0945433333,57.6000000000,7.0000000000,-0.9375000000,2.0625000000,image452.jpg,90437.6289570000
4,50.8637225000,-0.0945433333,57.6000000000,7.0000000000,-0.9375000000,2.0625000000,image453.jpg,90638.5197490000
4,50.8637225000,-0.0945435000,57.5000000000,7.0000000000,-0.9375000000,2.0625000000,image454.jpg,90837.9391330000
4,50.8637226667,-0.0945433333,57.6000000000,7.0000000000,-0.9375000000,2.0625000000,image455.jpg,91037.6249860000
4,50.8637228333,-0.0945435000,57.6000000000,7.0000000000,-0.9375000000,2.0625000000,image456.jpg,91237.7395000000
4,50.8637228333,-0.0945433333,57.6000000000,7.0000000000,-0.9375000000,2.0625000000,image457.jpg,91437.8416690000
4,50.8637226667,-0.0945433333,57.6000000000,7.0000000000,-0.9375000000,2.0625000000,image458.jpg,91637.9077440000
4,50.8637223333,-0.0945433333,57.6000000000,7.0000000000,-0.9375000000,2.0625000000,image459.jpg,91838.1444490000
4,50.8637226667,-0.0945435000,57.6000000000,7.0000000000,-0.9375000000,2.0625000000,image460.jpg,92038.8865900000
4,50.8637228333,-0.0945435000,57.6000000000,6.8125000000,-0.9375000000,2.0625000000,image461.jpg,92238.9893320000
4,50.8637233333,-0.0945435000,57.7000000000,6.2500000000,-1.0000000000,2.0000000000,image462.jpg,92439.3065620000
4,50.8637235000,-0.0945435000,57.7000000000,6.5000000000,-1.0625000000,2.0000000000,image463.jpg,92639.1677330000
4,50.8637248333,-0.0945435000,57.8000000000,6.5625000000,-1.0625000000,2.0000000000,image464.jpg,92839.1339600000
4,50.8637253333,-0.0945436667,57.9000000000,6.5625000000,-1.0625000000,2.0000000000,image465.jpg,93038.4646430000
4,50.8637255000,-0.0945436667,58.0000000000,6.3750000000,-1.0625000000,2.0625000000,image466.jpg,93238.4527980000
4,50.8637260000,-0.0945438333,58.0000000000,5.6875000000,-1.5625000000,2.1875000000,image467.jpg,93438.8518530000
4,50.8637256667,-0.0945440000,58.0000000000,3.0000000000,-2.2500000000,3.3125000000,image468.jpg,93639.6542040000
4,50.8637250000,-0.0945430000,58.1000000000,-2.8750000000,2.8750000000,6.1250000000,image469.jpg,93839.8876810000
5,50.8637243333,-0.0945420000,58.2000000000,-4.3125000000,7.1875000000,8.6875000000,image470.jpg,94039.7836450000
5,50.8637241667,-0.0945395000,58.3000000000,-1.9375000000,12.0625000000,10.9375000000,image471.jpg,94239.7664870000
2,50.8637245000,-0.0945370000,58.4000000000,6.3125000000,18.8125000000,26.6875000000,image472.jpg,94439.5022890000
2,50.8637248333,-0.0945340000,58.5000000000,4.6875000000,26.0625000000,57.5000000000,image473.jpg,94639.5465920000
5,50.8637238333,-0.0945313333,58.4000000000,0.7500000000,26.6875000000,83.0625000000,image474.jpg,94839.6468350000
5,50.8637233333,-0.0945278333,58.3000000000,-0.7500000000,30.3125000000,94.6250000000,image475.jpg,95040.3690790000
5,50.8637238333,-0.0945241667,58.2000000000,-8.3125000000,35.3750000000,101.8125000000,image476.jpg,95240.8250110000
5,50.8637240000,-0.0945193333,58.2000000000,-13.1250000000,35.6875000000,98.9375000000,image477.jpg,95440.8800430000
5,50.8637241667,-0.0945146667,58.3000000000,-4.8750000000,35.3125000000,94.3125000000,image478.jpg,95641.0903420000
5,50.8637241667,-0.0945103333,58.3000000000,1.0625000000,33.9375000000,95.0625000000,image479.jpg,95840.8014550000
5,50.8637240000,-0.0945065000,58.2000000000,3.3125000000,28.3125000000,103.3125000000,image480.jpg,96040.1415140000
5,50.8637236667,-0.0945028333,58.2000000000,8.8125000000,29.2500000000,113.3125000000,image481.jpg,96240.2223810000
5,50.8637230000,-0.0944996667,58.2000000000,4.3125000000,32.8125000000,120.5625000000,image482.jpg,96440.5966950000
5,50.8637225000,-0.0944965000,58.3000000000,5.9375000000,37.4375000000,127.5000000000,image483.jpg,96640.7003230000
5,50.8637223333,-0.0944933333,58.3000000000,9.4375000000,42.6250000000,140.1875000000,image484.jpg,96840.6315490000
5,50.8637218333,-0.0944893333,58.3000000000,6.8125000000,40.8750000000,145.8125000000,image485.jpg,97040.6130890000
5,50.8637206667,-0.0944848333,58.3000000000,4.6250000000,33.2500000000,147.6250000000,image486.jpg,97240.6550480000
5,50.8637198333,-0.0944810000,58.3000000000,-2.1250000000,37.8125000000,150.9375000000,image487.jpg,97440.8366480000
5,50.8637188333,-0.0944775000,58.3000000000,-15.1875000000,40.3125000000,30.2500000000,image488.jpg,97640.8124070000
5,50.8637183333,-0.0944733333,58.2000000000,-21.4375000000,39.5000000000,41.3750000000,image489.jpg,97840.7632690000
5,50.8637176667,-0.0944690000,58.2000000000,-32.5000000000,38.4375000000,51.1875000000,image490.jpg,98041.8297960000
5,50.8637170000,-0.0944655000,58.2000000000,-28.9375000000,30.8750000000,55.1875000000,image491.jpg,98240.8734370000
5,50.8637158333,-0.0944613333,58.2000000000,-32.7500000000,26.1875000000,53.8125000000,image492.jpg,98441.1117580000
5,50.8637148333,-0.0944578333,58.2000000000,-30.1875000000,23.1875000000,54.8125000000,image493.jpg,98641.0767350000
5,50.8637141667,-0.0944540000,58.1000000000,-33.9375000000,21.8750000000,56.6250000000,image494.jpg,98841.1813000000
5,50.8637135000,-0.0944500000,58.1000000000,-41.5000000000,25.4375000000,58.1250000000,image495.jpg,99041.2606560000
5,50.8637130000,-0.0944460000,58.1000000000,-37.1250000000,30.2500000000,60.1875000000,image496.jpg,99241.3192830000
5,50.8637121667,-0.0944423333,58.1000000000,-46.1875000000,32.0625000000,58.0625000000,image497.jpg,99442.1500720000
5,50.8637113333,-0.0944388333,58.1000000000,-50.1250000000,32.6875000000,43.6875000000,image498.jpg,99642.6692360000
5,50.8637105000,-0.0944348333,58.1000000000,-43.3125000000,34.8750000000,25.6250000000,image499.jpg,99842.4888430000
5,50.8637101667,-0.0944308333,58.1000000000,-41.4375000000,43.1875000000,13.0625000000,image500.jpg,100042.5850230000
2,50.8637095000,-0.0944268333,58.1000000000,-30.6875000000,41.6875000000,14.6875000000,image501.jpg,100242.3838480000
2,50.8637083333,-0.0944235000,58.1000000000,-25.8750000000,42.0000000000,12.8125000000,image502.jpg,100442.2828330000
2,50.8637071667,-0.0944196667,58.1000000000,-29.0000000000,40.6250000000,8.6875000000,image503.jpg,100641.7056550000
5,50.8637056667,-0.0944166667,58.1000000000,-32.3750000000,39.5625000000,9.9375000000,image504.jpg,100842.1191900000
5,50.8637043333,-0.0944131667,58.0000000000,-35.2500000000,42.3125000000,12.6875000000,image505.jpg,101042.8711750000
5,50.8637030000,-0.0944096667,58.0000000000,-36.1250000000,38.5625000000,17.0625000000,image506.jpg,101242.9018830000
5,50.8637021667,-0.0944066667,57.9000000000,-33.6250000000,38.3750000000,17.7500000000,image507.jpg,101442.9313940000
5,50.8637010000,-0.0944036667,57.9000000000,-36.0625000000,36.8125000000,15.5625000000,image508.jpg,101642.8933500000
5,50.8637000000,-0.0944005000,57.9000000000,-31.3125000000,34.5000000000,13.5625000000,image509.jpg,101842.1600730000
5,50.8636996667,-0.0943971667,57.9000000000,-31.5000000000,36.1250000000,12.9375000000,image510.jpg,102042.2237510000
5,50.8636990000,-0.0943933333,57.9000000000,-35.2500000000,35.1875000000,8.5000000000,image511.jpg,102242.4374880000
5,50.8636983333,-0.0943896667,57.9000000000,-22.1875000000,29.9375000000,0.2500000000,image512.jpg,102443.1630130000
5,50.8636978333,-0.0943856667,57.9000000000,-3.1250000000,19.5625000000,341.8750000000,image513.jpg,102643.4418030000
5,50.8636976667,-0.0943820000,57.9000000000,7.6875000000,7.5625000000,324.0625000000,image514.jpg,102843.7223650000
5,50.8636971667,-0.0943783333,57.9000000000,16.9375000000,4.5625000000,316.6875000000,image515.jpg,103043.5549930000
5,50.8636965000,-0.0943745000,57.9000000000,20.8125000000,7.2500000000,311.1250000000,image516.jpg,103243.0111500000
5,50.8636955000,-0.0943705000,57.8000000000,16.9375000000,13.5625000000,303.8750000000,image517.jpg,103442.7650260000
5,50.8636943333,-0.0943670000,57.8000000000,15.8125000000,15.2500000000,302.8750000000,image518.jpg,103642.8131830000
5,50.8636938333,-0.0943625000,57.8000000000,14.5625000000,5.6250000000,301.2500000000,image519.jpg,103843.1085880000
