gps quality,lat,lon,altitude,roll,pitch,yaw,image name,timestamp
4,50.8634331667,-0.0939158333,56.7000000000,5.2500000000,-2.2500000000,359.0000000000,image0.jpg,3.1480520000
4,50.8634336667,-0.0939166667,56.7000000000,5.3125000000,-2.0000000000,358.8750000000,image1.jpg,202.6455580000
4,50.8634340000,-0.0939166667,56.7000000000,5.0000000000,-1.3750000000,358.5625000000,image2.jpg,402.7256350000
4,50.8634346667,-0.0939176667,56.7000000000,5.5625000000,-2.0000000000,358.9375000000,image3.jpg,602.7940420000
4,50.8634356667,-0.0939186667,56.7000000000,4.4375000000,-2.0625000000,359.1250000000,image4.jpg,801.8935960000
4,50.8634365000,-0.0939196667,56.7000000000,4.5625000000,-3.1875000000,359.7500000000,image5.jpg,1001.9479930000
4,50.8634371667,-0.0939203333,56.7000000000,5.3750000000,-1.8750000000,359.8125000000,image6.jpg,1202.6634980000
4,50.8634380000,-0.0939213333,56.7000000000,5.1250000000,-2.6875000000,359.8125000000,image7.jpg,1402.0754310000
4,50.8634390000,-0.0939223333,56.7000000000,3.2500000000,-3.4375000000,0.3125000000,image8.jpg,1602.1721640000
4,50.8634398333,-0.0939231667,56.7000000000,5.4375000000,-3.5625000000,1.1875000000,image9.jpg,1802.2131190000
4,50.8634405000,-0.0939240000,56.7000000000,5.7500000000,-2.3750000000,2.0625000000,image10.jpg,2002.2714170000
4,50.8634415000,-0.0939250000,56.7000000000,6.5000000000,-1.2500000000,6.0625000000,image11.jpg,2202.3400260000
4,50.8634425000,-0.0939258333,56.7000000000,7.5000000000,-1.4375000000,7.6875000000,image12.jpg,2402.4192600000
4,50.8634433333,-0.0939265000,56.7000000000,7.3125000000,-1.0625000000,7.0000000000,image13.jpg,2602.5047910000
4,50.8634441667,-0.0939273333,56.7000000000,7.1875000000,-1.5625000000,6.2500000000,image14.jpg,2802.5531890000
4,50.8634450000,-0.0939281667,56.7000000000,6.9375000000,-1.5000000000,6.2500000000,image15.jpg,3002.6257520000
4,50.8634458333,-0.0939288333,56.7000000000,7.2500000000,-1.6875000000,6.7500000000,image16.jpg,3203.3583820000
4,50.8634466667,-0.0939293333,56.7000000000,6.9375000000,-0.5625000000,8.5000000000,image17.jpg,3403.8826380000
4,50.8634475000,-0.0939303333,56.7000000000,6.1875000000,-1.5000000000,8.9375000000,image18.jpg,3603.7123970000
4,50.8634483333,-0.0939308333,56.7000000000,6.1875000000,-1.7500000000,9.1250000000,image19.jpg,3803.7029800000
4,50.8634491667,-0.0939315000,56.7000000000,4.8750000000,-2.8750000000,9.8750000000,image20.jpg,4002.8826200000
4,50.8634500000,-0.0939320000,56.7000000000,6.3750000000,-2.0625000000,10.5000000000,image21.jpg,4203.1258450000
4,50.8634510000,-0.0939326667,56.7000000000,6.0625000000,-3.5625000000,11.9375000000,image22.jpg,4404.0913210000
4,50.8634516667,-0.0939333333,56.7000000000,7.1875000000,-1.3750000000,11.5625000000,image23.jpg,4604.0464330000
4,50.8634523333,-0.0939336667,56.7000000000,5.0000000000,-1.3125000000,12.0625000000,image24.jpg,4804.1684100000
4,50.8634531667,-0.0939343333,56.7000000000,6.0000000000,-0.7500000000,11.8750000000,image25.jpg,5003.2027930000
4,50.8634540000,-0.0939346667,56.7000000000,4.2500000000,-0.8750000000,12.3125000000,image26.jpg,5203.2853970000
4,50.8634546667,-0.0939353333,56.7000000000,5.0625000000,-1.9375000000,11.0625000000,image27.jpg,5404.2870130000
4,50.8634553333,-0.0939358333,56.7000000000,3.8750000000,-3.3125000000,10.5625000000,image28.jpg,5604.4233070000
4,50.8634560000,-0.0939363333,56.7000000000,5.0625000000,-2.6875000000,10.6875000000,image29.jpg,5804.4431500000
4,50.8634568333,-0.0939370000,56.7000000000,5.0625000000,-3.0625000000,11.1250000000,image30.jpg,6003.5236710000
4,50.8634575000,-0.0939371667,56.7000000000,5.1250000000,-2.6250000000,12.5625000000,image31.jpg,6203.5361700000
4,50.8634583333,-0.0939378333,56.7000000000,5.9375000000,-1.6875000000,13.7500000000,image32.jpg,6404.2496720000
4,50.8634591667,-0.0939381667,56.7000000000,5.0625000000,-2.5625000000,15.5000000000,image33.jpg,6603.7419360000
4,50.8634598333,-0.0939386667,56.7000000000,6.1250000000,-2.6250000000,15.5000000000,image34.jpg,6803.7911990000
4,50.8634606667,-0.0939391667,56.7000000000,6.0625000000,-2.1250000000,15.8125000000,image35.jpg,7003.8843140000
4,50.8634613333,-0.0939396667,56.7000000000,5.6250000000,-2.6250000000,12.4375000000,image36.jpg,7203.9348280000
4,50.8634620000,-0.0939401667,56.7000000000,4.5000000000,-1.5000000000,10.2500000000,image37.jpg,7404.1266350000
4,50.8634626667,-0.0939408333,56.7000000000,5.3750000000,-2.3125000000,10.3125000000,image38.jpg,7604.1033460000
4,50.8634636667,-0.0939415000,56.7000000000,4.6875000000,-3.0625000000,10.5000000000,image39.jpg,7804.1977590000
4,50.8634645000,-0.0939420000,56.7000000000,5.1250000000,-3.3750000000,11.8125000000,image40.jpg,8004.2583190000
4,50.8634653333,-0.0939426667,56.7000000000,5.9375000000,-3.2500000000,12.8125000000,image41.jpg,8204.2425300000
4,50.8634661667,-0.0939430000,56.7000000000,4.5625000000,-3.0625000000,14.0625000000,image42.jpg,8404.5785430000
4,50.8634670000,-0.0939435000,56.7000000000,4.5625000000,-1.8750000000,13.7500000000,image43.jpg,8605.5712340000
4,50.8634676667,-0.0939440000,56.7000000000,4.1250000000,-2.0625000000,13.5000000000,image44.jpg,8805.3604510000
4,50.8634686667,-0.0939445000,56.7000000000,5.2500000000,-1.7500000000,13.2500000000,image45.jpg,9005.4101210000
4,50.8634691667,-0.0939450000,56.7000000000,5.7500000000,-0.3125000000,13.7500000000,image46.jpg,9204.5720820000
4,50.8634700000,-0.0939455000,56.7000000000,4.9375000000,-2.1875000000,12.3750000000,image47.jpg,9404.6442510000
4,50.8634708333,-0.0939461667,56.7000000000,4.1250000000,-1.5000000000,9.1250000000,image48.jpg,9605.4297090000
4,50.8634715000,-0.0939471667,56.7000000000,9.1250000000,-1.4375000000,7.9375000000,image49.jpg,9805.7074880000
4,50.8634725000,-0.0939478333,56.7000000000,6.0000000000,-1.6875000000,8.3125000000,image50.jpg,10005.7625700000
4,50.8634735000,-0.0939486667,56.7000000000,8.5625000000,-1.7500000000,7.8750000000,image51.jpg,10204.8880170000
4,50.8634745000,-0.0939495000,56.7000000000,7.3750000000,-1.6250000000,8.3750000000,image52.jpg,10404.9563280000
4,50.8634755000,-0.0939500000,56.7000000000,7.2500000000,-1.9375000000,9.1875000000,image53.jpg,10605.5220020000
4,50.8634763333,-0.0939511667,56.7000000000,7.5625000000,-1.8750000000,9.2500000000,image54.jpg,10806.1823060000
4,50.8634775000,-0.0939518333,56.7000000000,6.6875000000,-2.8125000000,9.5000000000,image55.jpg,11006.1250990000
4,50.8634785000,-0.0939526667,56.7000000000,6.5625000000,-3.8125000000,10.1250000000,image56.jpg,11206.0086240000
4,50.8634795000,-0.0939535000,56.7000000000,6.8750000000,-3.5625000000,10.0625000000,image57.jpg,11405.3055670000
4,50.8634806667,-0.0939541667,56.7000000000,5.6875000000,-2.8125000000,10.0000000000,image58.jpg,11605.6328120000
4,50.8634816667,-0.0939548333,56.7000000000,6.5000000000,-2.1250000000,10.5000000000,image59.jpg,11805.6021610000
4,50.8634826667,-0.0939556667,56.7000000000,5.1250000000,-1.6875000000,10.2500000000,image60.jpg,12005.4789630000
4,50.8634836667,-0.0939563333,56.7000000000,4.7500000000,-1.5000000000,10.6250000000,image61.jpg,12205.5007570000
4,50.8634846667,-0.0939571667,56.7000000000,5.4375000000,-1.3750000000,10.5000000000,image62.jpg,12405.5953590000
4,50.8634856667,-0.0939578333,56.7000000000,4.5000000000,-1.5000000000,8.0625000000,image63.jpg,12605.5973580000
4,50.8634865000,-0.0939586667,56.7000000000,7.0000000000,-1.5625000000,8.0000000000,image64.jpg,12805.6990910000
4,50.8634875000,-0.0939595000,56.7000000000,6.3750000000,-2.3125000000,9.6875000000,image65.jpg,13005.7632730000
4,50.8634885000,-0.0939601667,56.7000000000,6.0625000000,-2.2500000000,11.3750000000,image66.jpg,13205.8454240000
4,50.8634895000,-0.0939608333,56.7000000000,8.3125000000,-2.7500000000,12.0625000000,image67.jpg,13405.9111170000
4,50.8634905000,-0.0939616667,56.7000000000,6.7500000000,-3.1250000000,11.9375000000,image68.jpg,13605.9770660000
4,50.8634915000,-0.0939623333,56.7000000000,6.5625000000,-3.0000000000,11.0625000000,image69.jpg,13806.8858320000
4,50.8634923333,-0.0939630000,56.7000000000,7.5000000000,-2.9375000000,10.9375000000,image70.jpg,14007.0563590000
4,50.8634935000,-0.0939636667,56.7000000000,6.2500000000,-2.6875000000,11.0625000000,image71.jpg,14207.1592330000
4,50.8634946667,-0.0939645000,56.7000000000,6.7500000000,-2.5625000000,12.3750000000,image72.jpg,14406.5511570000
4,50.8634956667,-0.0939651667,56.7000000000,6.9375000000,-1.2500000000,12.3750000000,image73.jpg,14606.2947240000
4,50.8634968333,-0.0939658333,56.7000000000,8.0625000000,-1.3125000000,12.0625000000,image74.jpg,14806.8469950000
4,50.8634980000,-0.0939666667,56.7000000000,7.1250000000,-3.1250000000,12.3750000000,image75.jpg,15007.3536960000
4,50.8634990000,-0.0939675000,56.7000000000,9.0000000000,-2.4375000000,12.5000000000,image76.jpg,15207.5316130000
4,50.8635000000,-0.0939680000,56.7000000000,6.9375000000,-1.1250000000,11.6250000000,image77.jpg,15407.4759500000
4,50.8635008333,-0.0939688333,56.7000000000,8.1250000000,-1.0000000000,10.8125000000,image78.jpg,15606.6391280000
4,50.8635018333,-0.0939695000,56.7000000000,8.4375000000,-1.4375000000,11.5625000000,image79.jpg,15806.9133900000
4,50.8635026667,-0.0939701667,56.7000000000,8.5000000000,-0.6250000000,11.3125000000,image80.jpg,16007.7051750000
4,50.8635036667,-0.0939706667,56.7000000000,9.0625000000,0.0625000000,15.2500000000,image81.jpg,16207.7691360000
4,50.8635048333,-0.0939711667,56.7000000000,8.6875000000,-0.1875000000,20.8750000000,image82.jpg,16407.8477310000
4,50.8635060000,-0.0939713333,56.7000000000,8.0000000000,-0.8750000000,26.7500000000,image83.jpg,16606.9801260000
4,50.8635071667,-0.0939715000,56.7000000000,6.0000000000,0.0000000000,30.1875000000,image84.jpg,16806.9561180000
4,50.8635085000,-0.0939716667,56.8000000000,5.8750000000,0.3750000000,28.3125000000,image85.jpg,17007.1146530000
4,50.8635098333,-0.0939721667,56.8000000000,7.2500000000,-0.3750000000,25.6875000000,image86.jpg,17207.1865770000
4,50.8635113333,-0.0939725000,56.8000000000,6.9375000000,-0.2500000000,22.5625000000,image87.jpg,17407.2707410000
4,50.8635125000,-0.0939731667,56.8000000000,8.5000000000,-0.5000000000,21.4375000000,image88.jpg,17607.3254230000
4,50.8635136667,-0.0939736667,56.8000000000,6.7500000000,-0.7500000000,21.3750000000,image89.jpg,17807.3930210000
4,50.8635148333,-0.0939741667,56.8000000000,6.1250000000,-1.3125000000,18.8125000000,image90.jpg,18007.7197180000
4,50.8635160000,-0.0939746667,56.8000000000,6.1250000000,-1.3125000000,16.0625000000,image91.jpg,18207.5629020000
4,50.8635171667,-0.0939753333,56.8000000000,7.2500000000,-2.3750000000,13.8125000000,image92.jpg,18407.6242500000
4,50.8635181667,-0.0939761667,56.8000000000,6.6250000000,-1.6250000000,13.5625000000,image93.jpg,18607.6647610000
4,50.8635191667,-0.0939766667,56.8000000000,8.3750000000,-1.3125000000,13.3125000000,image94.jpg,18807.7625090000
4,50.8635203333,-0.0939776667,56.8000000000,8.3125000000,-2.4375000000,13.3125000000,image95.jpg,19008.4903260000
4,50.8635215000,-0.0939781667,56.8000000000,7.5000000000,-2.1875000000,13.2500000000,image96.jpg,19208.8315490000
4,50.8635223333,-0.0939790000,56.8000000000,7.1875000000,-2.6875000000,12.3750000000,image97.jpg,19408.8970070000
4,50.8635235000,-0.0939796667,56.8000000000,3.5000000000,-3.5625000000,7.1250000000,image98.jpg,19608.9363170000
4,50.8635243333,-0.0939808333,56.8000000000,5.1875000000,-4.1250000000,3.0625000000,image99.jpg,19808.0743750000
4,50.8635251667,-0.0939816667,56.8000000000,3.5625000000,-3.1875000000,358.1250000000,image100.jpg,20008.4086680000
4,50.8635258333,-0.0939825000,56.8000000000,4.5625000000,-3.3125000000,358.0000000000,image101.jpg,20209.1746550000
4,50.8635266667,-0.0939833333,56.8000000000,4.9375000000,-3.0000000000,358.6875000000,image102.jpg,20409.2579730000
4,50.8635273333,-0.0939843333,56.8000000000,5.3750000000,-2.9375000000,356.2500000000,image103.jpg,20609.3033720000
4,50.8635281667,-0.0939853333,56.8000000000,5.3125000000,-3.9375000000,353.5000000000,image104.jpg,20808.4769970000
4,50.8635288333,-0.0939865000,56.8000000000,5.0000000000,-3.6250000000,352.1875000000,image105.jpg,21008.4869290000
4,50.8635296667,-0.0939876667,56.8000000000,6.6875000000,-4.0000000000,352.3750000000,image106.jpg,21209.4632640000
4,50.8635305000,-0.0939886667,56.8000000000,7.5000000000,-2.7500000000,355.7500000000,image107.jpg,21409.5565770000
4,50.8635311667,-0.0939896667,56.8000000000,6.1875000000,-2.8125000000,357.0625000000,image108.jpg,21609.6372290000
4,50.8635321667,-0.0939908333,56.8000000000,7.1250000000,-2.5000000000,356.8750000000,image109.jpg,21808.7484060000
4,50.8635330000,-0.0939918333,56.8000000000,6.5000000000,-3.3750000000,357.3125000000,image110.jpg,22008.8168200000
4,50.8635338333,-0.0939930000,56.8000000000,5.3750000000,-3.6875000000,355.3125000000,image111.jpg,22209.5433730000
4,50.8635346667,-0.0939941667,56.8000000000,5.8125000000,-3.0625000000,352.6250000000,image112.jpg,22408.9713020000
4,50.8635355000,-0.0939953333,56.8000000000,4.9375000000,-2.5000000000,350.6875000000,image113.jpg,22609.0194530000
4,50.8635363333,-0.0939966667,56.8000000000,6.0625000000,-0.8750000000,350.3125000000,image114.jpg,22809.1071320000
4,50.8635371667,-0.0939981667,56.8000000000,6.5000000000,-2.0625000000,349.7500000000,image115.jpg,23009.1677820000
4,50.8635381667,-0.0939998333,56.8000000000,7.6250000000,-4.5625000000,347.7500000000,image116.jpg,23209.4474300000
4,50.8635390000,-0.0940015000,56.8000000000,6.5000000000,-3.2500000000,347.3125000000,image117.jpg,23409.3022060000
4,50.8635400000,-0.0940031667,56.8000000000,7.8750000000,-5.0625000000,347.2500000000,image118.jpg,23609.3786320000
4,50.8635410000,-0.0940048333,56.8000000000,7.1250000000,-4.4375000000,347.7500000000,image119.jpg,23809.4182890000
4,50.8635418333,-0.0940065000,56.8000000000,9.6250000000,-4.6875000000,347.6875000000,image120.jpg,24009.4651850000
4,50.8635426667,-0.0940080000,56.8000000000,7.8750000000,-4.3750000000,347.3125000000,image121.jpg,24209.9685140000
4,50.8635436667,-0.0940095000,56.8000000000,7.5000000000,-5.3125000000,348.4375000000,image122.jpg,24410.6377190000
4,50.8635445000,-0.0940111667,56.8000000000,8.4375000000,-4.3750000000,349.3125000000,image123.jpg,24610.6578420000
4,50.8635455000,-0.0940126667,56.8000000000,7.1250000000,-3.9375000000,349.0625000000,image124.jpg,24810.7373880000
4,50.8635465000,-0.0940140000,56.8000000000,6.9375000000,-4.7500000000,349.6250000000,image125.jpg,25009.7917330000
4,50.8635473333,-0.0940156667,56.8000000000,7.3750000000,-4.4375000000,350.0000000000,image126.jpg,25209.9319010000
4,50.8635481667,-0.0940173333,56.8000000000,6.7500000000,-3.8125000000,347.0000000000,image127.jpg,25410.8805650000
4,50.8635490000,-0.0940188333,56.8000000000,7.0000000000,-2.6875000000,344.0625000000,image128.jpg,25611.0319260000
4,50.8635496667,-0.0940205000,56.8000000000,7.9375000000,-2.7500000000,343.8750000000,image129.jpg,25811.1205310000
4,50.8635505000,-0.0940220000,56.8000000000,8.1875000000,-3.0000000000,345.9375000000,image130.jpg,26010.2221600000
4,50.8635515000,-0.0940235000,56.8000000000,8.4375000000,-3.3125000000,347.5000000000,image131.jpg,26210.2907140000
4,50.8635521667,-0.0940251667,56.8000000000,7.3125000000,-3.1875000000,346.7500000000,image132.jpg,26410.9969920000
4,50.8635531667,-0.0940266667,56.8000000000,7.5000000000,-3.3750000000,346.1250000000,image133.jpg,26611.3617220000
4,50.8635540000,-0.0940283333,56.9000000000,9.1250000000,-3.8750000000,346.0625000000,image134.jpg,26811.5641180000
4,50.8635548333,-0.0940298333,56.9000000000,8.6875000000,-3.3125000000,346.0625000000,image135.jpg,27010.8305250000
4,50.8635556667,-0.0940315000,56.8000000000,7.6250000000,-2.9375000000,344.9375000000,image136.jpg,27210.6775770000
4,50.8635565000,-0.0940331667,56.9000000000,7.6875000000,-3.4375000000,344.2500000000,image137.jpg,27411.0008520000
4,50.8635575000,-0.0940348333,56.9000000000,9.1250000000,-3.6875000000,344.6250000000,image138.jpg,27610.7788410000
4,50.8635583333,-0.0940365000,56.9000000000,7.8125000000,-3.7500000000,344.5625000000,image139.jpg,27810.8521250000
4,50.8635591667,-0.0940381667,56.9000000000,6.8125000000,-4.5625000000,345.3125000000,image140.jpg,28010.9504080000
4,50.8635600000,-0.0940396667,56.9000000000,6.0625000000,-4.4375000000,344.3750000000,image141.jpg,28210.9837990000
4,50.8635608333,-0.0940415000,56.9000000000,6.8750000000,-3.0625000000,344.5000000000,image142.jpg,28411.2168150000
4,50.8635618333,-0.0940430000,56.9000000000,7.6875000000,-3.2500000000,348.2500000000,image143.jpg,28611.1253650000
4,50.8635628333,-0.0940446667,56.9000000000,6.9375000000,-3.4375000000,351.6250000000,image144.jpg,28811.2044270000
4,50.8635638333,-0.0940460000,56.9000000000,7.6875000000,-3.1875000000,352.6875000000,image145.jpg,29011.2460950000
4,50.8635651667,-0.0940476667,56.9000000000,6.5000000000,-4.1250000000,353.6250000000,image146.jpg,29211.3449990000
4,50.8635661667,-0.0940491667,56.9000000000,7.2500000000,-4.7500000000,353.7500000000,image147.jpg,29411.4542150000
4,50.8635671667,-0.0940505000,56.9000000000,4.8750000000,-3.6250000000,352.4375000000,image148.jpg,29612.5744640000
4,50.8635680000,-0.0940520000,56.9000000000,6.6875000000,-3.0000000000,350.3750000000,image149.jpg,29812.6110760000
4,50.8635690000,-0.0940536667,56.9000000000,6.4375000000,-3.1250000000,350.3750000000,image150.jpg,30012.5726400000
4,50.8635700000,-0.0940550000,56.9000000000,7.5000000000,-3.6250000000,351.2500000000,image151.jpg,30211.6673780000
4,50.8635710000,-0.0940565000,56.9000000000,6.2500000000,-3.7500000000,349.8750000000,image152.jpg,30411.7608620000
4,50.8635718333,-0.0940581667,56.9000000000,5.5000000000,-4.0625000000,345.7500000000,image153.jpg,30612.5907580000
4,50.8635726667,-0.0940598333,56.9000000000,6.0000000000,-4.5000000000,344.5625000000,image154.jpg,30812.8824560000
4,50.8635735000,-0.0940613333,56.9000000000,5.4375000000,-3.6875000000,341.5625000000,image155.jpg,31012.9907790000
4,50.8635741667,-0.0940630000,56.9000000000,5.0000000000,-4.1875000000,339.1875000000,image156.jpg,31212.0274440000
4,50.8635748333,-0.0940646667,56.9000000000,6.3125000000,-3.9375000000,340.3125000000,image157.jpg,31412.0911340000
4,50.8635756667,-0.0940665000,56.9000000000,7.3125000000,-4.5000000000,343.6875000000,image158.jpg,31612.6791650000
4,50.8635766667,-0.0940680000,56.9000000000,7.5000000000,-3.0625000000,349.1250000000,image159.jpg,31813.1660560000
4,50.8635776667,-0.0940695000,56.9000000000,7.1250000000,-4.1875000000,351.5625000000,image160.jpg,32013.1955260000
4,50.8635786667,-0.0940710000,56.9000000000,6.1250000000,-4.6875000000,351.6250000000,image161.jpg,32212.6510170000
4,50.8635796667,-0.0940723333,56.9000000000,6.3750000000,-3.9375000000,350.8750000000,image162.jpg,32412.4003980000
4,50.8635806667,-0.0940741667,56.9000000000,9.0625000000,-2.6875000000,352.8750000000,image163.jpg,32612.8840040000
4,50.8635818333,-0.0940755000,56.9000000000,6.7500000000,-2.1875000000,354.5625000000,image164.jpg,32812.5295850000
4,50.8635830000,-0.0940770000,56.9000000000,6.5000000000,-3.2500000000,351.3750000000,image165.jpg,33012.5764450000
4,50.8635838333,-0.0940786667,56.9000000000,7.7500000000,-2.0000000000,345.6875000000,image166.jpg,33212.6514810000
4,50.8635848333,-0.0940806667,57.0000000000,5.9375000000,-3.0000000000,340.4375000000,image167.jpg,33412.7031330000
4,50.8635855000,-0.0940823333,57.0000000000,9.7500000000,-2.0625000000,339.3125000000,image168.jpg,33612.8078500000
4,50.8635861667,-0.0940840000,57.0000000000,8.9375000000,-1.3125000000,342.2500000000,image169.jpg,33812.7951780000
4,50.8635871667,-0.0940858333,57.0000000000,9.5000000000,-2.0625000000,349.0000000000,image170.jpg,34012.8628670000
4,50.8635881667,-0.0940870000,57.0000000000,7.5625000000,-3.0625000000,353.5625000000,image171.jpg,34212.9551370000
4,50.8635895000,-0.0940885000,57.0000000000,6.0625000000,-2.8125000000,353.4375000000,image172.jpg,34413.0628230000
4,50.8635905000,-0.0940901667,57.0000000000,8.9375000000,-3.1250000000,351.4375000000,image173.jpg,34613.4722070000
4,50.8635916667,-0.0940918333,57.0000000000,7.3125000000,-2.8125000000,353.8125000000,image174.jpg,34814.5979050000
4,50.8635928333,-0.0940933333,57.0000000000,9.8750000000,-3.3750000000,358.4375000000,image175.jpg,35014.1880120000
4,50.8635940000,-0.0940948333,57.0000000000,7.3125000000,-2.0000000000,358.8750000000,image176.jpg,35214.2892360000
4,50.8635953333,-0.0940961667,57.0000000000,6.6875000000,-0.6250000000,359.2500000000,image177.jpg,35413.4142140000
4,50.8635965000,-0.0940975000,57.0000000000,5.7500000000,-0.7500000000,0.0000000000,image178.jpg,35613.4741870000
4,50.8635978333,-0.0940988333,57.0000000000,4.7500000000,-2.2500000000,0.3125000000,image179.jpg,35814.4402550000
4,50.8635990000,-0.0941001667,57.0000000000,4.8750000000,-3.7500000000,1.0000000000,image180.jpg,36014.5467870000
4,50.8636005000,-0.0941013333,57.0000000000,2.4375000000,-3.0000000000,358.3750000000,image181.jpg,36214.6750380000
4,50.8636015000,-0.0941028333,57.0000000000,3.7500000000,-3.3125000000,357.1875000000,image182.jpg,36413.7916270000
4,50.8636028333,-0.0941041667,57.0000000000,3.6250000000,-3.3125000000,357.0625000000,image183.jpg,36613.8137330000
4,50.8636040000,-0.0941056667,57.0000000000,4.8750000000,-3.3750000000,357.7500000000,image184.jpg,36814.4040370000
4,50.8636053333,-0.0941071667,57.0000000000,4.3750000000,-3.3125000000,358.4375000000,image185.jpg,37015.0793360000
4,50.8636065000,-0.0941086667,57.0000000000,5.6875000000,-3.7500000000,358.9375000000,image186.jpg,37214.9799910000
4,50.8636078333,-0.0941101667,57.0000000000,6.1250000000,-4.0000000000,2.1250000000,image187.jpg,37414.3592700000
4,50.8636093333,-0.0941115000,57.0000000000,5.1250000000,-3.3750000000,0.8125000000,image188.jpg,37614.2557550000
4,50.8636106667,-0.0941130000,57.0000000000,4.1250000000,-3.6250000000,359.0625000000,image189.jpg,37814.5403430000
4,50.8636120000,-0.0941145000,57.0000000000,6.5000000000,-4.5625000000,358.8750000000,image190.jpg,38014.4563060000
4,50.8636133333,-0.0941158333,57.0000000000,3.8750000000,-4.1250000000,357.2500000000,image191.jpg,38214.4114860000
4,50.8636143333,-0.0941173333,57.0000000000,5.3125000000,-3.8125000000,355.6250000000,image192.jpg,38414.4879090000
4,50.8636155000,-0.0941188333,57.0000000000,4.8750000000,-3.9375000000,354.8750000000,image193.jpg,38614.5222470000
4,50.8636166667,-0.0941203333,57.0000000000,5.1250000000,-3.6875000000,353.3125000000,image194.jpg,38814.7380850000
4,50.8636178333,-0.0941218333,57.0000000000,4.5000000000,-4.1250000000,353.2500000000,image195.jpg,39014.6662840000
4,50.8636186667,-0.0941231667,57.0000000000,6.1250000000,-2.9375000000,353.1250000000,image196.jpg,39214.7237980000
4,50.8636198333,-0.0941246667,57.0000000000,6.6250000000,-1.3125000000,355.3750000000,image197.jpg,39414.8595360000
4,50.8636210000,-0.0941260000,57.0000000000,5.8750000000,-3.3125000000,0.3125000000,image198.jpg,39614.9201190000
4,50.8636221667,-0.0941271667,57.0000000000,5.3750000000,-3.8750000000,0.7500000000,image199.jpg,39814.9546090000
4,50.8636235000,-0.0941286667,57.1000000000,4.7500000000,-2.8125000000,357.1250000000,image200.jpg,40016.0751320000
4,50.8636246667,-0.0941300000,57.1000000000,4.8750000000,-2.1875000000,355.5625000000,image201.jpg,40216.0355640000
4,50.8636256667,-0.0941316667,57.1000000000,5.6250000000,-2.2500000000,355.0625000000,image202.jpg,40416.2656690000
4,50.8636268333,-0.0941330000,57.1000000000,4.0625000000,-3.0000000000,351.6875000000,image203.jpg,40615.2226650000
4,50.8636278333,-0.0941348333,57.1000000000,6.1875000000,-4.8750000000,347.6250000000,image204.jpg,40815.2740260000
4,50.8636286667,-0.0941365000,57.1000000000,6.8750000000,-4.0000000000,348.0000000000,image205.jpg,41015.9718080000
4,50.8636296667,-0.0941380000,57.1000000000,7.1875000000,-2.5625000000,349.8125000000,image206.jpg,41216.4278340000
4,50.8636305000,-0.0941395000,57.1000000000,7.0000000000,-1.4375000000,351.8750000000,image207.jpg,41416.6283530000
4,50.8636316667,-0.0941408333,57.1000000000,6.0625000000,-1.6250000000,353.0000000000,image208.jpg,41615.7151820000
4,50.8636326667,-0.0941421667,57.1000000000,4.5625000000,-2.4375000000,351.0000000000,image209.jpg,41815.7619040000
4,50.8636336667,-0.0941436667,57.1000000000,4.3750000000,-3.3125000000,349.6250000000,image210.jpg,42016.3303680000
4,50.8636346667,-0.0941453333,57.1000000000,5.0625000000,-3.1250000000,348.9375000000,image211.jpg,42216.7571210000
4,50.8636356667,-0.0941471667,57.1000000000,5.0000000000,-2.8750000000,348.1875000000,image212.jpg,42416.9397730000
4,50.8636368333,-0.0941488333,57.1000000000,4.5625000000,-3.0000000000,348.9375000000,image213.jpg,42616.8354060000
4,50.8636376667,-0.0941505000,57.1000000000,3.6875000000,-3.5625000000,346.2500000000,image214.jpg,42816.0731610000
4,50.8636386667,-0.0941521667,57.1000000000,4.1250000000,-3.0625000000,343.6875000000,image215.jpg,43016.6424020000
4,50.8636395000,-0.0941538333,57.1000000000,3.6250000000,-2.9375000000,342.6875000000,image216.jpg,43216.2870600000
4,50.8636403333,-0.0941555000,57.1000000000,5.0625000000,-2.6875000000,340.3125000000,image217.jpg,43416.3751300000
4,50.8636410000,-0.0941571667,57.1000000000,4.2500000000,-4.0000000000,338.7500000000,image218.jpg,43616.3978880000
4,50.8636416667,-0.0941590000,57.1000000000,5.4375000000,-4.8125000000,335.0000000000,image219.jpg,43816.4128860000
4,50.8636423333,-0.0941606667,57.1000000000,4.7500000000,-3.7500000000,332.1250000000,image220.jpg,44016.5349620000
4,50.8636428333,-0.0941625000,57.1000000000,6.0000000000,-2.4375000000,331.1875000000,image221.jpg,44216.5281900000
4,50.8636433333,-0.0941643333,57.1000000000,5.3750000000,-3.4375000000,331.0000000000,image222.jpg,44416.8332760000
4,50.8636440000,-0.0941661667,57.1000000000,6.3125000000,-3.8125000000,332.6250000000,image223.jpg,44616.6405220000
4,50.8636446667,-0.0941680000,57.1000000000,5.9375000000,-4.3750000000,334.0625000000,image224.jpg,44816.6848900000
4,50.8636453333,-0.0941696667,57.1000000000,6.1250000000,-4.1875000000,335.0625000000,image225.jpg,45016.8086290000
4,50.8636458333,-0.0941715000,57.1000000000,5.5625000000,-3.6250000000,331.6875000000,image226.jpg,45217.9279870000
4,50.8636465000,-0.0941735000,57.1000000000,6.5625000000,-5.0000000000,330.2500000000,image227.jpg,45418.0033950000
4,50.8636470000,-0.0941753333,57.1000000000,7.3750000000,-4.6250000000,331.4375000000,image228.jpg,45618.0001060000
4,50.8636475000,-0.0941770000,57.1000000000,7.6250000000,-4.0625000000,334.2500000000,image229.jpg,45817.8013590000
4,50.8636481667,-0.0941788333,57.1000000000,6.0625000000,-4.9375000000,334.5000000000,image230.jpg,46017.3708550000
4,50.8636488333,-0.0941808333,57.1000000000,6.9375000000,-4.5625000000,333.6250000000,image231.jpg,46217.9528450000
4,50.8636495000,-0.0941825000,57.1000000000,5.9375000000,-3.8125000000,331.6250000000,image232.jpg,46418.6401410000
4,50.8636498333,-0.0941843333,57.1000000000,8.0625000000,-3.8750000000,331.0625000000,image233.jpg,46618.7779340000
4,50.8636505000,-0.0941861667,57.1000000000,7.5625000000,-3.2500000000,329.5625000000,image234.jpg,46817.9538030000
4,50.8636510000,-0.0941878333,57.2000000000,8.3750000000,-3.7500000000,329.7500000000,image235.jpg,47017.7167210000
4,50.8636515000,-0.0941896667,57.2000000000,8.9375000000,-3.4375000000,331.9375000000,image236.jpg,47217.9186250000
4,50.8636521667,-0.0941915000,57.2000000000,8.3750000000,-3.6250000000,334.3125000000,image237.jpg,47419.2175500000
4,50.8636528333,-0.0941933333,57.2000000000,8.1250000000,-4.9375000000,335.1250000000,image238.jpg,47619.0080160000
4,50.8636535000,-0.0941951667,57.2000000000,7.5000000000,-4.3750000000,334.5625000000,image239.jpg,47818.6234910000
4,50.8636541667,-0.0941973333,57.2000000000,6.1875000000,-4.1875000000,332.0625000000,image240.jpg,48018.1698040000
4,50.8636548333,-0.0941993333,57.1000000000,6.1875000000,-4.0625000000,331.8125000000,image241.jpg,48218.8596460000
4,50.8636555000,-0.0942015000,57.2000000000,6.2500000000,-4.3750000000,331.1875000000,image242.jpg,48418.0597800000
4,50.8636561667,-0.0942036667,57.2000000000,6.2500000000,-4.6250000000,332.5625000000,image243.jpg,48618.1498090000
4,50.8636570000,-0.0942058333,57.2000000000,6.6250000000,-4.0625000000,331.8750000000,image244.jpg,48818.8108990000
4,50.8636575000,-0.0942080000,57.2000000000,4.5000000000,-4.4375000000,329.8125000000,image245.jpg,49018.7000010000
4,50.8636581667,-0.0942100000,57.2000000000,5.8125000000,-4.9375000000,329.8750000000,image246.jpg,49218.7186270000
4,50.8636586667,-0.0942121667,57.2000000000,4.2500000000,-3.9375000000,326.4375000000,image247.jpg,49419.5921530000
4,50.8636593333,-0.0942140000,57.2000000000,4.6250000000,-3.4375000000,325.0625000000,image248.jpg,49619.0015920000
4,50.8636596667,-0.0942161667,57.2000000000,6.0625000000,-3.0000000000,324.6875000000,image249.jpg,49819.1491130000
4,50.8636601667,-0.0942180000,57.2000000000,5.1250000000,-3.2500000000,321.7500000000,image250.jpg,50019.0136300000
4,50.8636605000,-0.0942200000,57.2000000000,6.6250000000,-4.7500000000,322.1875000000,image251.jpg,50219.3341630000
4,50.8636608333,-0.0942221667,57.2000000000,7.5625000000,-4.0625000000,322.4375000000,image252.jpg,50420.0080090000
4,50.8636613333,-0.0942240000,57.2000000000,8.0625000000,-4.5000000000,325.0625000000,image253.jpg,50620.1283410000
4,50.8636616667,-0.0942260000,57.2000000000,9.6250000000,-4.7500000000,331.9375000000,image254.jpg,50820.5486570000
4,50.8636623333,-0.0942280000,57.2000000000,7.3750000000,-4.5000000000,334.6875000000,image255.jpg,51019.4162480000
4,50.8636631667,-0.0942296667,57.2000000000,7.5000000000,-3.6875000000,335.6250000000,image256.jpg,51219.3802350000
4,50.8636640000,-0.0942315000,57.2000000000,5.5625000000,-5.1250000000,333.4375000000,image257.jpg,51420.0502240000
4,50.8636645000,-0.0942335000,57.2000000000,5.1250000000,-5.0625000000,332.8125000000,image258.jpg,51620.4837640000
4,50.8636651667,-0.0942355000,57.2000000000,5.0625000000,-4.1875000000,332.3750000000,image259.jpg,51820.7087750000
4,50.8636658333,-0.0942373333,57.2000000000,4.6875000000,-4.3750000000,330.0000000000,image260.jpg,52020.1707040000
4,50.8636663333,-0.0942391667,57.2000000000,5.0000000000,-4.9375000000,328.5625000000,image261.jpg,52219.5524300000
4,50.8636670000,-0.0942410000,57.2000000000,3.8125000000,-4.7500000000,324.8125000000,image262.jpg,52420.0744020000
4,50.8636673333,-0.0942430000,57.2000000000,3.0000000000,-4.3750000000,323.3750000000,image263.jpg,52621.1452990000
4,50.8636676667,-0.0942450000,57.2000000000,5.1250000000,-2.9375000000,321.0000000000,image264.jpg,52821.0439710000
4,50.8636680000,-0.0942468333,57.2000000000,4.0000000000,-3.1250000000,320.5625000000,image265.jpg,53021.0690930000
4,50.8636685000,-0.0942488333,57.2000000000,5.8125000000,-3.1250000000,320.8125000000,image266.jpg,53219.9850090000
4,50.8636686667,-0.0942508333,57.2000000000,4.6875000000,-3.8750000000,322.6875000000,image267.jpg,53420.4323470000
4,50.8636691667,-0.0942526667,57.2000000000,4.6250000000,-3.8750000000,324.1250000000,image268.jpg,53620.2655510000
4,50.8636696667,-0.0942546667,57.2000000000,3.6250000000,-3.1875000000,322.8125000000,image269.jpg,53820.9924530000
4,50.8636700000,-0.0942561667,57.2000000000,4.7500000000,-3.0625000000,319.8125000000,image270.jpg,54020.4755200000
4,50.8636701667,-0.0942583333,57.2000000000,4.5000000000,-2.5625000000,319.7500000000,image271.jpg,54221.3527790000
4,50.8636706667,-0.0942601667,57.2000000000,4.0000000000,-4.5625000000,321.0000000000,image272.jpg,54420.6414300000
4,50.8636710000,-0.0942621667,57.2000000000,4.8125000000,-5.0625000000,325.1875000000,image273.jpg,54621.1997970000
4,50.8636716667,-0.0942638333,57.2000000000,4.0000000000,-6.4375000000,326.0625000000,image274.jpg,54821.2141850000
4,50.8636720000,-0.0942660000,57.2000000000,4.8750000000,-4.6250000000,324.3750000000,image275.jpg,55020.9734310000
4,50.8636726667,-0.0942676667,57.2000000000,2.6875000000,-5.5000000000,324.1875000000,image276.jpg,55220.8988660000
4,50.8636730000,-0.0942696667,57.2000000000,3.5000000000,-6.1250000000,324.1875000000,image277.jpg,55421.0466840000
4,50.8636733333,-0.0942716667,57.2000000000,1.7500000000,-5.3750000000,321.0000000000,image278.jpg,55622.0675730000
4,50.8636738333,-0.0942735000,57.2000000000,4.3750000000,-4.9375000000,320.6250000000,image279.jpg,55822.2153350000
4,50.8636738333,-0.0942750000,57.2000000000,5.3125000000,-2.5000000000,319.1875000000,image280.jpg,56022.5403790000
4,50.8636741667,-0.0942770000,57.2000000000,4.0000000000,-1.3750000000,316.6875000000,image281.jpg,56221.4739400000
4,50.8636743333,-0.0942785000,57.2000000000,6.1875000000,-1.0000000000,317.0000000000,image282.jpg,56421.8361690000
4,50.8636743333,-0.0942800000,57.2000000000,5.6250000000,0.5625000000,316.4375000000,image283.jpg,56622.1991240000
4,50.8636746667,-0.0942816667,57.2000000000,5.5625000000,1.1875000000,314.6875000000,image284.jpg,56822.6504590000
4,50.8636750000,-0.0942835000,57.3000000000,4.8125000000,1.7500000000,314.8750000000,image285.jpg,57022.7237440000
4,50.8636751667,-0.0942855000,57.3000000000,4.6875000000,0.1875000000,315.5625000000,image286.jpg,57221.9711380000
4,50.8636755000,-0.0942875000,57.3000000000,5.4375000000,-0.4375000000,317.5000000000,image287.jpg,57421.7235550000
4,50.8636758333,-0.0942898333,57.3000000000,4.6875000000,-1.3750000000,319.2500000000,image288.jpg,57622.2180090000
4,50.8636763333,-0.0942918333,57.3000000000,5.3750000000,-2.6875000000,319.8125000000,image289.jpg,57823.1768640000
4,50.8636766667,-0.0942940000,57.3000000000,4.8750000000,-2.1875000000,321.2500000000,image290.jpg,58023.1774930000
4,50.8636771667,-0.0942963333,57.3000000000,4.6250000000,-1.7500000000,322.0000000000,image291.jpg,58222.9226680000
4,50.8636775000,-0.0942985000,57.3000000000,3.5625000000,-2.1250000000,322.3125000000,image292.jpg,58422.1353730000
4,50.8636780000,-0.0943006667,57.3000000000,1.8125000000,-3.7500000000,318.8125000000,image293.jpg,58622.5038940000
4,50.8636781667,-0.0943026667,57.3000000000,3.8750000000,-2.5625000000,316.6875000000,image294.jpg,58822.3799440000
4,50.8636786667,-0.0943050000,57.3000000000,5.1875000000,-2.1250000000,317.4375000000,image295.jpg,59022.4126510000
4,50.8636790000,-0.0943071667,57.3000000000,4.6250000000,-2.8750000000,317.6875000000,image296.jpg,59222.4454620000
4,50.8636793333,-0.0943096667,57.3000000000,5.2500000000,-2.8125000000,318.0000000000,image297.jpg,59422.5496760000
4,50.8636798333,-0.0943121667,57.3000000000,3.8750000000,-3.1875000000,316.4375000000,image298.jpg,59622.6702390000
4,50.8636801667,-0.0943146667,57.4000000000,4.1875000000,-2.9375000000,315.9375000000,image299.jpg,59822.7108600000
4,50.8636805000,-0.0943171667,57.4000000000,4.8125000000,-3.5625000000,316.5625000000,image300.jpg,60022.7634060000
4,50.8636808333,-0.0943196667,57.4000000000,5.8125000000,-3.1875000000,318.0625000000,image301.jpg,60222.8810540000
4,50.8636811667,-0.0943220000,57.4000000000,4.3750000000,-4.2500000000,319.8750000000,image302.jpg,60423.0730190000
4,50.8636816667,-0.0943241667,57.4000000000,5.3125000000,-4.0625000000,319.8125000000,image303.jpg,60623.0915540000
4,50.8636820000,-0.0943265000,57.3000000000,0.1875000000,-4.2500000000,315.3750000000,image304.jpg,60824.2000790000
4,50.8636823333,-0.0943288333,57.4000000000,3.5000000000,-3.6250000000,314.2500000000,image305.jpg,61024.2712150000
4,50.8636825000,-0.0943308333,57.4000000000,3.2500000000,-3.0625000000,314.1250000000,image306.jpg,61224.5615580000
4,50.8636828333,-0.0943333333,57.4000000000,4.5000000000,-3.0000000000,314.5000000000,image307.jpg,61423.2889170000
4,50.8636830000,-0.0943355000,57.4000000000,5.3125000000,-3.6875000000,314.5625000000,image308.jpg,61623.3810900000
4,50.8636833333,-0.0943378333,57.4000000000,5.8125000000,-3.3125000000,315.0000000000,image309.jpg,61824.0437520000
4,50.8636836667,-0.0943401667,57.4000000000,6.1875000000,-4.0000000000,315.0000000000,image310.jpg,62024.6793320000
4,50.8636838333,-0.0943425000,57.4000000000,5.0000000000,-4.5000000000,314.8750000000,image311.jpg,62224.7394240000
4,50.8636840000,-0.0943448333,57.4000000000,5.0625000000,-5.1875000000,315.1250000000,image312.jpg,62423.7049430000
4,50.8636845000,-0.0943471667,57.4000000000,5.3125000000,-5.3750000000,315.2500000000,image313.jpg,62623.8106020000
4,50.8636846667,-0.0943496667,57.4000000000,4.2500000000,-4.3750000000,313.0625000000,image314.jpg,62824.6047640000
4,50.8636851667,-0.0943521667,57.4000000000,2.5000000000,-4.3750000000,308.7500000000,image315.jpg,63024.8081260000
4,50.8636850000,-0.0943545000,57.4000000000,5.2500000000,-4.8750000000,308.0000000000,image316.jpg,63225.1233050000
4,50.8636851667,-0.0943570000,57.4000000000,4.2500000000,-5.9375000000,308.0625000000,image317.jpg,63424.7602410000
4,50.8636851667,-0.0943598333,57.4000000000,5.1875000000,-4.6875000000,309.2500000000,image318.jpg,63624.5503940000
4,50.8636853333,-0.0943623333,57.4000000000,4.7500000000,-3.7500000000,308.8750000000,image319.jpg,63824.5201210000
4,50.8636855000,-0.0943650000,57.4000000000,4.5000000000,-4.4375000000,308.7500000000,image320.jpg,64024.5114090000
4,50.8636856667,-0.0943680000,57.4000000000,5.1875000000,-4.1250000000,308.3750000000,image321.jpg,64224.5830050000
4,50.8636858333,-0.0943710000,57.4000000000,2.8750000000,-4.7500000000,308.0625000000,image322.jpg,64425.2529520000
4,50.8636860000,-0.0943740000,57.4000000000,1.1875000000,-5.0000000000,305.3750000000,image323.jpg,64625.3200130000
4,50.8636861667,-0.0943768333,57.4000000000,1.3750000000,-4.6875000000,304.0625000000,image324.jpg,64825.3227560000
4,50.8636860000,-0.0943798333,57.4000000000,2.0000000000,-4.9375000000,304.7500000000,image325.jpg,65025.5839210000
4,50.8636861667,-0.0943830000,57.4000000000,4.8750000000,-5.3125000000,308.1250000000,image326.jpg,65225.3715190000
4,50.8636863333,-0.0943858333,57.4000000000,4.4375000000,-5.3750000000,312.9375000000,image327.jpg,65425.4317060000
4,50.8636866667,-0.0943886667,57.4000000000,4.9375000000,-4.6875000000,313.6250000000,image328.jpg,65625.5078790000
4,50.8636870000,-0.0943918333,57.4000000000,4.5625000000,-4.8125000000,313.8750000000,image329.jpg,65825.7754990000
4,50.8636871667,-0.0943946667,57.4000000000,6.2500000000,-4.6250000000,314.1875000000,image330.jpg,66026.3855470000
4,50.8636876667,-0.0943975000,57.4000000000,7.7500000000,-3.6875000000,318.3125000000,image331.jpg,66226.9194020000
4,50.8636881667,-0.0944001667,57.4000000000,7.4375000000,-4.3750000000,326.6875000000,image332.jpg,66426.9823980000
4,50.8636890000,-0.0944025000,57.4000000000,7.3125000000,-3.8750000000,334.5625000000,image333.jpg,66626.5878660000
4,50.8636898333,-0.0944045000,57.3000000000,7.1250000000,-2.9375000000,342.3125000000,image334.jpg,66826.2038010000
4,50.8636910000,-0.0944063333,57.4000000000,9.2500000000,-3.6875000000,350.1875000000,image335.jpg,67026.3403840000
4,50.8636923333,-0.0944081667,57.4000000000,7.3125000000,-4.1875000000,356.5000000000,image336.jpg,67227.2525480000
4,50.8636938333,-0.0944095000,57.4000000000,5.8750000000,-3.8125000000,355.6875000000,image337.jpg,67427.1856530000
4,50.8636950000,-0.0944113333,57.4000000000,4.6875000000,-3.8750000000,348.1250000000,image338.jpg,67627.1057350000
4,50.8636961667,-0.0944133333,57.4000000000,5.7500000000,-4.1250000000,343.1875000000,image339.jpg,67826.3996550000
4,50.8636971667,-0.0944155000,57.4000000000,6.3125000000,-3.8750000000,343.5000000000,image340.jpg,68026.6043040000
4,50.8636985000,-0.0944176667,57.4000000000,4.5000000000,-3.5625000000,342.8125000000,image341.jpg,68227.7356180000
4,50.8636995000,-0.0944198333,57.4000000000,3.8125000000,-3.6250000000,337.3125000000,image342.jpg,68427.5130520000
4,50.8637003333,-0.0944221667,57.4000000000,2.3750000000,-4.5625000000,329.8125000000,image343.jpg,68627.6002050000
4,50.8637008333,-0.0944246667,57.4000000000,2.6250000000,-4.8750000000,322.2500000000,image344.jpg,68826.8073040000
4,50.8637013333,-0.0944271667,57.4000000000,1.7500000000,-5.6875000000,315.1250000000,image345.jpg,69026.7596730000
4,50.8637013333,-0.0944293333,57.4000000000,1.6875000000,-4.6250000000,310.3750000000,image346.jpg,69226.8540650000
4,50.8637016667,-0.0944318333,57.4000000000,3.1875000000,-3.6875000000,307.8750000000,image347.jpg,69427.0695960000
4,50.8637015000,-0.0944346667,57.4000000000,3.7500000000,-2.9375000000,308.0625000000,image348.jpg,69627.0326390000
4,50.8637016667,-0.0944373333,57.4000000000,6.0625000000,-2.1875000000,313.3125000000,image349.jpg,69827.2020230000
4,50.8637020000,-0.0944401667,57.4000000000,5.4375000000,-2.6875000000,319.0625000000,image350.jpg,70027.1719410000
4,50.8637025000,-0.0944426667,57.4000000000,4.0000000000,-3.8750000000,322.3125000000,image351.jpg,70227.2483100000
4,50.8637031667,-0.0944453333,57.4000000000,4.6250000000,-3.2500000000,316.5625000000,image352.jpg,70427.2798380000
4,50.8637035000,-0.0944480000,57.4000000000,4.0625000000,-2.6250000000,309.8125000000,image353.jpg,70627.5057790000
4,50.8637033333,-0.0944506667,57.4000000000,4.9375000000,-3.2500000000,302.6875000000,image354.jpg,70827.7817170000
4,50.8637031667,-0.0944531667,57.4000000000,2.7500000000,-1.3750000000,300.1250000000,image355.jpg,71027.9268300000
4,50.8637030000,-0.0944561667,57.4000000000,6.8125000000,-0.9375000000,301.1875000000,image356.jpg,71228.4006730000
4,50.8637030000,-0.0944585000,57.4000000000,4.9375000000,-2.5000000000,306.1250000000,image357.jpg,71428.8318630000
4,50.8637031667,-0.0944615000,57.4000000000,5.0625000000,-2.7500000000,312.8125000000,image358.jpg,71628.9131740000
4,50.8637036667,-0.0944638333,57.4000000000,1.8125000000,-2.7500000000,318.3125000000,image359.jpg,71828.1002140000
4,50.8637043333,-0.0944661667,57.5000000000,3.5625000000,-3.1875000000,319.6250000000,image360.jpg,72028.1945970000
4,50.8637046667,-0.0944686667,57.5000000000,2.5625000000,-2.9375000000,318.3750000000,image361.jpg,72228.5002190000
4,50.8637051667,-0.0944713333,57.5000000000,0.5000000000,-4.8750000000,316.2500000000,image362.jpg,72429.1348310000
4,50.8637051667,-0.0944741667,57.4000000000,3.7500000000,-3.8750000000,308.6250000000,image363.jpg,72629.2845730000
4,50.8637053333,-0.0944765000,57.5000000000,1.6250000000,-1.6875000000,304.3750000000,image364.jpg,72828.6963360000
4,50.8637051667,-0.0944790000,57.5000000000,7.3125000000,-3.3750000000,306.7500000000,image365.jpg,73028.3192340000
4,50.8637055000,-0.0944813333,57.5000000000,5.1875000000,-1.5625000000,312.5625000000,image366.jpg,73228.6249040000
4,50.8637058333,-0.0944836667,57.5000000000,3.8125000000,-2.2500000000,319.0000000000,image367.jpg,73429.4514300000
4,50.8637061667,-0.0944861667,57.5000000000,3.1250000000,-3.1875000000,326.3125000000,image368.jpg,73629.5590360000
4,50.8637070000,-0.0944883333,57.4000000000,1.6875000000,-2.0625000000,328.1875000000,image369.jpg,73829.3429630000
4,50.8637078333,-0.0944908333,57.5000000000,4.0000000000,-1.1875000000,327.9375000000,image370.jpg,74028.6530620000
4,50.8637085000,-0.0944931667,57.5000000000,0.7500000000,-1.3750000000,327.4375000000,image371.jpg,74228.6974430000
4,50.8637091667,-0.0944955000,57.5000000000,7.1875000000,-2.3125000000,327.8125000000,image372.jpg,74428.8755660000
4,50.8637098333,-0.0944975000,57.5000000000,3.0000000000,-5.1875000000,330.4375000000,image373.jpg,74628.7308400000
4,50.8637105000,-0.0944991667,57.5000000000,5.3750000000,-5.8750000000,338.0625000000,image374.jpg,74828.9206260000
4,50.8637113333,-0.0945010000,57.5000000000,4.2500000000,-6.5000000000,343.7500000000,image375.jpg,75028.8289700000
4,50.8637125000,-0.0945026667,57.5000000000,3.5000000000,-4.2500000000,348.6250000000,image376.jpg,75228.8418390000
4,50.8637135000,-0.0945038333,57.5000000000,5.5625000000,-3.3750000000,354.6875000000,image377.jpg,75429.0440720000
4,50.8637146667,-0.0945050000,57.5000000000,5.6250000000,-2.6875000000,1.0625000000,image378.jpg,75629.1625580000
4,50.8637161667,-0.0945063333,57.5000000000,6.4375000000,-3.1250000000,9.3125000000,image379.jpg,75829.1644350000
4,50.8637176667,-0.0945068333,57.5000000000,7.5000000000,-2.1875000000,16.3750000000,image380.jpg,76029.1362630000
4,50.8637191667,-0.0945075000,57.5000000000,6.9375000000,-4.4375000000,24.9375000000,image381.jpg,76229.5473350000
4,50.8637208333,-0.0945075000,57.5000000000,6.3125000000,-4.1250000000,33.7500000000,image382.jpg,76430.3644260000
4,50.8637223333,-0.0945071667,57.5000000000,7.3125000000,-2.3125000000,41.9375000000,image383.jpg,76630.7010730000
4,50.8637240000,-0.0945065000,57.5000000000,5.9375000000,-2.4375000000,50.1250000000,image384.jpg,76831.4576960000
4,50.8637253333,-0.0945053333,57.5000000000,7.1250000000,-2.0625000000,57.8750000000,image385.jpg,77030.8738230000
4,50.8637268333,-0.0945040000,57.5000000000,7.7500000000,-2.6250000000,65.2500000000,image386.jpg,77230.3524990000
4,50.8637281667,-0.0945023333,57.5000000000,6.8750000000,-2.5625000000,73.1875000000,image387.jpg,77430.6943540000
4,50.8637293333,-0.0945001667,57.5000000000,6.6250000000,-3.8125000000,81.0625000000,image388.jpg,77631.6203920000
4,50.8637303333,-0.0944980000,57.5000000000,6.7500000000,-3.3125000000,89.1250000000,image389.jpg,77831.6976240000
4,50.8637308333,-0.0944955000,57.5000000000,9.1875000000,-2.2500000000,96.7500000000,image390.jpg,78031.4610720000
4,50.8637315000,-0.0944930000,57.5000000000,5.5000000000,-2.4375000000,102.8125000000,image391.jpg,78230.6651780000
4,50.8637318333,-0.0944903333,57.5000000000,9.0000000000,-2.9375000000,112.1250000000,image392.jpg,78430.8608930000
4,50.8637321667,-0.0944876667,57.5000000000,7.7500000000,-0.5625000000,118.8750000000,image393.jpg,78631.8353100000
4,50.8637320000,-0.0944848333,57.5000000000,6.1250000000,-2.8750000000,126.3125000000,image394.jpg,78831.9671200000
4,50.8637315000,-0.0944823333,57.5000000000,6.2500000000,-0.6875000000,134.3125000000,image395.jpg,79031.8855040000
4,50.8637310000,-0.0944796667,57.5000000000,5.9375000000,-0.4375000000,142.4375000000,image396.jpg,79231.3267810000
4,50.8637301667,-0.0944771667,57.5000000000,4.0625000000,0.1250000000,148.9375000000,image397.jpg,79431.2094900000
4,50.8637293333,-0.0944746667,57.5000000000,3.5625000000,-0.1250000000,147.5000000000,image398.jpg,79631.2028680000
4,50.8637285000,-0.0944720000,57.5000000000,0.1250000000,-1.1250000000,141.1875000000,image399.jpg,79831.5510160000
4,50.8637280000,-0.0944693333,57.5000000000,2.8750000000,-0.8125000000,134.0625000000,image400.jpg,80031.2389430000
4,50.8637276667,-0.0944668333,57.5000000000,0.8750000000,0.1875000000,126.4375000000,image401.jpg,80231.5782380000
4,50.8637276667,-0.0944645000,57.5000000000,2.0000000000,-2.0000000000,121.5000000000,image402.jpg,80431.3673560000
4,50.8637278333,-0.0944615000,57.5000000000,3.2500000000,-3.4375000000,123.6875000000,image403.jpg,80631.4757240000
4,50.8637275000,-0.0944588333,57.5000000000,6.1875000000,0.0000000000,131.1875000000,image404.jpg,80831.7765810000
4,50.8637271667,-0.0944561667,57.5000000000,5.3125000000,0.8125000000,137.2500000000,image405.jpg,81031.6536600000
4,50.8637266667,-0.0944535000,57.5000000000,2.8750000000,-1.5000000000,134.0000000000,image406.jpg,81231.7943180000
4,50.8637263333,-0.0944508333,57.5000000000,2.2500000000,-1.1875000000,127.5625000000,image407.jpg,81431.8716980000
4,50.8637261667,-0.0944481667,57.5000000000,3.3125000000,0.4375000000,124.6875000000,image408.jpg,81632.5358650000
4,50.8637261667,-0.0944453333,57.5000000000,2.3125000000,0.2500000000,125.4375000000,image409.jpg,81833.1198280000
4,50.8637260000,-0.0944423333,57.5000000000,2.0625000000,0.5000000000,126.0625000000,image410.jpg,82032.9250860000
4,50.8637256667,-0.0944396667,57.5000000000,2.2500000000,0.1250000000,122.0000000000,image411.jpg,82232.4104670000
4,50.8637258333,-0.0944366667,57.5000000000,2.1875000000,0.2500000000,114.3125000000,image412.jpg,82432.1940590000
4,50.8637261667,-0.0944341667,57.5000000000,2.0625000000,0.8125000000,108.2500000000,image413.jpg,82632.6980240000
4,50.8637265000,-0.0944315000,57.5000000000,2.8125000000,0.2500000000,108.2500000000,image414.jpg,82833.2467260000
4,50.8637270000,-0.0944288333,57.5000000000,4.5625000000,0.3750000000,111.6875000000,image415.jpg,83033.3832640000
4,50.8637271667,-0.0944260000,57.5000000000,5.6250000000,-0.1250000000,120.2500000000,image416.jpg,83233.1014930000
4,50.8637270000,-0.0944231667,57.5000000000,2.3125000000,-0.8125000000,123.8125000000,image417.jpg,83432.4716690000
4,50.8637268333,-0.0944203333,57.5000000000,2.0000000000,0.1250000000,117.3125000000,image418.jpg,83632.8673570000
4,50.8637270000,-0.0944175000,57.5000000000,1.1875000000,-0.9375000000,109.0000000000,image419.jpg,83833.8625410000
4,50.8637275000,-0.0944151667,57.5000000000,1.5000000000,-0.7500000000,103.1250000000,image420.jpg,84033.7119580000
4,50.8637281667,-0.0944130000,57.5000000000,2.5625000000,-0.5000000000,96.2500000000,image421.jpg,84233.5818940000
4,50.8637288333,-0.0944105000,57.5000000000,5.3750000000,-0.9375000000,94.3125000000,image422.jpg,84432.8752490000
4,50.8637296667,-0.0944083333,57.5000000000,6.3125000000,-0.4375000000,99.2500000000,image423.jpg,84633.7296060000
4,50.8637301667,-0.0944056667,57.5000000000,5.7500000000,-1.8750000000,107.5000000000,image424.jpg,84833.0572270000
4,50.8637305000,-0.0944028333,57.5000000000,6.5000000000,-1.7500000000,114.8125000000,image425.jpg,85033.2941190000
4,50.8637303333,-0.0944001667,57.5000000000,5.8750000000,-1.6250000000,123.7500000000,image426.jpg,85233.1687410000
4,50.8637303333,-0.0943973333,57.5000000000,4.9375000000,-0.9375000000,131.8750000000,image427.jpg,85433.3364180000
4,50.8637296667,-0.0943951667,57.5000000000,6.0000000000,-1.2500000000,139.5625000000,image428.jpg,85633.5589850000
4,50.8637290000,-0.0943926667,57.5000000000,3.0625000000,-0.8750000000,145.6875000000,image429.jpg,85833.4867250000
4,50.8637281667,-0.0943898333,57.5000000000,3.5625000000,-0.6250000000,140.8125000000,image430.jpg,86033.3916020000
4,50.8637276667,-0.0943873333,57.5000000000,3.3125000000,-1.3125000000,133.5625000000,image431.jpg,86233.5601620000
4,50.8637275000,-0.0943846667,57.5000000000,3.0625000000,-0.8750000000,126.8750000000,image432.jpg,86433.5531070000
4,50.8637275000,-0.0943818333,57.5000000000,4.2500000000,-1.9375000000,120.0625000000,image433.jpg,86633.6738030000
4,50.8637275000,-0.0943791667,57.5000000000,2.9375000000,-1.8125000000,113.7500000000,image434.jpg,86834.8469370000
4,50.8637278333,-0.0943765000,57.5000000000,4.1875000000,-2.1875000000,107.6875000000,image435.jpg,87034.9775800000
4,50.8637283333,-0.0943735000,57.4000000000,3.5625000000,-4.5000000000,102.8750000000,image436.jpg,87234.8156880000
4,50.8637290000,-0.0943706667,57.4000000000,5.7500000000,-3.0625000000,104.3750000000,image437.jpg,87433.8499360000
4,50.8637295000,-0.0943678333,57.4000000000,4.8750000000,-3.3750000000,105.6875000000,image438.jpg,87634.0057830000
4,50.8637300000,-0.0943650000,57.4000000000,2.5000000000,-5.5625000000,105.8125000000,image439.jpg,87834.8637770000
4,50.8637300000,-0.0943641667,57.4000000000,3.6250000000,-3.5625000000,105.3125000000,image440.jpg,88035.1084730000
4,50.8637300000,-0.0943643333,57.4000000000,3.1875000000,-3.5625000000,105.2500000000,image441.jpg,88235.3933240000
4,50.8637300000,-0.0943643333,57.4000000000,3.1250000000,-3.6250000000,105.2500000000,image442.jpg,88434.3197100000
4,50.8637300000,-0.0943643333,57.4000000000,3.2500000000,-3.8125000000,105.2500000000,image443.jpg,88634.4219120000
4,50.8637300000,-0.0943641667,57.4000000000,2.8125000000,-3.8125000000,105.2500000000,image444.jpg,88834.9655990000
4,50.8637300000,-0.0943641667,57.4000000000,2.6250000000,-3.8125000000,105.1875000000,image445.jpg,89035.4251760000
4,50.8637300000,-0.0943641667,57.4000000000,2.7500000000,-3.8125000000,105.1875000000,image446.jpg,89235.5563350000
4,50.8637300000,-0.0943641667,57.4000000000,1.7500000000,-4.0000000000,105.6875000000,image447.jpg,89435.0132610000
4,50.8637300000,-0.0943640000,57.5000000000,-1.0625000000,-0.7500000000,107.8125000000,image448.jpg,89634.7280870000
4,50.8637301667,-0.0943631667,57.6000000000,2.4375000000,1.1875000000,109.1250000000,image449.jpg,89835.2992180000
4,50.8637303333,-0.0943610000,57.9000000000,10.1875000000,3.8125000000,111.1250000000,image450.jpg,90034.8749900000
4,50.8637305000,-0.0943583333,58.1000000000,19.1250000000,8.1250000000,115.3125000000,image451.jpg,90234.9353690000
4,50.8637300000,-0.0943550000,58.3000000000,17.0000000000,12.8750000000,113.6875000000,image452.jpg,90435.0261100000
4,50.8637290000,-0.0943523333,58.4000000000,12.3125000000,13.3125000000,108.1250000000,image453.jpg,90635.1376300000
4,50.8637281667,-0.0943490000,58.4000000000,13.3125000000,10.3750000000,102.8750000000,image454.jpg,90835.3948700000
4,50.8637273333,-0.0943455000,58.4000000000,12.4375000000,13.5625000000,101.7500000000,image455.jpg,91035.2856730000
4,50.8637261667,-0.0943421667,58.4000000000,11.3125000000,20.9375000000,104.3750000000,image456.jpg,91235.4035990000
4,50.8637251667,-0.0943391667,58.4000000000,10.8750000000,27.3125000000,109.5000000000,image457.jpg,91435.3881980000
5,50.8637245000,-0.0943356667,58.4000000000,9.9375000000,25.4375000000,111.3125000000,image458.jpg,91635.4399270000
5,50.8637240000,-0.0943320000,58.4000000000,12.3125000000,22.8125000000,111.0000000000,image459.jpg,91835.7941380000
5,50.8637235000,-0.0943281667,58.4000000000,9.8750000000,26.3125000000,115.3750000000,image460.jpg,92036.7918540000
5,50.8637230000,-0.0943241667,58.5000000000,10.5000000000,27.3750000000,117.6250000000,image461.jpg,92236.6019300000
5,50.8637223333,-0.0943208333,58.5000000000,11.4375000000,29.8125000000,118.3125000000,image462.jpg,92436.8876040000
5,50.8637216667,-0.0943168333,58.5000000000,8.9375000000,30.0000000000,115.6875000000,image463.jpg,92635.8120510000
5,50.8637210000,-0.0943135000,58.5000000000,12.9375000000,26.8750000000,114.8750000000,image464.jpg,92835.7931050000
5,50.8637205000,-0.0943100000,58.5000000000,11.5625000000,29.1875000000,115.8125000000,image465.jpg,93036.9389860000
5,50.8637196667,-0.0943063333,58.5000000000,6.6250000000,26.6875000000,114.8750000000,image466.jpg,93237.2369490000
5,50.8637188333,-0.0943030000,58.5000000000,10.3750000000,24.8125000000,117.6875000000,image467.jpg,93437.0393140000
5,50.8637176667,-0.0942996667,58.5000000000,8.3750000000,23.5000000000,116.7500000000,image468.jpg,93636.2412950000
5,50.8637163333,-0.0942961667,58.5000000000,3.1875000000,7.6875000000,102.6250000000,image469.jpg,93836.3663490000
5,50.8637148333,-0.0942916667,58.5000000000,0.9375000000,-2.0000000000,85.3125000000,image470.jpg,94037.0960540000
5,50.8637136667,-0.0942875000,58.4000000000,-0.1875000000,4.9375000000,77.5000000000,image471.jpg,94237.3305280000
5,50.8637121667,-0.0942838333,58.4000000000,4.8125000000,13.5625000000,330.1250000000,image472.jpg,94437.5500550000
5,50.8637108333,-0.0942805000,58.3000000000,7.1250000000,16.0000000000,332.1250000000,image473.jpg,94636.6175100000
5,50.8637091667,-0.0942771667,58.3000000000,7.3125000000,13.4375000000,331.8750000000,image474.jpg,94836.6913140000
5,50.8637078333,-0.0942736667,58.3000000000,10.7500000000,13.8125000000,333.6875000000,image475.jpg,95036.9530230000
5,50.8637063333,-0.0942696667,58.3000000000,10.8125000000,13.1875000000,333.9375000000,image476.jpg,95236.9655800000
5,50.8637046667,-0.0942658333,58.3000000000,12.5000000000,10.0625000000,331.8125000000,image477.jpg,95436.8139280000
5,50.8637031667,-0.0942623333,58.4000000000,11.8125000000,11.1875000000,328.5625000000,image478.jpg,95637.0098570000
5,50.8637013333,-0.0942590000,58.4000000000,9.6875000000,9.0625000000,326.0000000000,image479.jpg,95837.1047510000
5,50.8637003333,-0.0942558333,58.4000000000,13.1875000000,8.0000000000,329.6250000000,image480.jpg,96037.3681250000
5,50.8636988333,-0.0942515000,58.4000000000,10.0000000000,4.5000000000,330.4375000000,image481.jpg,96237.1978780000
5,50.8636975000,-0.0942475000,58.4000000000,10.3750000000,1.8750000000,325.3750000000,image482.jpg,96437.4908330000
5,50.8636961667,-0.0942436667,58.4000000000,12.8125000000,3.1250000000,324.3125000000,image483.jpg,96637.3573520000
5,50.8636950000,-0.0942398333,58.4000000000,9.5625000000,2.5000000000,322.0000000000,image484.jpg,96837.4647430000
5,50.8636940000,-0.0942366667,58.4000000000,13.7500000000,2.4375000000,322.7500000000,image485.jpg,97037.9573190000
5,50.8636930000,-0.0942326667,58.4000000000,11.3750000000,2.1875000000,324.5000000000,image486.jpg,97238.7243080000
5,50.8636916667,-0.0942286667,58.4000000000,9.3750000000,-0.2500000000,321.6875000000,image487.jpg,97438.8132090000
5,50.8636905000,-0.0942246667,58.4000000000,9.6250000000,1.1250000000,317.8750000000,image488.jpg,97638.5784820000
5,50.8636891667,-0.0942208333,58.4000000000,7.3750000000,0.9375000000,313.8125000000,image489.jpg,97837.8497210000
5,50.8636880000,-0.0942176667,58.3000000000,12.3125000000,0.8750000000,315.1875000000,image490.jpg,98038.1116830000
5,50.8636868333,-0.0942141667,58.3000000000,11.9375000000,2.6250000000,319.0000000000,image491.jpg,98239.1480810000
5,50.8636853333,-0.0942103333,58.3000000000,12.3750000000,3.0625000000,318.6875000000,image492.jpg,98439.1252680000
5,50.8636841667,-0.0942065000,58.4000000000,13.7500000000,3.4375000000,316.1875000000,image493.jpg,98639.3643650000
5,50.8636826667,-0.0942031667,58.3000000000,11.5000000000,3.3125000000,312.3750000000,image494.jpg,98838.4482680000
5,50.8636810000,-0.0941998333,58.3000000000,14.0000000000,2.8750000000,313.6875000000,image495.jpg,99038.5419050000
5,50.8636798333,-0.0941965000,58.3000000000,13.4375000000,4.6250000000,316.2500000000,image496.jpg,99239.5855390000
5,50.8636783333,-0.0941925000,58.3000000000,9.5000000000,4.6250000000,315.2500000000,image497.jpg,99439.7269330000
5,50.8636770000,-0.0941893333,58.3000000000,13.1875000000,6.0000000000,317.6250000000,image498.jpg,99639.7870800000
5,50.8636756667,-0.0941861667,58.3000000000,10.8125000000,5.8125000000,316.1250000000,image499.jpg,99838.6894810000
5,50.8636743333,-0.0941831667,58.3000000000,12.5625000000,6.4375000000,319.1875000000,image500.jpg,100038.8582680000
5,50.8636733333,-0.0941800000,58.3000000000,17.1875000000,12.5000000000,331.0000000000,image501.jpg,100238.9519020000
5,50.8636725000,-0.0941765000,58.3000000000,14.9375000000,19.3125000000,350.6250000000,image502.jpg,100438.8669530000
5,50.8636715000,-0.0941733333,58.3000000000,10.7500000000,23.3125000000,9.4375000000,image503.jpg,100639.0484970000
5,50.8636701667,-0.0941701667,58.2000000000,6.0000000000,20.9375000000,20.1875000000,image504.jpg,100839.0703620000
5,50.8636685000,-0.0941670000,58.2000000000,8.1250000000,17.5625000000,21.2500000000,image505.jpg,101039.0786350000
5,50.8636671667,-0.0941638333,58.2000000000,4.2500000000,24.5625000000,26.8125000000,image506.jpg,101239.4778220000
5,50.8636655000,-0.0941603333,58.2000000000,-3.6250000000,25.8750000000,32.8750000000,image507.jpg,101439.3426130000
5,50.8636636667,-0.0941571667,58.2000000000,-1.7500000000,22.7500000000,37.5000000000,image508.jpg,101639.4966040000
5,50.8636620000,-0.0941543333,58.1000000000,-4.7500000000,22.6250000000,38.8125000000,image509.jpg,101839.4613870000
5,50.8636598333,-0.0941516667,58.1000000000,-3.3125000000,21.8125000000,36.8750000000,image510.jpg,102039.5113740000
5,50.8636580000,-0.0941491667,58.2000000000,-0.5000000000,24.3750000000,39.9375000000,image511.jpg,102240.2669450000
5,50.8636558333,-0.0941463333,58.2000000000,-3.3750000000,22.1250000000,41.1250000000,image512.jpg,102440.7616970000
5,50.8636531667,-0.0941443333,58.2000000000,-1.3750000000,20.0000000000,43.3750000000,image513.jpg,102640.6188280000
5,50.8636510000,-0.0941425000,58.1000000000,-2.6875000000,20.6250000000,41.6250000000,image514.jpg,102840.5326740000
5,50.8636486667,-0.0941405000,58.1000000000,-1.7500000000,17.8125000000,35.7500000000,image515.jpg,103039.8393690000
5,50.8636465000,-0.0941390000,58.1000000000,1.6875000000,14.1250000000,31.4375000000,image516.jpg,103240.1214750000
5,50.8636445000,-0.0941361667,58.1000000000,6.3750000000,8.5625000000,16.0000000000,image517.jpg,103440.9353210000
5,50.8636420000,-0.0941335000,58.1000000000,6.2500000000,5.3125000000,354.3125000000,image518.jpg,103641.0620180000
